timestamp,x6position_pose_rp[0],x6position_pose_rp[1],x6position_pose_rp[2],x6position_pose_rp[3],x6position_pose_rp[4],x6position_pose_rp[5],x6position_joints[0],x6position_joints[1],x6position_joints[2],x6position_joints[3],x6position_joints[4],x6position_joints[5],aimooe_coord_header.stamp.sec,aimooe_coord_header.stamp.nanosec,aimooe_coord_header.frame_id,aimooe_coord_position.x,aimooe_coord_position.y,aimooe_coord_position.z,aimooe_coord_orientation.x,aimooe_coord_orientation.y,aimooe_coord_orientation.z,aimooe_coord_mean_error
2026-01-13 16:48:00.999085,-0.00022644597629550844,-0.00040881699533201754,45.00144958496094,0.002741703763604164,9.995834350585938,-9.001509666442871,53.678001403808594,53.03900146484375,42.03799819946289,53.0369987487793,66.33899688720703,53.03799819946289,1768294080,930928652,X6-tool2,-0.4528525023540731,0.5232989154465169,44.791340597109674,-0.17881379324631694,-0.04777572708859914,-0.12600019420150865,0.048514366149902344
2026-01-13 16:48:01.034016,-0.00022644597629550844,-0.00040881699533201754,45.00144958496094,0.002741703763604164,9.995834350585938,-9.001509666442871,53.678001403808594,53.03900146484375,42.03799819946289,53.0369987487793,66.33899688720703,53.03799819946289,1768294081,30695936,X6-tool2,-0.4533508725940651,0.49834263743070795,44.83884356088521,-0.17927664894656536,-0.047650221764116575,-0.1256705386446468,0.046667736023664474
2026-01-13 16:48:01.068655,-0.00022644597629550844,-0.00040881699533201754,45.00144958496094,0.002741703763604164,9.995834350585938,-9.001509666442871,53.678001403808594,53.03900146484375,42.03799819946289,53.0369987487793,66.33899688720703,53.03799819946289,1768294081,30695936,X6-tool2,-0.4533508725940651,0.49834263743070795,44.83884356088521,-0.17927664894656536,-0.047650221764116575,-0.1256705386446468,0.046667736023664474
2026-01-13 16:48:01.103157,-0.00022644597629550844,-0.00040881699533201754,45.00144958496094,0.002741703763604164,9.995834350585938,-9.001509666442871,53.678001403808594,53.03900146484375,42.03799819946289,53.0369987487793,66.33899688720703,53.03799819946289,1768294081,30695936,X6-tool2,-0.4533508725940651,0.49834263743070795,44.83884356088521,-0.17927664894656536,-0.047650221764116575,-0.1256705386446468,0.046667736023664474
2026-01-13 16:48:01.137701,-0.00022644597629550844,-0.00040881699533201754,45.00144958496094,0.002741703763604164,9.995834350585938,-9.001509666442871,53.678001403808594,53.03900146484375,42.03799819946289,53.0369987487793,66.33899688720703,53.03799819946289,1768294081,130176079,X6-tool2,-0.4799669122462956,0.5403298666346597,44.890093716316244,-0.17856266092011036,-0.04677294078000139,-0.12605668785234492,0.04910596087574959
2026-01-13 16:48:01.172219,-0.00022644597629550844,-0.00040881699533201754,45.00144958496094,0.002741703763604164,9.995834350585938,-9.001509666442871,53.678001403808594,53.03900146484375,42.03799819946289,53.0369987487793,66.33899688720703,53.03799819946289,1768294081,130176079,X6-tool2,-0.4799669122462956,0.5403298666346597,44.890093716316244,-0.17856266092011036,-0.04677294078000139,-0.12605668785234492,0.04910596087574959
2026-01-13 16:48:01.206730,-0.00022644597629550844,-0.00040881699533201754,45.00144958496094,0.002741703763604164,9.995834350585938,-9.001509666442871,53.678001403808594,53.03900146484375,42.03799819946289,53.0369987487793,66.33899688720703,53.03799819946289,1768294081,130176079,X6-tool2,-0.4799669122462956,0.5403298666346597,44.890093716316244,-0.17856266092011036,-0.04677294078000139,-0.12605668785234492,0.04910596087574959
2026-01-13 16:48:01.241221,-0.00022644597629550844,-0.00040881699533201754,45.00144958496094,0.002741703763604164,9.995834350585938,-9.001509666442871,53.678001403808594,53.03900146484375,42.03799819946289,53.0369987487793,66.33899688720703,53.03799819946289,1768294081,229741035,X6-tool2,-0.48383677703995476,0.5063523356363938,44.829725268423864,-0.17916795839480526,-0.04714667578360081,-0.1260715956616113,0.049755096435546875
2026-01-13 16:48:01.275672,-0.00022644597629550844,-0.00040881699533201754,45.00144958496094,0.002741703763604164,9.995834350585938,-9.001509666442871,53.678001403808594,53.03900146484375,42.03799819946289,53.0369987487793,66.33899688720703,53.03799819946289,1768294081,229741035,X6-tool2,-0.48383677703995476,0.5063523356363938,44.829725268423864,-0.17916795839480526,-0.04714667578360081,-0.1260715956616113,0.049755096435546875
2026-01-13 16:48:01.310184,-0.00022644597629550844,-0.00040881699533201754,45.00144958496094,0.002741703763604164,9.995834350585938,-9.001509666442871,53.678001403808594,53.03900146484375,42.03799819946289,53.0369987487793,66.33899688720703,53.03799819946289,1768294081,229741035,X6-tool2,-0.48383677703995476,0.5063523356363938,44.829725268423864,-0.17916795839480526,-0.04714667578360081,-0.1260715956616113,0.049755096435546875
2026-01-13 16:48:01.344803,-0.00022644597629550844,-0.00040881699533201754,45.00144958496094,0.002741703763604164,9.995834350585938,-9.001509666442871,53.678001403808594,53.03900146484375,42.03799819946289,53.0369987487793,66.33899688720703,53.03799819946289,1768294081,328998699,X6-tool2,-0.4626554571823861,0.5308198044055281,44.829489623282775,-0.17848398965276135,-0.04763058110152069,-0.1259235328135545,0.05056794360280037
2026-01-13 16:48:01.379322,-0.00022644597629550844,-0.00040881699533201754,45.00144958496094,0.002741703763604164,9.995834350585938,-9.001509666442871,53.678001403808594,53.03900146484375,42.03799819946289,53.0369987487793,66.33899688720703,53.03799819946289,1768294081,328998699,X6-tool2,-0.4626554571823861,0.5308198044055281,44.829489623282775,-0.17848398965276135,-0.04763058110152069,-0.1259235328135545,0.05056794360280037
2026-01-13 16:48:01.413819,-0.00022644597629550844,-0.00040881699533201754,45.00144958496094,0.002741703763604164,9.995834350585938,-9.001509666442871,53.678001403808594,53.03900146484375,42.03799819946289,53.0369987487793,66.33899688720703,53.03799819946289,1768294081,328998699,X6-tool2,-0.4626554571823861,0.5308198044055281,44.829489623282775,-0.17848398965276135,-0.04763058110152069,-0.1259235328135545,0.05056794360280037
2026-01-13 16:48:01.448336,-0.00022644597629550844,-0.00040881699533201754,45.00144958496094,0.002741703763604164,9.995834350585938,-9.001509666442871,53.678001403808594,53.03900146484375,42.03799819946289,53.0369987487793,66.33899688720703,53.03799819946289,1768294081,428630188,X6-tool2,-0.5049833839471568,0.5339275609782018,44.869021137702795,-0.17862400465002387,-0.046408779762978046,-0.1263076662222508,0.051431018859148026
2026-01-13 16:48:01.482838,-0.00022644597629550844,-0.00040881699533201754,45.00144958496094,0.002741703763604164,9.995834350585938,-9.001509666442871,53.678001403808594,53.03900146484375,42.03799819946289,53.0369987487793,66.33899688720703,53.03799819946289,1768294081,428630188,X6-tool2,-0.5049833839471568,0.5339275609782018,44.869021137702795,-0.17862400465002387,-0.046408779762978046,-0.1263076662222508,0.051431018859148026
2026-01-13 16:48:01.517341,-0.00022644597629550844,-0.00040881699533201754,45.00144958496094,0.002741703763604164,9.995834350585938,-9.001509666442871,53.678001403808594,53.03900146484375,42.03799819946289,53.0369987487793,66.33899688720703,53.03799819946289,1768294081,428630188,X6-tool2,-0.5049833839471568,0.5339275609782018,44.869021137702795,-0.17862400465002387,-0.046408779762978046,-0.1263076662222508,0.051431018859148026
2026-01-13 16:48:01.551843,0.0061664581298828125,0.008071484044194221,45.002723693847656,0.035961318761110306,9.981261253356934,-9.009214401245117,53.638999938964844,53.02199935913086,42.0880012512207,53.064998626708984,66.33899688720703,53.03799819946289,1768294081,528018167,X6-tool2,-0.46068169592202696,0.5667578990490908,44.86772867912481,-0.17770208081998193,-0.04736618488750079,-0.12622915899131015,0.0521036796271801
2026-01-13 16:48:01.586297,0.007863958366215229,0.05980590358376503,45.007041931152344,0.10041029006242752,9.852898597717285,-8.925267219543457,53.35900115966797,52.90700149536133,42.19200134277344,53.14699935913086,66.02100372314453,53.10900115966797,1768294081,528018167,X6-tool2,-0.46068169592202696,0.5667578990490908,44.86772867912481,-0.17770208081998193,-0.04736618488750079,-0.12622915899131015,0.0521036796271801
2026-01-13 16:48:01.620947,0.001223085098899901,0.1636950820684433,45.0136833190918,0.19881464540958405,9.517325401306152,-8.74252986907959,52.792999267578125,52.67100143432617,42.433998107910156,53.28499984741211,65.18599700927734,53.26900100708008,1768294081,528018167,X6-tool2,-0.46068169592202696,0.5667578990490908,44.86772867912481,-0.17770208081998193,-0.04736618488750079,-0.12622915899131015,0.0521036796271801
2026-01-13 16:48:01.655449,-0.008720655925571918,0.26509150862693787,45.027130126953125,0.2867192327976227,9.158122062683105,-8.510035514831543,52.20000076293945,52.46200180053711,42.66400146484375,53.43299865722656,64.31800079345703,53.45500183105469,1768294081,627681447,X6-tool2,-0.36600317475332406,0.6710057781150554,44.85875278680128,-0.17577128974495956,-0.043514193505409214,-0.11610935297737282,0.06626860052347183
2026-01-13 16:48:01.689952,-0.02631944790482521,0.3709881007671356,45.030738830566406,0.3764966130256653,8.783306121826172,-8.318645477294922,51.61800003051758,52.21500015258789,42.933998107910156,53.542999267578125,63.45500183105469,53.637001037597656,1768294081,627681447,X6-tool2,-0.36600317475332406,0.6710057781150554,44.85875278680128,-0.17577128974495956,-0.043514193505409214,-0.11610935297737282,0.06626860052347183
2026-01-13 16:48:01.724462,-0.034311361610889435,0.42587658762931824,45.03097152709961,0.41391170024871826,8.6010160446167,-8.206856727600098,51.316001892089844,52.08300018310547,43.05400085449219,53.597999572753906,63.0099983215332,53.724998474121094,1768294081,627681447,X6-tool2,-0.36600317475332406,0.6710057781150554,44.85875278680128,-0.17577128974495956,-0.043514193505409214,-0.11610935297737282,0.06626860052347183
2026-01-13 16:48:01.758959,-0.05773695558309555,0.5353701710700989,45.02705001831055,0.4857655167579651,8.223958015441895,-8.040019035339355,50.76599884033203,51.80799865722656,43.34600067138672,53.68000030517578,62.16400146484375,53.90599822998047,1768294081,726853128,X6-tool2,-0.3666813103064853,0.9711192222374617,45.07912710168044,-0.1609080579913795,-0.034607354372882364,-0.10620093380663004,0.06280867010354996
2026-01-13 16:48:01.793433,-0.08469175547361374,0.6467555165290833,45.02454376220703,0.525733470916748,7.846206188201904,-7.821801662445068,50.20100021362305,51.534000396728516,43.597999572753906,53.762001037597656,61.275001525878906,54.104000091552734,1768294081,726853128,X6-tool2,-0.3666813103064853,0.9711192222374617,45.07912710168044,-0.1609080579913795,-0.034607354372882364,-0.10620093380663004,0.06280867010354996
2026-01-13 16:48:01.827921,-0.10328522324562073,0.7602744102478027,45.02438735961914,0.580253541469574,7.475646018981934,-7.580228805541992,49.612998962402344,51.263999938964844,43.85599899291992,53.87200164794922,60.4119987487793,54.29600143432617,1768294081,826227147,X6-tool2,-0.2673531899322087,1.0116598670754076,44.92029736555799,-0.1477118212198686,-0.02928840189390726,-0.09668871462338935,0.05928293988108635
2026-01-13 16:48:01.862418,-0.11172573268413544,0.8142053484916687,45.02487564086914,0.6039648652076721,7.2857985496521,-7.450270175933838,49.321998596191406,51.13800048828125,43.983001708984375,53.926998138427734,59.972999572753906,54.388999938964844,1768294081,826227147,X6-tool2,-0.2673531899322087,1.0116598670754076,44.92029736555799,-0.1477118212198686,-0.02928840189390726,-0.09668871462338935,0.05928293988108635
2026-01-13 16:48:01.896951,-0.12447363883256912,0.9128484725952148,45.03289794921875,0.6536100506782532,6.898874282836914,-7.151644229888916,48.73400115966797,50.92900085449219,44.2239990234375,54.05400085449219,59.09400177001953,54.57600021362305,1768294081,826227147,X6-tool2,-0.2673531899322087,1.0116598670754076,44.92029736555799,-0.1477118212198686,-0.02928840189390726,-0.09668871462338935,0.05928293988108635
2026-01-13 16:48:01.931454,-0.13473758101463318,1.0114386081695557,45.03468322753906,0.6856640577316284,6.501963138580322,-6.877364635467529,48.189998626708984,50.70399856567383,44.49399948120117,54.16899871826172,58.198001861572266,54.74100112915039,1768294081,925640007,X6-tool2,-0.44364433761793454,1.30093894446157,44.971546153948964,-0.13099961947974675,-0.01949368441378795,-0.08801678012127982,0.0640573501586914
2026-01-13 16:48:01.965932,-0.1364416927099228,1.064955234527588,45.03573226928711,0.7060084342956543,6.319808483123779,-6.73001766204834,47.904998779296875,50.58300018310547,44.619998931884766,54.2400016784668,57.77000045776367,54.823001861572266,1768294081,925640007,X6-tool2,-0.44364433761793454,1.30093894446157,44.971546153948964,-0.13099961947974675,-0.01949368441378795,-0.08801678012127982,0.0640573501586914
2026-01-13 16:48:02.000389,-0.1405840516090393,1.1698278188705444,45.04167556762695,0.722758412361145,5.9470295906066895,-6.411399841308594,47.35499954223633,50.358001708984375,44.86199951171875,54.388999938964844,56.88600158691406,54.999000549316406,1768294081,925640007,X6-tool2,-0.44364433761793454,1.30093894446157,44.971546153948964,-0.13099961947974675,-0.01949368441378795,-0.08801678012127982,0.0640573501586914
2026-01-13 16:48:02.034883,-0.13705644011497498,1.2842572927474976,45.040687561035156,0.7496673464775085,5.587480068206787,-6.06840705871582,46.75600051879883,50.09400177001953,45.09199905395508,54.54800033569336,55.9900016784668,55.15299987792969,1768294082,25280106,X6-tool2,-0.34105866730483175,1.5529605554414703,45.05677741805362,-0.11575287861922451,-0.01668979234143253,-0.07683342974921994,0.06254545599222183
2026-01-13 16:48:02.069336,-0.12536397576332092,1.3945056200027466,45.041378021240234,0.7677197456359863,5.230103015899658,-5.715725421905518,46.185001373291016,49.84700012207031,45.323001861572266,54.7239990234375,55.095001220703125,55.290000915527344,1768294082,25280106,X6-tool2,-0.34105866730483175,1.5529605554414703,45.05677741805362,-0.11575287861922451,-0.01668979234143253,-0.07683342974921994,0.06254545599222183
2026-01-13 16:48:02.103833,-0.11894562840461731,1.4562206268310547,45.03978729248047,0.7671117186546326,5.063756465911865,-5.551915645599365,45.91600036621094,49.70399856567383,45.444000244140625,54.81700134277344,54.66600036621094,55.36199951171875,1768294082,25280106,X6-tool2,-0.34105866730483175,1.5529605554414703,45.05677741805362,-0.11575287861922451,-0.01668979234143253,-0.07683342974921994,0.06254545599222183
2026-01-13 16:48:02.138347,-0.1153828427195549,1.5650146007537842,45.04465866088867,0.7685990333557129,4.679218769073486,-5.171090602874756,45.349998474121094,49.4739990234375,45.68600082397461,54.98699951171875,53.7599983215332,55.53200149536133,1768294082,125018599,X6-tool2,-0.41394109257224637,1.6470903157923966,44.97259040925215,-0.1032599922091327,-0.010462159265966112,-0.06504568932276525,0.05828062817454338
2026-01-13 16:48:02.172872,-0.11166463792324066,1.6807427406311035,45.04012680053711,0.7719687819480896,4.289910793304443,-4.8245368003845215,44.79499816894531,49.20399856567383,45.97100067138672,55.14099884033203,52.88100051879883,55.68600082397461,1768294082,125018599,X6-tool2,-0.41394109257224637,1.6470903157923966,44.97259040925215,-0.1032599922091327,-0.010462159265966112,-0.06504568932276525,0.05828062817454338
2026-01-13 16:48:02.207372,-0.10976401716470718,1.8022772073745728,45.03202438354492,0.7750365734100342,3.8881707191467285,-4.448657035827637,44.20199966430664,48.91299819946289,46.25699996948242,55.290000915527344,51.97999954223633,55.845001220703125,1768294082,125018599,X6-tool2,-0.41394109257224637,1.6470903157923966,44.97259040925215,-0.1032599922091327,-0.010462159265966112,-0.06504568932276525,0.05828062817454338
2026-01-13 16:48:02.241868,-0.10974930971860886,1.8664628267288208,45.029518127441406,0.7606284022331238,3.69338059425354,-4.254758834838867,43.922000885009766,48.76499938964844,46.39400100708008,55.37200164794922,51.53499984741211,55.9379997253418,1768294082,224247713,X6-tool2,-0.4197546426302113,2.106857605855586,45.02824643036683,-0.0820006166651182,-0.006123047044371268,-0.051827427130918424,0.06434472650289536
2026-01-13 16:48:02.276374,-0.10730814188718796,1.985105276107788,45.02369689941406,0.7316932678222656,3.2888240814208984,-3.839972496032715,43.35599899291992,48.4900016784668,46.652000427246094,55.5260009765625,50.62300109863281,56.10300064086914,1768294082,224247713,X6-tool2,-0.4197546426302113,2.106857605855586,45.02824643036683,-0.0820006166651182,-0.006123047044371268,-0.051827427130918424,0.06434472650289536
2026-01-13 16:48:02.310879,-0.10563470423221588,2.093479871749878,45.023250579833984,0.7055483460426331,2.890183210372925,-3.4070796966552734,42.80699920654297,48.25400161743164,46.89400100708008,55.68000030517578,49.75,56.27299880981445,1768294082,224247713,X6-tool2,-0.4197546426302113,2.106857605855586,45.02824643036683,-0.0820006166651182,-0.006123047044371268,-0.051827427130918424,0.06434472650289536
2026-01-13 16:48:02.345352,-0.10520565509796143,2.1499218940734863,45.02566146850586,0.6772306561470032,2.6842269897460938,-3.1693150997161865,42.53799819946289,48.138999938964844,47.00899887084961,55.766998291015625,49.29399871826172,56.37200164794922,1768294082,324153262,X6-tool2,-0.3403304010478944,2.233505472793015,44.957530236539235,-0.06650943732954877,-0.005227964758255352,-0.03544387754036377,0.06634172052145004
2026-01-13 16:48:02.379840,-0.11011790484189987,2.251530170440674,45.0313720703125,0.6543766260147095,2.256179094314575,-2.6612601280212402,41.95000076293945,47.93600082397461,47.23500061035156,55.91600036621094,48.393001556396484,56.56999969482422,1768294082,324153262,X6-tool2,-0.3403304010478944,2.233505472793015,44.957530236539235,-0.06650943732954877,-0.005227964758255352,-0.03544387754036377,0.06634172052145004
2026-01-13 16:48:02.414356,-0.10738199949264526,2.3616082668304443,45.03042221069336,0.6124666929244995,1.8143306970596313,-2.1636927127838135,41.38999938964844,47.69900131225586,47.49800109863281,56.07500076293945,47.48099899291992,56.74599838256836,1768294082,324153262,X6-tool2,-0.3403304010478944,2.233505472793015,44.957530236539235,-0.06650943732954877,-0.005227964758255352,-0.03544387754036377,0.06634172052145004
2026-01-13 16:48:02.448913,-0.1067361980676651,2.4759714603424072,45.02467727661133,0.5794529914855957,1.389632225036621,-1.6550612449645996,40.80699920654297,47.441001892089844,47.74599838256836,56.222999572753906,46.608001708984375,56.922000885009766,1768294082,424125074,X6-tool2,-0.34869780733847777,2.5804791789435484,45.01502357955784,-0.04557640680701973,-0.002210956689259808,-0.013053370470070456,0.05920187756419182
2026-01-13 16:48:02.483422,-0.10916169732809067,2.534785509109497,45.02006912231445,0.5370128154754639,1.1564528942108154,-1.394065499305725,40.53799819946289,47.30400085449219,47.87699890136719,56.28900146484375,46.145999908447266,57.01499938964844,1768294082,424125074,X6-tool2,-0.34869780733847777,2.5804791789435484,45.01502357955784,-0.04557640680701973,-0.002210956689259808,-0.013053370470070456,0.05920187756419182
2026-01-13 16:48:02.517947,-0.10726341605186462,2.655407667160034,45.01185989379883,0.44747990369796753,0.7116941809654236,-0.856900691986084,40.01100158691406,47.02899932861328,48.11399841308594,56.44300079345703,45.250999450683594,57.19599914550781,1768294082,424125074,X6-tool2,-0.34869780733847777,2.5804791789435484,45.01502357955784,-0.04557640680701973,-0.002210956689259808,-0.013053370470070456,0.05920187756419182
2026-01-13 16:48:02.552379,-0.09694821387529373,2.7669837474823,44.99378967285156,0.27141016721725464,0.24365562200546265,-0.38771191239356995,39.659000396728516,46.749000549316406,48.35499954223633,56.57500076293945,44.361000061035156,57.3120002746582,1768294082,524227682,X6-tool2,-0.34795130661886425,2.8435332340873125,44.97161897204928,-0.026237249645029055,-0.0010601154795409126,0.008510910419881943,0.07076040655374527
2026-01-13 16:48:02.586872,-0.06982551515102386,2.838249921798706,44.97578430175781,0.01409741397947073,-0.06337226182222366,-0.09703902155160904,39.637001037597656,46.55699920654297,48.39899826049805,56.685001373291016,43.71799850463867,57.31700134277344,1768294082,524227682,X6-tool2,-0.34795130661886425,2.8435332340873125,44.97161897204928,-0.026237249645029055,-0.0010601154795409126,0.008510910419881943,0.07076040655374527
2026-01-13 16:48:02.621332,-0.05636148154735565,2.849583387374878,44.97941207885742,-0.0013234686339274049,-0.06983929872512817,-0.06324905902147293,39.637001037597656,46.54600143432617,48.39899826049805,56.7400016784668,43.67399978637695,57.31700134277344,1768294082,524227682,X6-tool2,-0.34795130661886425,2.8435332340873125,44.97161897204928,-0.026237249645029055,-0.0010601154795409126,0.008510910419881943,0.07076040655374527
2026-01-13 16:48:02.655816,-0.024223359301686287,2.8709919452667236,44.991172790527344,-0.0014486524742096663,-0.03739719092845917,-0.022596415132284164,39.637001037597656,46.540000915527344,48.39899826049805,56.87200164794922,43.65800094604492,57.31700134277344,1768294082,624092599,X6-tool2,-0.27929117529510006,2.944360554323258,45.009150627617345,-0.017848645876741856,-0.005679665724008016,0.016501956255295467,0.0773162841796875
2026-01-13 16:48:02.690352,-0.0016372583340853453,2.8848605155944824,45.00006103515625,0.0037516059819608927,-0.008916907012462616,0.0015714874025434256,39.637001037597656,46.540000915527344,48.39899826049805,56.96500015258789,43.65800094604492,57.31700134277344,1768294082,624092599,X6-tool2,-0.27929117529510006,2.944360554323258,45.009150627617345,-0.017848645876741856,-0.005679665724008016,0.016501956255295467,0.0773162841796875
2026-01-13 16:48:02.724872,-0.00042356207268312573,2.885605573654175,45.00053787231445,0.0037516059819608927,-0.008916907012462616,0.0015714874025434256,39.637001037597656,46.540000915527344,48.39899826049805,56.970001220703125,43.65800094604492,57.31700134277344,1768294082,624092599,X6-tool2,-0.27929117529510006,2.944360554323258,45.009150627617345,-0.017848645876741856,-0.005679665724008016,0.016501956255295467,0.0773162841796875
2026-01-13 16:48:02.759747,-0.00042356207268312573,2.885605573654175,45.00053787231445,0.0037516059819608927,-0.008916907012462616,0.0015714874025434256,39.637001037597656,46.540000915527344,48.39899826049805,56.970001220703125,43.65800094604492,57.31700134277344,1768294082,724425556,X6-tool2,-0.2727941844243747,2.97948840636181,44.89986725785016,-0.017947570443399057,-0.0064653998448597596,0.01725056226979222,0.07617124170064926
2026-01-13 16:48:02.794244,-0.00042356207268312573,2.885605573654175,45.00053787231445,0.0037516059819608927,-0.008916907012462616,0.0015714874025434256,39.637001037597656,46.540000915527344,48.39899826049805,56.970001220703125,43.65800094604492,57.31700134277344,1768294082,724425556,X6-tool2,-0.2727941844243747,2.97948840636181,44.89986725785016,-0.017947570443399057,-0.0064653998448597596,0.01725056226979222,0.07617124170064926
2026-01-13 16:48:02.828774,-0.00042356207268312573,2.885605573654175,45.00053787231445,0.0037516059819608927,-0.008916907012462616,0.0015714874025434256,39.637001037597656,46.540000915527344,48.39899826049805,56.970001220703125,43.66400146484375,57.31700134277344,1768294082,824102106,X6-tool2,-0.2862905108723503,3.066545667624699,44.983980708483266,-0.016068067215681478,-0.006290435254873722,0.017360509907674508,0.07921123504638672
2026-01-13 16:48:02.863311,0.0010327911004424095,2.8864998817443848,45.0011100769043,0.006333665922284126,-0.002178829861804843,0.0014111001510173082,39.637001037597656,46.540000915527344,48.39899826049805,56.97600173950195,43.66400146484375,57.31700134277344,1768294082,824102106,X6-tool2,-0.2862905108723503,3.066545667624699,44.983980708483266,-0.016068067215681478,-0.006290435254873722,0.017360509907674508,0.07921123504638672
2026-01-13 16:48:02.897801,-0.00017951855261344463,2.8871614933013916,45.001686096191406,0.006333665922284126,-0.002178829861804843,0.0014111001510173082,39.637001037597656,46.540000915527344,48.39899826049805,56.97600173950195,43.66400146484375,57.323001861572266,1768294082,824102106,X6-tool2,-0.2862905108723503,3.066545667624699,44.983980708483266,-0.016068067215681478,-0.006290435254873722,0.017360509907674508,0.07921123504638672
2026-01-13 16:48:02.932296,-0.00017951855261344463,2.8871614933013916,45.001686096191406,0.006333665922284126,-0.002178829861804843,0.0014111001510173082,39.637001037597656,46.540000915527344,48.39899826049805,56.97600173950195,43.66400146484375,57.323001861572266,1768294082,924102020,X6-tool2,-0.2590738378867119,3.0406574052293505,44.96934384003391,-0.016787181853890606,-0.006764149114311454,0.017547484719821246,0.07492860406637192
2026-01-13 16:48:02.966803,-0.00017951855261344463,2.8871614933013916,45.001686096191406,0.006333665922284126,-0.002178829861804843,0.0014111001510173082,39.637001037597656,46.540000915527344,48.39899826049805,56.97600173950195,43.66400146484375,57.323001861572266,1768294082,924102020,X6-tool2,-0.2590738378867119,3.0406574052293505,44.96934384003391,-0.016787181853890606,-0.006764149114311454,0.017547484719821246,0.07492860406637192
2026-01-13 16:48:03.001276,-0.00017951855261344463,2.8871614933013916,45.001686096191406,0.006333665922284126,-0.002178829861804843,0.0014111001510173082,39.637001037597656,46.540000915527344,48.39899826049805,56.97600173950195,43.66400146484375,57.323001861572266,1768294082,924102020,X6-tool2,-0.2590738378867119,3.0406574052293505,44.96934384003391,-0.016787181853890606,-0.006764149114311454,0.017547484719821246,0.07492860406637192
2026-01-13 16:48:03.035763,-0.00017951855261344463,2.8871614933013916,45.001686096191406,0.006333665922284126,-0.002178829861804843,0.0014111001510173082,39.643001556396484,46.540000915527344,48.39899826049805,56.97600173950195,43.66400146484375,57.323001861572266,1768294083,24090322,X6-tool2,-0.24484030323484934,3.0354181357766716,44.940790049883496,-0.01730943311412287,-0.007111711592624929,0.017503381319300532,0.07676474004983902
2026-01-13 16:48:03.070243,-0.00017951855261344463,2.8871614933013916,45.001686096191406,0.006333665922284126,-0.002178829861804843,0.0014111001510173082,39.643001556396484,46.540000915527344,48.39899826049805,56.97600173950195,43.66400146484375,57.323001861572266,1768294083,24090322,X6-tool2,-0.24484030323484934,3.0354181357766716,44.940790049883496,-0.01730943311412287,-0.007111711592624929,0.017503381319300532,0.07676474004983902
2026-01-13 16:48:03.104798,-0.00017951855261344463,2.8871614933013916,45.001686096191406,0.006333665922284126,-0.002178829861804843,0.0014111001510173082,39.643001556396484,46.540000915527344,48.39899826049805,56.97600173950195,43.66400146484375,57.323001861572266,1768294083,24090322,X6-tool2,-0.24484030323484934,3.0354181357766716,44.940790049883496,-0.01730943311412287,-0.007111711592624929,0.017503381319300532,0.07676474004983902
2026-01-13 16:48:03.139272,-0.00017951855261344463,2.8871614933013916,45.001686096191406,0.006333665922284126,-0.002178829861804843,0.0014111001510173082,39.643001556396484,46.540000915527344,48.39899826049805,56.97600173950195,43.66400146484375,57.323001861572266,1768294083,124116377,X6-tool2,-0.24460576692067001,3.080371874528254,44.93732300246836,-0.01636486275610979,-0.007072659502425474,0.01738398216886352,0.07300058752298355
2026-01-13 16:48:03.173742,-0.00017951855261344463,2.8871614933013916,45.001686096191406,0.006333665922284126,-0.002178829861804843,0.0014111001510173082,39.643001556396484,46.540000915527344,48.39899826049805,56.97600173950195,43.66400146484375,57.323001861572266,1768294083,124116377,X6-tool2,-0.24460576692067001,3.080371874528254,44.93732300246836,-0.01636486275610979,-0.007072659502425474,0.01738398216886352,0.07300058752298355
2026-01-13 16:48:03.208218,-0.00017951855261344463,2.8871614933013916,45.001686096191406,0.006333665922284126,-0.002178829861804843,0.0014111001510173082,39.643001556396484,46.540000915527344,48.39899826049805,56.97600173950195,43.66400146484375,57.323001861572266,1768294083,124116377,X6-tool2,-0.24460576692067001,3.080371874528254,44.93732300246836,-0.01636486275610979,-0.007072659502425474,0.01738398216886352,0.07300058752298355
2026-01-13 16:48:03.242723,-0.00017951855261344463,2.8871614933013916,45.001686096191406,0.006333665922284126,-0.002178829861804843,0.0014111001510173082,39.643001556396484,46.540000915527344,48.39899826049805,56.97600173950195,43.66400146484375,57.323001861572266,1768294083,224109049,X6-tool2,-0.28510484990121626,3.0760663533130623,45.005978838565014,-0.016154684672586368,-0.006268208448487124,0.017383153482371263,0.07777150720357895
2026-01-13 16:48:03.277319,-0.00017951855261344463,2.8871614933013916,45.001686096191406,0.006333665922284126,-0.002178829861804843,0.0014111001510173082,39.643001556396484,46.540000915527344,48.39899826049805,56.97600173950195,43.66400146484375,57.323001861572266,1768294083,224109049,X6-tool2,-0.28510484990121626,3.0760663533130623,45.005978838565014,-0.016154684672586368,-0.006268208448487124,0.017383153482371263,0.07777150720357895
2026-01-13 16:48:03.311815,-0.00017951855261344463,2.8871614933013916,45.001686096191406,0.00041931637679226696,-0.001154955243691802,0.0028054164722561836,39.643001556396484,46.540000915527344,48.39400100708008,56.97600173950195,43.66400146484375,57.323001861572266,1768294083,224109049,X6-tool2,-0.28510484990121626,3.0760663533130623,45.005978838565014,-0.016154684672586368,-0.006268208448487124,0.017383153482371263,0.07777150720357895
2026-01-13 16:48:03.346305,-0.00017951855261344463,2.8871614933013916,45.001686096191406,0.00041931637679226696,-0.001154955243691802,0.0028054164722561836,39.643001556396484,46.540000915527344,48.39400100708008,56.97600173950195,43.66400146484375,57.323001861572266,1768294083,324090332,X6-tool2,-0.2638684659531741,3.028225818972968,44.92840602136956,-0.01725577066142597,-0.006782599896307346,0.017502447050849974,0.07331434637308121
2026-01-13 16:48:03.380851,-0.00017951855261344463,2.8871614933013916,45.001686096191406,0.00041931637679226696,-0.001154955243691802,0.0028054164722561836,39.643001556396484,46.540000915527344,48.39400100708008,56.97600173950195,43.66400146484375,57.323001861572266,1768294083,324090332,X6-tool2,-0.2638684659531741,3.028225818972968,44.92840602136956,-0.01725577066142597,-0.006782599896307346,0.017502447050849974,0.07331434637308121
2026-01-13 16:48:03.415329,-0.00017951855261344463,2.8871614933013916,45.001686096191406,0.00041931637679226696,-0.001154955243691802,0.0028054164722561836,39.643001556396484,46.540000915527344,48.39400100708008,56.97600173950195,43.66400146484375,57.323001861572266,1768294083,324090332,X6-tool2,-0.2638684659531741,3.028225818972968,44.92840602136956,-0.01725577066142597,-0.006782599896307346,0.017502447050849974,0.07331434637308121
2026-01-13 16:48:03.449825,-0.00017951855261344463,2.8871614933013916,45.001686096191406,0.00041931637679226696,-0.001154955243691802,0.0028054164722561836,39.643001556396484,46.540000915527344,48.39400100708008,56.97600173950195,43.66400146484375,57.323001861572266,1768294083,424118596,X6-tool2,-0.2718306505930861,3.078917536844554,44.99060570144512,-0.01603671600483311,-0.00662617631365179,0.01760540612306649,0.0736754760146141
2026-01-13 16:48:03.484305,-0.00017951855261344463,2.8871614933013916,45.001686096191406,0.00041931637679226696,-0.001154955243691802,0.0028054164722561836,39.643001556396484,46.540000915527344,48.39400100708008,56.97600173950195,43.66400146484375,57.323001861572266,1768294083,424118596,X6-tool2,-0.2718306505930861,3.078917536844554,44.99060570144512,-0.01603671600483311,-0.00662617631365179,0.01760540612306649,0.0736754760146141
2026-01-13 16:48:03.518824,-0.00017951855261344463,2.8871614933013916,45.001686096191406,0.00041931637679226696,-0.001154955243691802,0.0028054164722561836,39.643001556396484,46.540000915527344,48.39400100708008,56.97600173950195,43.66400146484375,57.323001861572266,1768294083,424118596,X6-tool2,-0.2718306505930861,3.078917536844554,44.99060570144512,-0.01603671600483311,-0.00662617631365179,0.01760540612306649,0.0736754760146141
2026-01-13 16:48:03.553310,-0.00017951855261344463,2.8871614933013916,45.001686096191406,0.00041931637679226696,-0.001154955243691802,0.0028054164722561836,39.643001556396484,46.540000915527344,48.39400100708008,56.97600173950195,43.66400146484375,57.323001861572266,1768294083,524145440,X6-tool2,-0.282016514187984,3.0660693431080475,45.008104947676436,-0.016384036169972433,-0.006227692434921153,0.01748409834973956,0.0773213729262352
2026-01-13 16:48:03.587807,-0.00017951855261344463,2.8871614933013916,45.001686096191406,0.00041931637679226696,-0.001154955243691802,0.0028054164722561836,39.643001556396484,46.540000915527344,48.39400100708008,56.97600173950195,43.66400146484375,57.323001861572266,1768294083,524145440,X6-tool2,-0.282016514187984,3.0660693431080475,45.008104947676436,-0.016384036169972433,-0.006227692434921153,0.01748409834973956,0.0773213729262352
2026-01-13 16:48:03.622296,-0.00017951855261344463,2.8871614933013916,45.001686096191406,0.00041931637679226696,-0.001154955243691802,0.0028054164722561836,39.643001556396484,46.540000915527344,48.39400100708008,56.97600173950195,43.66400146484375,57.323001861572266,1768294083,524145440,X6-tool2,-0.282016514187984,3.0660693431080475,45.008104947676436,-0.016384036169972433,-0.006227692434921153,0.01748409834973956,0.0773213729262352
2026-01-13 16:48:03.656955,-0.00017951855261344463,2.8871614933013916,45.001686096191406,0.00041931637679226696,-0.001154955243691802,0.0028054164722561836,39.643001556396484,46.540000915527344,48.39400100708008,56.97600173950195,43.66400146484375,57.323001861572266,1768294083,624158854,X6-tool2,-0.2707484123207707,3.0105219656556264,45.01005456957967,-0.017500441876816798,-0.006504481825066281,0.01749634984201346,0.07313696295022964
2026-01-13 16:48:03.691453,-0.00017951855261344463,2.8871614933013916,45.001686096191406,0.00041931637679226696,-0.001154955243691802,0.0028054164722561836,39.643001556396484,46.540000915527344,48.39400100708008,56.97600173950195,43.66400146484375,57.323001861572266,1768294083,624158854,X6-tool2,-0.2707484123207707,3.0105219656556264,45.01005456957967,-0.017500441876816798,-0.006504481825066281,0.01749634984201346,0.07313696295022964
2026-01-13 16:48:03.725937,-0.00017951855261344463,2.8871614933013916,45.001686096191406,0.00041931637679226696,-0.001154955243691802,0.0028054164722561836,39.643001556396484,46.540000915527344,48.39400100708008,56.97600173950195,43.66400146484375,57.323001861572266,1768294083,724205939,X6-tool2,-0.28258184092801003,3.0316395573049046,44.95349099464426,-0.01697511227891618,-0.006650296769827984,0.017493354304853295,0.07680702209472656
2026-01-13 16:48:03.760446,-0.00017951855261344463,2.8871614933013916,45.001686096191406,0.00041931637679226696,-0.001154955243691802,0.0028054164722561836,39.643001556396484,46.540000915527344,48.39400100708008,56.97600173950195,43.66400146484375,57.323001861572266,1768294083,724205939,X6-tool2,-0.28258184092801003,3.0316395573049046,44.95349099464426,-0.01697511227891618,-0.006650296769827984,0.017493354304853295,0.07680702209472656
2026-01-13 16:48:03.794939,-0.00017951855261344463,2.8871614933013916,45.001686096191406,0.00041931637679226696,-0.001154955243691802,0.0028054164722561836,39.643001556396484,46.540000915527344,48.39400100708008,56.97600173950195,43.66400146484375,57.323001861572266,1768294083,724205939,X6-tool2,-0.28258184092801003,3.0316395573049046,44.95349099464426,-0.01697511227891618,-0.006650296769827984,0.017493354304853295,0.07680702209472656
2026-01-13 16:48:03.829407,-0.00017951855261344463,2.8871614933013916,45.001686096191406,0.00041931637679226696,-0.001154955243691802,0.0028054164722561836,39.643001556396484,46.540000915527344,48.39400100708008,56.97600173950195,43.66400146484375,57.323001861572266,1768294083,824109918,X6-tool2,-0.2758116229371909,2.9977342379123906,44.88081691205792,-0.0181646412007273,-0.006816727280352402,0.01760671601315741,0.07207933813333511
2026-01-13 16:48:03.863911,-0.00017951855261344463,2.8871614933013916,45.001686096191406,0.00041931637679226696,-0.001154955243691802,0.0028054164722561836,39.643001556396484,46.540000915527344,48.39400100708008,56.97600173950195,43.66400146484375,57.323001861572266,1768294083,824109918,X6-tool2,-0.2758116229371909,2.9977342379123906,44.88081691205792,-0.0181646412007273,-0.006816727280352402,0.01760671601315741,0.07207933813333511
2026-01-13 16:48:03.898232,-0.00017951855261344463,2.8871614933013916,45.001686096191406,0.00041931637679226696,-0.001154955243691802,0.0028054164722561836,39.643001556396484,46.540000915527344,48.39400100708008,56.97600173950195,43.66400146484375,57.323001861572266,1768294083,824109918,X6-tool2,-0.2758116229371909,2.9977342379123906,44.88081691205792,-0.0181646412007273,-0.006816727280352402,0.01760671601315741,0.07207933813333511
2026-01-13 16:48:03.932765,-0.00017951855261344463,2.8871614933013916,45.001686096191406,0.00041931637679226696,-0.001154955243691802,0.0028054164722561836,39.643001556396484,46.540000915527344,48.39400100708008,56.97600173950195,43.66400146484375,57.323001861572266,1768294083,924282048,X6-tool2,-0.2869762025066862,3.0078423364002163,44.94268050412821,-0.01739957533245988,-0.006588699342536176,0.017823867889605993,0.07497438043355942
2026-01-13 16:48:03.967073,-0.00017951855261344463,2.8871614933013916,45.001686096191406,0.00041931637679226696,-0.001154955243691802,0.0028054164722561836,39.643001556396484,46.540000915527344,48.39400100708008,56.97600173950195,43.66400146484375,57.323001861572266,1768294083,924282048,X6-tool2,-0.2869762025066862,3.0078423364002163,44.94268050412821,-0.01739957533245988,-0.006588699342536176,0.017823867889605993,0.07497438043355942
2026-01-13 16:48:04.001505,-0.00017951855261344463,2.8871614933013916,45.001686096191406,0.00041931637679226696,-0.001154955243691802,0.0028054164722561836,39.643001556396484,46.540000915527344,48.39400100708008,56.97600173950195,43.66400146484375,57.323001861572266,1768294083,924282048,X6-tool2,-0.2869762025066862,3.0078423364002163,44.94268050412821,-0.01739957533245988,-0.006588699342536176,0.017823867889605993,0.07497438043355942
2026-01-13 16:48:04.036352,-0.00017951855261344463,2.8871614933013916,45.001686096191406,0.00041931637679226696,-0.001154955243691802,0.0028054164722561836,39.643001556396484,46.540000915527344,48.39400100708008,56.97600173950195,43.66400146484375,57.323001861572266,1768294084,24181997,X6-tool2,-0.2711104069196146,3.05974301468085,44.95344604232664,-0.01662374619093995,-0.006762083583623488,0.017336738334564502,0.07334486395120621
2026-01-13 16:48:04.070651,-0.00017951855261344463,2.8871614933013916,45.001686096191406,0.00041931637679226696,-0.001154955243691802,0.0028054164722561836,39.643001556396484,46.540000915527344,48.39400100708008,56.97600173950195,43.66400146484375,57.323001861572266,1768294084,24181997,X6-tool2,-0.2711104069196146,3.05974301468085,44.95344604232664,-0.01662374619093995,-0.006762083583623488,0.017336738334564502,0.07334486395120621
2026-01-13 16:48:04.105169,-0.00017951855261344463,2.8871614933013916,45.001686096191406,0.00041931637679226696,-0.001154955243691802,0.0028054164722561836,39.643001556396484,46.540000915527344,48.39400100708008,56.97600173950195,43.66400146484375,57.323001861572266,1768294084,24181997,X6-tool2,-0.2711104069196146,3.05974301468085,44.95344604232664,-0.01662374619093995,-0.006762083583623488,0.017336738334564502,0.07334486395120621
2026-01-13 16:48:04.139685,-0.00017951855261344463,2.8871614933013916,45.001686096191406,0.00041931637679226696,-0.001154955243691802,0.0028054164722561836,39.643001556396484,46.540000915527344,48.39400100708008,56.97600173950195,43.66400146484375,57.323001861572266,1768294084,124096657,X6-tool2,-0.26744554563926176,3.08478380157089,44.984608562539854,-0.016043305197156237,-0.006820788252350405,0.017494424192315658,0.0747976303100586
2026-01-13 16:48:04.174411,-0.00017951855261344463,2.8871614933013916,45.001686096191406,0.00041931637679226696,-0.001154955243691802,0.0028054164722561836,39.643001556396484,46.540000915527344,48.39400100708008,56.97600173950195,43.66400146484375,57.323001861572266,1768294084,124096657,X6-tool2,-0.26744554563926176,3.08478380157089,44.984608562539854,-0.016043305197156237,-0.006820788252350405,0.017494424192315658,0.0747976303100586
2026-01-13 16:48:04.209049,-0.00017951855261344463,2.8871614933013916,45.001686096191406,0.00041931637679226696,-0.001154955243691802,0.0028054164722561836,39.643001556396484,46.540000915527344,48.39400100708008,56.97600173950195,43.66400146484375,57.323001861572266,1768294084,124096657,X6-tool2,-0.26744554563926176,3.08478380157089,44.984608562539854,-0.016043305197156237,-0.006820788252350405,0.017494424192315658,0.0747976303100586
2026-01-13 16:48:04.243505,-0.00017951855261344463,2.8871614933013916,45.001686096191406,0.00041931637679226696,-0.001154955243691802,0.0028054164722561836,39.643001556396484,46.540000915527344,48.39400100708008,56.97600173950195,43.66400146484375,57.323001861572266,1768294084,224226355,X6-tool2,-0.24774080413823366,3.0754296771684806,44.91232436013074,-0.01600555183561812,-0.007510545537417761,0.017670831039190125,0.07381661981344223
2026-01-13 16:48:04.277837,-0.00017951855261344463,2.8871614933013916,45.001686096191406,0.00041931637679226696,-0.001154955243691802,0.0028054164722561836,39.643001556396484,46.540000915527344,48.39400100708008,56.97600173950195,43.66400146484375,57.323001861572266,1768294084,224226355,X6-tool2,-0.24774080413823366,3.0754296771684806,44.91232436013074,-0.01600555183561812,-0.007510545537417761,0.017670831039190125,0.07381661981344223
2026-01-13 16:48:04.312286,-0.00017951855261344463,2.8871614933013916,45.001686096191406,0.00041931637679226696,-0.001154955243691802,0.0028054164722561836,39.643001556396484,46.540000915527344,48.39400100708008,56.97600173950195,43.66400146484375,57.323001861572266,1768294084,224226355,X6-tool2,-0.24774080413823366,3.0754296771684806,44.91232436013074,-0.01600555183561812,-0.007510545537417761,0.017670831039190125,0.07381661981344223
2026-01-13 16:48:04.346675,0.0010327911004424095,2.8864998817443848,45.0011100769043,0.00041931637679226696,-0.001154955243691802,0.0028054164722561836,39.643001556396484,46.540000915527344,48.39400100708008,56.97600173950195,43.66400146484375,57.31700134277344,1768294084,324412156,X6-tool2,-0.2756615898834371,3.052177447823515,44.98517321216872,-0.01684769221957554,-0.006444514951613097,0.01751163133887418,0.07626565545797348
2026-01-13 16:48:04.381199,0.0010327911004424095,2.8864998817443848,45.0011100769043,0.00041931637679226696,-0.001154955243691802,0.0028054164722561836,39.643001556396484,46.540000915527344,48.39400100708008,56.97600173950195,43.66400146484375,57.31700134277344,1768294084,324412156,X6-tool2,-0.2756615898834371,3.052177447823515,44.98517321216872,-0.01684769221957554,-0.006444514951613097,0.01751163133887418,0.07626565545797348
2026-01-13 16:48:04.416163,0.0010327911004424095,2.8864998817443848,45.0011100769043,0.00041931637679226696,-0.001154955243691802,0.0028054164722561836,39.643001556396484,46.540000915527344,48.39400100708008,56.97600173950195,43.66400146484375,57.31700134277344,1768294084,324412156,X6-tool2,-0.2756615898834371,3.052177447823515,44.98517321216872,-0.01684769221957554,-0.006444514951613097,0.01751163133887418,0.07626565545797348
2026-01-13 16:48:04.450460,0.0010327911004424095,2.8864998817443848,45.0011100769043,0.00041931637679226696,-0.001154955243691802,0.0028054164722561836,39.643001556396484,46.540000915527344,48.39400100708008,56.97600173950195,43.66400146484375,57.31700134277344,1768294084,423930300,X6-tool2,-0.2478326810096531,3.0425321754994794,44.94598357527568,-0.016649235372436032,-0.007539702035202887,0.017732274407189937,0.07419967651367188
2026-01-13 16:48:04.485010,0.0010327911004424095,2.8864998817443848,45.0011100769043,0.00041931637679226696,-0.001154955243691802,0.0028054164722561836,39.643001556396484,46.540000915527344,48.39400100708008,56.97600173950195,43.66400146484375,57.31700134277344,1768294084,423930300,X6-tool2,-0.2478326810096531,3.0425321754994794,44.94598357527568,-0.016649235372436032,-0.007539702035202887,0.017732274407189937,0.07419967651367188
2026-01-13 16:48:04.519300,0.0010327911004424095,2.8864998817443848,45.0011100769043,0.00041931637679226696,-0.001154955243691802,0.0028054164722561836,39.643001556396484,46.540000915527344,48.39400100708008,56.97600173950195,43.66400146484375,57.31700134277344,1768294084,423930300,X6-tool2,-0.2478326810096531,3.0425321754994794,44.94598357527568,-0.016649235372436032,-0.007539702035202887,0.017732274407189937,0.07419967651367188
2026-01-13 16:48:04.553696,0.0010327911004424095,2.8864998817443848,45.0011100769043,0.00041931637679226696,-0.001154955243691802,0.0028054164722561836,39.643001556396484,46.540000915527344,48.39400100708008,56.97600173950195,43.66400146484375,57.31700134277344,1768294084,524393741,X6-tool2,-0.28341009878134643,3.0581053349418648,45.03556344171019,-0.016396200177104588,-0.006363226101163058,0.017763475577397762,0.072967529296875
2026-01-13 16:48:04.588179,0.0010327911004424095,2.8864998817443848,45.0011100769043,0.00041931637679226696,-0.001154955243691802,0.0028054164722561836,39.643001556396484,46.540000915527344,48.39400100708008,56.97600173950195,43.66400146484375,57.31700134277344,1768294084,524393741,X6-tool2,-0.28341009878134643,3.0581053349418648,45.03556344171019,-0.016396200177104588,-0.006363226101163058,0.017763475577397762,0.072967529296875
2026-01-13 16:48:04.622517,0.0010327911004424095,2.8864998817443848,45.0011100769043,0.00041931637679226696,-0.001154955243691802,0.0028054164722561836,39.643001556396484,46.540000915527344,48.39400100708008,56.97600173950195,43.66400146484375,57.31700134277344,1768294084,524393741,X6-tool2,-0.28341009878134643,3.0581053349418648,45.03556344171019,-0.016396200177104588,-0.006363226101163058,0.017763475577397762,0.072967529296875
2026-01-13 16:48:04.657444,0.0010327911004424095,2.8864998817443848,45.0011100769043,0.00041931637679226696,-0.001154955243691802,0.0028054164722561836,39.643001556396484,46.540000915527344,48.39400100708008,56.97600173950195,43.66400146484375,57.31700134277344,1768294084,623923016,X6-tool2,-0.26733996913606967,3.0585938754967685,45.029677159604056,-0.01633765885372227,-0.006742027121621733,0.01781059981377312,0.07240263372659683
2026-01-13 16:48:04.691951,0.0010327911004424095,2.8864998817443848,45.0011100769043,0.00041931637679226696,-0.001154955243691802,0.0028054164722561836,39.643001556396484,46.540000915527344,48.39400100708008,56.97600173950195,43.66899871826172,57.31700134277344,1768294084,623923016,X6-tool2,-0.26733996913606967,3.0585938754967685,45.029677159604056,-0.01633765885372227,-0.006742027121621733,0.01781059981377312,0.07240263372659683
2026-01-13 16:48:04.726277,0.0010327911004424095,2.8864998817443848,45.0011100769043,0.00041931637679226696,-0.001154955243691802,0.0028054164722561836,39.643001556396484,46.540000915527344,48.39400100708008,56.97600173950195,43.66899871826172,57.31700134277344,1768294084,724480231,X6-tool2,-0.2905923922076533,3.0519088755919883,44.988559434652856,-0.01687761679148945,-0.0062383980448729864,0.01750032579640939,0.0768686905503273
2026-01-13 16:48:04.760837,0.0010327911004424095,2.8864998817443848,45.0011100769043,0.00041931637679226696,-0.001154955243691802,0.0028054164722561836,39.643001556396484,46.540000915527344,48.39400100708008,56.97600173950195,43.66899871826172,57.31700134277344,1768294084,724480231,X6-tool2,-0.2905923922076533,3.0519088755919883,44.988559434652856,-0.01687761679148945,-0.0062383980448729864,0.01750032579640939,0.0768686905503273
2026-01-13 16:48:04.795312,0.0010327911004424095,2.8864998817443848,45.0011100769043,0.00041931637679226696,-0.001154955243691802,0.0028054164722561836,39.643001556396484,46.540000915527344,48.39400100708008,56.97600173950195,43.66899871826172,57.31700134277344,1768294084,724480231,X6-tool2,-0.2905923922076533,3.0519088755919883,44.988559434652856,-0.01687761679148945,-0.0062383980448729864,0.01750032579640939,0.0768686905503273
2026-01-13 16:48:04.829850,0.0010327911004424095,2.8864998817443848,45.0011100769043,0.00041931637679226696,-0.001154955243691802,0.0028054164722561836,39.643001556396484,46.540000915527344,48.39400100708008,56.97600173950195,43.66899871826172,57.31700134277344,1768294084,823916362,X6-tool2,-0.255524532537532,3.0677802494920394,44.927283379884635,-0.01638109818320507,-0.00718438003726642,0.017609276254200258,0.07607904821634293
2026-01-13 16:48:04.864311,0.0010327911004424095,2.8864998817443848,45.0011100769043,0.00041931637679226696,-0.001154955243691802,0.0028054164722561836,39.643001556396484,46.540000915527344,48.39400100708008,56.97600173950195,43.66899871826172,57.31700134277344,1768294084,823916362,X6-tool2,-0.255524532537532,3.0677802494920394,44.927283379884635,-0.01638109818320507,-0.00718438003726642,0.017609276254200258,0.07607904821634293
2026-01-13 16:48:04.898812,0.0010327911004424095,2.8864998817443848,45.0011100769043,0.00041931637679226696,-0.001154955243691802,0.0028054164722561836,39.643001556396484,46.540000915527344,48.39400100708008,56.97600173950195,43.66899871826172,57.31700134277344,1768294084,823916362,X6-tool2,-0.255524532537532,3.0677802494920394,44.927283379884635,-0.01638109818320507,-0.00718438003726642,0.017609276254200258,0.07607904821634293
2026-01-13 16:48:04.933301,0.0010327911004424095,2.8864998817443848,45.0011100769043,0.00041931637679226696,-0.001154955243691802,0.0028054164722561836,39.643001556396484,46.540000915527344,48.39400100708008,56.97600173950195,43.66899871826172,57.31700134277344,1768294084,924059781,X6-tool2,-0.32327017294413973,3.101825434939179,44.995285682058096,-0.016024042083634043,-0.005574740271300279,0.017350902065999266,0.07594553381204605
2026-01-13 16:48:04.967843,0.0010327911004424095,2.8864998817443848,45.0011100769043,0.00041931637679226696,-0.001154955243691802,0.0028054164722561836,39.643001556396484,46.540000915527344,48.39400100708008,56.97600173950195,43.66899871826172,57.31700134277344,1768294084,924059781,X6-tool2,-0.32327017294413973,3.101825434939179,44.995285682058096,-0.016024042083634043,-0.005574740271300279,0.017350902065999266,0.07594553381204605
2026-01-13 16:48:05.002372,0.001070841564796865,2.88791823387146,45.00034713745117,0.00041931637679226696,-0.001154955243691802,0.0028054164722561836,39.643001556396484,46.53499984741211,48.39400100708008,56.97600173950195,43.66899871826172,57.31700134277344,1768294084,924059781,X6-tool2,-0.32327017294413973,3.101825434939179,44.995285682058096,-0.016024042083634043,-0.005574740271300279,0.017350902065999266,0.07594553381204605
2026-01-13 16:48:05.037270,-0.0003855546237900853,2.887024164199829,44.99977493286133,0.0016182950930669904,0.001139479805715382,-0.004746004939079285,39.643001556396484,46.53499984741211,48.39400100708008,56.970001220703125,43.66899871826172,57.31700134277344,1768294085,24099726,X6-tool2,-0.268291348265173,3.0278300958769115,44.98420177912766,-0.01740411815763887,-0.00657829489296814,0.017621285542414003,0.07902208715677261
2026-01-13 16:48:05.071772,-0.038360074162483215,2.8474624156951904,44.99049758911133,-0.020946988835930824,0.009119078516960144,0.008422871120274067,39.64799880981445,46.58399963378906,48.222999572753906,56.805999755859375,43.66400146484375,57.305999755859375,1768294085,24099726,X6-tool2,-0.268291348265173,3.0278300958769115,44.98420177912766,-0.01740411815763887,-0.00657829489296814,0.017621285542414003,0.07902208715677261
2026-01-13 16:48:05.106469,-0.07645955681800842,2.81368350982666,44.977787017822266,-0.046125322580337524,0.01348591037094593,0.006853350438177586,39.65399932861328,46.61199951171875,48.07500076293945,56.64099884033203,43.66400146484375,57.29499816894531,1768294085,24099726,X6-tool2,-0.268291348265173,3.0278300958769115,44.98420177912766,-0.01740411815763887,-0.00657829489296814,0.017621285542414003,0.07902208715677261
2026-01-13 16:48:05.141350,-0.11963184922933578,2.761028528213501,44.96488571166992,-0.061581216752529144,0.0224315095692873,0.011889290064573288,39.659000396728516,46.678001403808594,47.87699890136719,56.4379997253418,43.66400146484375,57.262001037597656,1768294085,123889210,X6-tool2,-0.3556672476499021,2.9982989657401333,44.95180315924063,-0.017256115240189475,-0.007778154947443782,0.01983545010279808,0.07276153564453125
2026-01-13 16:48:05.176585,-0.15868909657001495,2.6780858039855957,44.9442253112793,-0.04850750043988228,0.03561261296272278,-0.0036709264386445284,39.665000915527344,46.7869987487793,47.630001068115234,56.17900085449219,43.66400146484375,57.14099884033203,1768294085,123889210,X6-tool2,-0.3556672476499021,2.9982989657401333,44.95180315924063,-0.017256115240189475,-0.007778154947443782,0.01983545010279808,0.07276153564453125
2026-01-13 16:48:05.211058,-0.214809849858284,2.587080240249634,44.94050598144531,-0.03768005594611168,0.019704176113009453,0.017225882038474083,39.680999755859375,46.95800018310547,47.40999984741211,55.92100143432617,43.66400146484375,57.10300064086914,1768294085,123889210,X6-tool2,-0.3556672476499021,2.9982989657401333,44.95180315924063,-0.017256115240189475,-0.007778154947443782,0.01983545010279808,0.07276153564453125
2026-01-13 16:48:05.245575,-0.23436719179153442,2.544827938079834,44.93335723876953,-0.03768005594611168,0.019704176113009453,0.017225882038474083,39.6870002746582,47.02399826049805,47.29499816894531,55.79999923706055,43.65800094604492,57.053001403808594,1768294085,223926115,X6-tool2,-0.5199917484292883,2.9227608106128566,44.89652537817333,-0.016936059146597647,-0.008212151689245774,0.02245133638821354,0.06437873840332031
2026-01-13 16:48:05.280062,-0.2901548445224762,2.4634647369384766,44.92201614379883,-0.05040920153260231,0.029333509504795074,0.03802107274532318,39.7140007019043,47.15599822998047,47.02000045776367,55.5369987487793,43.65800094604492,57.00899887084961,1768294085,223926115,X6-tool2,-0.5199917484292883,2.9227608106128566,44.89652537817333,-0.016936059146597647,-0.008212151689245774,0.02245133638821354,0.06437873840332031
2026-01-13 16:48:05.314402,-0.3251757323741913,2.389606237411499,44.9047737121582,-0.06159793213009834,0.04503852128982544,0.02604116126894951,39.75299835205078,47.2599983215332,46.784000396728516,55.3120002746582,43.65800094604492,56.9109992980957,1768294085,223926115,X6-tool2,-0.5199917484292883,2.9227608106128566,44.89652537817333,-0.016936059146597647,-0.008212151689245774,0.02245133638821354,0.06437873840332031
2026-01-13 16:48:05.348940,-0.37236645817756653,2.2650201320648193,44.908145904541016,0.0014429005095735192,0.007391031831502914,0.0459020771086216,39.775001525878906,47.52899932861328,46.59199905395508,55.04800033569336,43.66400146484375,56.823001861572266,1768294085,323889066,X6-tool2,-0.5372785418030468,2.7841749603432473,44.874948342224066,-0.017469650292347236,-0.011573870445285109,0.02379222279299754,0.0656026229262352
2026-01-13 16:48:05.383466,-0.42101752758026123,2.1970279216766357,44.895172119140625,0.000655168027151376,0.006248318590223789,0.053670309484004974,39.7859992980957,47.632999420166016,46.388999938964844,54.81700134277344,43.66400146484375,56.784000396728516,1768294085,323889066,X6-tool2,-0.5372785418030468,2.7841749603432473,44.874948342224066,-0.017469650292347236,-0.011573870445285109,0.02379222279299754,0.0656026229262352
2026-01-13 16:48:05.417991,-0.440075546503067,2.1547811031341553,44.88909912109375,-0.0009487995412200689,-0.006538570858538151,0.047884732484817505,39.80799865722656,47.70500183105469,46.30099868774414,54.70199966430664,43.66400146484375,56.7400016784668,1768294085,323889066,X6-tool2,-0.5372785418030468,2.7841749603432473,44.874948342224066,-0.017469650292347236,-0.011573870445285109,0.02379222279299754,0.0656026229262352
2026-01-13 16:48:05.452510,-0.496367484331131,2.060206651687622,44.877017974853516,0.012750684283673763,-0.023642895743250847,0.05815165862441063,39.82400131225586,47.869998931884766,46.07600021362305,54.422000885009766,43.66899871826172,56.68000030517578,1768294085,424053096,X6-tool2,-0.6129595411762222,2.566839786605739,44.86862264568588,-0.017113154388227123,-0.013987046960755287,0.02324518986825476,0.08023706823587418
2026-01-13 16:48:05.487027,-0.5500871539115906,1.9613850116729736,44.86658477783203,0.017907988280057907,-0.03770942613482475,0.06801407784223557,39.862998962402344,48.05099868774414,45.8390007019043,54.14699935913086,43.67399978637695,56.61399841308594,1768294085,424053096,X6-tool2,-0.6129595411762222,2.566839786605739,44.86862264568588,-0.017113154388227123,-0.013987046960755287,0.02324518986825476,0.08023706823587418
2026-01-13 16:48:05.521542,-0.5817685127258301,1.9214917421340942,44.85606002807617,0.008639666251838207,-0.05097659304738045,0.06225096434354782,39.87900161743164,48.10599899291992,45.73500061035156,53.999000549316406,43.67399978637695,56.59199905395508,1768294085,424053096,X6-tool2,-0.6129595411762222,2.566839786605739,44.86862264568588,-0.017113154388227123,-0.013987046960755287,0.02324518986825476,0.08023706823587418
2026-01-13 16:48:05.556035,-0.6446270942687988,1.8350601196289062,44.83327102661133,-0.029017074033617973,-0.05481517314910889,0.04997911676764488,39.93899917602539,48.22700119018555,45.465999603271484,53.691001892089844,43.68000030517578,56.53200149536133,1768294085,532052282,X6-tool2,-0.7801666375904339,2.4708153092157366,44.81430553780827,-0.016573889655304153,-0.01470979594542486,0.023593097370208902,0.07670179754495621
2026-01-13 16:48:05.590556,-0.6723994016647339,1.764097809791565,44.8250617980957,-0.05476498603820801,-0.033624302595853806,0.04865249991416931,40.01599884033203,48.35900115966797,45.24599838256836,53.51499938964844,43.691001892089844,56.459999084472656,1768294085,532052282,X6-tool2,-0.7801666375904339,2.4708153092157366,44.81430553780827,-0.016573889655304153,-0.01470979594542486,0.023593097370208902,0.07670179754495621
2026-01-13 16:48:05.625082,-0.6946975588798523,1.7285969257354736,44.81892776489258,-0.0798167809844017,-0.021971045061945915,0.051882367581129074,40.05500030517578,48.41899871826172,45.11399841308594,53.404998779296875,43.69599914550781,56.4379997253418,1768294085,532052282,X6-tool2,-0.7801666375904339,2.4708153092157366,44.81430553780827,-0.016573889655304153,-0.01470979594542486,0.023593097370208902,0.07670179754495621
2026-01-13 16:48:05.659585,-0.7448128461837769,1.6483639478683472,44.80520248413086,-0.10342421382665634,-0.033882252871990204,0.023294486105442047,40.137001037597656,48.555999755859375,44.928001403808594,53.15800094604492,43.7239990234375,56.388999938964844,1768294085,631412320,X6-tool2,-0.8937799559208874,2.2910619873903317,44.827271584563285,-0.017756359747184435,-0.016676472273130724,0.024027966430428378,0.06371530145406723
2026-01-13 16:48:05.694108,-0.7827077507972717,1.5798444747924805,44.79261016845703,-0.11351021379232407,-0.013675146736204624,0.011811947450041771,40.1870002746582,48.672000885009766,44.71900177001953,52.95500183105469,43.762001037597656,56.33399963378906,1768294085,631412320,X6-tool2,-0.8937799559208874,2.2910619873903317,44.827271584563285,-0.017756359747184435,-0.016676472273130724,0.024027966430428378,0.06371530145406723
2026-01-13 16:48:05.728594,-0.826483428478241,1.5008424520492554,44.77314758300781,-0.10131664574146271,-0.006752067245543003,-0.003694072598591447,40.20899963378906,48.792999267578125,44.520999908447266,52.70800018310547,43.79499816894531,56.25699996948242,1768294085,631412320,X6-tool2,-0.8937799559208874,2.2910619873903317,44.827271584563285,-0.017756359747184435,-0.016676472273130724,0.024027966430428378,0.06371530145406723
