timestamp,out_1_header.stamp.sec,out_1_header.stamp.nanosec,out_1_header.frame_id,out_1_val,out_1_speed,out_2_header.stamp.sec,out_2_header.stamp.nanosec,out_2_header.frame_id,out_2_val,out_2_speed,out_3_header.stamp.sec,out_3_header.stamp.nanosec,out_3_header.frame_id,out_3_val,out_3_speed,out_4_header.stamp.sec,out_4_header.stamp.nanosec,out_4_header.frame_id,out_4_val,out_4_speed,out_5_header.stamp.sec,out_5_header.stamp.nanosec,out_5_header.frame_id,out_5_val,out_5_speed,out_6_header.stamp.sec,out_6_header.stamp.nanosec,out_6_header.frame_id,out_6_val,out_6_speed,x6position_pose_rp[0],x6position_pose_rp[1],x6position_pose_rp[2],x6position_pose_rp[3],x6position_pose_rp[4],x6position_pose_rp[5],x6position_joints[0],x6position_joints[1],x6position_joints[2],x6position_joints[3],x6position_joints[4],x6position_joints[5],aimooe_coord_header.stamp.sec,aimooe_coord_header.stamp.nanosec,aimooe_coord_header.frame_id,aimooe_coord_position.x,aimooe_coord_position.y,aimooe_coord_position.z,aimooe_coord_orientation.x,aimooe_coord_orientation.y,aimooe_coord_orientation.z,aimooe_coord_mean_error
2026-01-14 16:15:26.805434,1768378526,789194423,1,171799,0,1768378526,792550568,2,169294,0,1768378526,795877802,3,175117,0,1768378526,799214705,4,171733,0,1768378526,802542189,5,169497,0,1768378526,785886780,6,157819,0,0.08977337926626205,2.732905149459839,39.001075744628906,0.005384544376283884,-0.0006005858303979039,-0.0006425100145861506,27.676210403442383,31.79349708557129,34.77933120727539,42.147003173828125,33.760250091552734,40.399532318115234,1768378526,804570485,X6-tool2,0.4005257140496894,2.5967199904374296,39.095499253876376,-0.009973764643017581,0.031967901465378326,0.03658926263502647,0.06517251580953598
2026-01-14 16:15:26.841523,1768378526,829211871,1,171799,0,1768378526,832550895,2,169294,0,1768378526,835884980,3,175117,0,1768378526,839224823,4,171733,0,1768378526,822545744,5,169497,0,1768378526,825886528,6,157819,0,0.08977337926626205,2.732905149459839,39.001075744628906,0.005384544376283884,-0.0006005858303979039,-0.0006425100145861506,27.676210403442383,31.79349708557129,34.77933120727539,42.147003173828125,33.760250091552734,40.399532318115234,1768378526,804570485,X6-tool2,0.4005257140496894,2.5967199904374296,39.095499253876376,-0.009973764643017581,0.031967901465378326,0.03658926263502647,0.06517251580953598
2026-01-14 16:15:26.878103,1768378526,869212368,1,171799,0,1768378526,872568983,2,169294,0,1768378526,875878346,3,175117,0,1768378526,859235438,4,171733,0,1768378526,862543800,5,169497,0,1768378526,865899735,6,157819,0,0.08977337926626205,2.732905149459839,39.001075744628906,0.005384544376283884,-0.0006005858303979039,-0.0006425100145861506,27.676210403442383,31.79349708557129,34.77933120727539,42.147003173828125,33.760250091552734,40.399532318115234,1768378526,804570485,X6-tool2,0.4005257140496894,2.5967199904374296,39.095499253876376,-0.009973764643017581,0.031967901465378326,0.03658926263502647,0.06517251580953598
2026-01-14 16:15:26.914074,1768378526,909218996,1,171799,0,1768378526,912543079,2,169294,0,1768378526,895883630,3,175117,0,1768378526,899235115,4,171733,0,1768378526,902550658,5,169497,0,1768378526,905902953,6,157819,0,0.08977337926626205,2.732905149459839,39.001075744628906,0.005384544376283884,-0.0006005858303979039,-0.0006425100145861506,27.676210403442383,31.79349708557129,34.77933120727539,42.147003173828125,33.760250091552734,40.399532318115234,1768378526,904287753,X6-tool2,0.409019931084842,2.627084699376439,39.05898429699291,-0.009406494167168671,0.031671343238020476,0.03648897031304761,0.06705697625875473
2026-01-14 16:15:26.950994,1768378526,949217474,1,171799,0,1768378526,932566934,2,169294,0,1768378526,935890548,3,175117,0,1768378526,939231632,4,171733,0,1768378526,942556136,5,169497,0,1768378526,945899900,6,157819,0,0.08977337926626205,2.732905149459839,39.001075744628906,0.005384544376283884,-0.0006005858303979039,-0.0006425100145861506,27.676210403442383,31.79349708557129,34.77933120727539,42.147003173828125,33.760250091552734,40.399532318115234,1768378526,904287753,X6-tool2,0.409019931084842,2.627084699376439,39.05898429699291,-0.009406494167168671,0.031671343238020476,0.03648897031304761,0.06705697625875473
2026-01-14 16:15:26.986926,1768378526,969214837,1,171799,0,1768378526,972566262,2,169294,0,1768378526,975884965,3,175117,0,1768378526,979232810,4,171733,0,1768378526,982548003,5,169497,0,1768378526,985894227,6,157819,0,0.08977337926626205,2.732905149459839,39.001075744628906,0.005384544376283884,-0.0006005858303979039,-0.0006425100145861506,27.676210403442383,31.79349708557129,34.77933120727539,42.147003173828125,33.760250091552734,40.399532318115234,1768378526,904287753,X6-tool2,0.409019931084842,2.627084699376439,39.05898429699291,-0.009406494167168671,0.031671343238020476,0.03648897031304761,0.06705697625875473
2026-01-14 16:15:27.023537,1768378527,9195564,1,171799,0,1768378527,12555348,2,169294,0,1768378527,15884792,3,175117,0,1768378527,19221386,4,171733,0,1768378527,22553970,5,169497,0,1768378527,5884270,6,157819,0,0.08977337926626205,2.732905149459839,39.001075744628906,0.005384544376283884,-0.0006005858303979039,-0.0006425100145861506,27.676210403442383,31.79349708557129,34.77933120727539,42.147003173828125,33.760250091552734,40.399532318115234,1768378527,4302572,X6-tool2,0.4146423880379967,2.6316300810370645,39.10341140922477,-0.009513911972630334,0.03184276712237711,0.0365169899746826,0.06621837615966797
2026-01-14 16:15:27.058971,1768378527,49214941,1,171799,0,1768378527,52550665,2,169294,0,1768378527,55885290,3,175117,0,1768378527,39221960,4,171733,0,1768378527,42549404,5,169497,0,1768378527,45885888,6,157819,0,0.08977337926626205,2.732905149459839,39.001075744628906,0.005384544376283884,-0.0006005858303979039,-0.0006425100145861506,27.676210403442383,31.79349708557129,34.77933120727539,42.147003173828125,33.760250091552734,40.399532318115234,1768378527,4302572,X6-tool2,0.4146423880379967,2.6316300810370645,39.10341140922477,-0.009513911972630334,0.03184276712237711,0.0365169899746826,0.06621837615966797
2026-01-14 16:15:27.094947,1768378527,89221799,1,171799,0,1768378527,92556913,2,169294,0,1768378527,75879983,3,175117,0,1768378527,79221007,4,171733,0,1768378527,82574262,5,169497,0,1768378527,85888305,6,157819,0,0.08977337926626205,2.732905149459839,39.001075744628906,0.005384544376283884,-0.0006005858303979039,-0.0006425100145861506,27.676210403442383,31.79349708557129,34.77933120727539,42.147003173828125,33.760250091552734,40.399532318115234,1768378527,4302572,X6-tool2,0.4146423880379967,2.6316300810370645,39.10341140922477,-0.009513911972630334,0.03184276712237711,0.0365169899746826,0.06621837615966797
2026-01-14 16:15:27.131483,1768378527,129196505,1,171799,0,1768378527,112552336,2,169294,0,1768378527,115883360,3,175117,0,1768378527,119222124,4,171733,0,1768378527,122572419,5,169497,0,1768378527,125885712,6,157819,0,0.08977337926626205,2.732905149459839,39.001075744628906,0.005384544376283884,-0.0006005858303979039,-0.0006425100145861506,27.676210403442383,31.79349708557129,34.77933120727539,42.147003173828125,33.760250091552734,40.399532318115234,1768378527,104431145,X6-tool2,0.459673626995269,2.60467526984029,39.02962494159169,-0.009775693967022226,0.030647653495777243,0.03661301420812361,0.06490325927734375
2026-01-14 16:15:27.168564,1768378527,149196929,1,171799,0,1768378527,152565004,2,169294,0,1768378527,155885178,3,175117,0,1768378527,159224322,4,171733,0,1768378527,162568096,5,169497,0,1768378527,165894530,6,157819,0,0.08977337926626205,2.732905149459839,39.001075744628906,0.005384544376283884,-0.0006005858303979039,-0.0006425100145861506,27.676210403442383,31.79349708557129,34.77933120727539,42.147003173828125,33.760250091552734,40.399532318115234,1768378527,104431145,X6-tool2,0.459673626995269,2.60467526984029,39.02962494159169,-0.009775693967022226,0.030647653495777243,0.03661301420812361,0.06490325927734375
2026-01-14 16:15:27.204156,1768378527,189194486,1,171799,0,1768378527,192563581,2,169294,0,1768378527,195888275,3,175117,0,1768378527,199234179,4,171733,0,1768378527,202554343,5,169497,0,1768378527,185888473,6,157819,0,0.08977337926626205,2.732905149459839,39.001075744628906,0.005384544376283884,-0.0006005858303979039,-0.0006425100145861506,27.676210403442383,31.79349708557129,34.77933120727539,42.147003173828125,33.760250091552734,40.399532318115234,1768378527,104431145,X6-tool2,0.459673626995269,2.60467526984029,39.02962494159169,-0.009775693967022226,0.030647653495777243,0.03661301420812361,0.06490325927734375
2026-01-14 16:15:27.240653,1768378527,229197024,1,171799,0,1768378527,232542808,2,169294,0,1768378527,235892302,3,175117,0,1768378527,239224426,4,171733,0,1768378527,222551986,5,169497,0,1768378527,225891750,6,157819,0,0.08977337926626205,2.732905149459839,39.001075744628906,0.005384544376283884,-0.0006005858303979039,-0.0006425100145861506,27.676210403442383,31.79349708557129,34.77933120727539,42.147003173828125,33.760250091552734,40.399532318115234,1768378527,204525676,X6-tool2,0.42241784276573935,2.595028237388616,39.060202664673156,-0.009901837842518576,0.03127951209461912,0.03668231437778786,0.06649112701416016
2026-01-14 16:15:27.276001,1768378527,259219820,1,171777,-146,1768378527,262541843,2,169195,-221,1768378527,265909429,3,175117,0,1768378527,269195761,4,171601,-93,1768378527,272568816,5,169113,-264,1768378527,255886796,6,157819,0,0.08977337926626205,2.732905149459839,39.001075744628906,0.005384544376283884,-0.0006005858303979039,-0.0006425100145861506,27.676210403442383,31.79349708557129,34.77933120727539,42.147003173828125,33.760250091552734,40.399532318115234,1768378527,204525676,X6-tool2,0.42241784276573935,2.595028237388616,39.060202664673156,-0.009901837842518576,0.03127951209461912,0.03668231437778786,0.06649112701416016
2026-01-14 16:15:27.312507,1768378527,299223367,1,171167,-149,1768378527,302555801,2,168376,-197,1768378527,305870074,3,175117,0,1768378527,309197188,4,171140,-135,1768378527,292572720,5,168596,-250,1768378527,295902353,6,157341,-118,0.131959930062294,2.684149980545044,39.155616760253906,0.10536886006593704,0.45452880859375,-0.06716374307870865,27.984209060668945,32.277496337890625,34.77933120727539,42.493003845214844,34.14425277709961,40.619529724121094,1768378527,304625077,X6-tool2,0.36633016753180114,2.6375219310705966,39.15272185786587,-0.010836104199072941,0.03072891032560963,0.033403045920228025,0.06726010888814926
2026-01-14 16:15:27.348116,1768378527,339223894,1,170574,-150,1768378527,342572629,2,167563,-213,1768378527,345903603,3,175111,0,1768378527,329206011,4,170909,-130,1768378527,332549626,5,167531,-265,1768378527,335887040,6,156808,-131,0.14263971149921417,2.5913193225860596,39.425228118896484,0.3904492259025574,1.4377208948135376,-0.34623607993125916,28.59920883178711,33.11249542236328,34.77933120727539,42.971004486083984,35.194252014160156,41.14152908325195,1768378527,304625077,X6-tool2,0.36633016753180114,2.6375219310705966,39.15272185786587,-0.010836104199072941,0.03072891032560963,0.033403045920228025,0.06726010888814926
2026-01-14 16:15:27.383478,1768378527,379237182,1,169980,-159,1768378527,382568386,2,166761,-196,1768378527,365886086,3,175111,0,1768378527,369221190,4,170480,-104,1768378527,372570824,5,166509,-249,1768378527,375886757,6,156264,-130,0.13291813433170319,2.49670672416687,39.688682556152344,0.6346241235733032,2.2788586616516113,-0.5778185725212097,29.203208923339844,33.93049621582031,34.78533172607422,43.40000534057617,36.23725128173828,41.696529388427734,1768378527,304625077,X6-tool2,0.36633016753180114,2.6375219310705966,39.15272185786587,-0.010836104199072941,0.03072891032560963,0.033403045920228025,0.06726010888814926
2026-01-14 16:15:27.419377,1768378527,399234145,1,169678,-122,1768378527,402559039,2,166366,-188,1768378527,405884373,3,175106,0,1768378527,409249938,4,170085,-95,1768378527,412573461,5,165454,-266,1768378527,415886625,6,155737,-131,0.12191733717918396,2.399400234222412,39.93754196166992,0.8518845438957214,3.038309335708618,-0.7912077903747559,29.797208786010742,34.72149658203125,34.79033279418945,43.795005798339844,37.27625274658203,42.21853256225586,1768378527,404520862,X6-tool2,0.03329152220832634,2.670565316492699,39.68861525819578,-0.020966380352618965,0.025524724188865443,0.021489488725755953,0.07396984100341797
2026-01-14 16:15:27.455410,1768378527,439223822,1,169096,-134,1768378527,442552186,2,165536,-230,1768378527,445903731,3,175106,0,1768378527,449203013,4,169662,-120,1768378527,452568989,5,164410,-262,1768378527,435886538,6,155495,-129,0.11713171005249023,2.3501815795898438,40.06320571899414,0.9431120753288269,3.399855136871338,-0.8876433372497559,30.104209899902344,35.12249755859375,34.79033279418945,43.99800491333008,37.803253173828125,42.481529235839844,1768378527,404520862,X6-tool2,0.03329152220832634,2.670565316492699,39.68861525819578,-0.020966380352618965,0.025524724188865443,0.021489488725755953,0.07396984100341797
2026-01-14 16:15:27.491970,1768378527,479236430,1,168492,-164,1768378527,482567554,2,164713,-207,1768378527,485880347,3,175100,0,1768378527,489216031,4,169211,-134,1768378527,472567832,5,163900,-249,1768378527,475883715,6,154990,-113,0.12228865921497345,2.243757486343384,40.32264709472656,1.1552681922912598,4.0825653076171875,-1.0248475074768066,30.676210403442383,35.96849822998047,34.796329498291016,44.4430046081543,38.847251892089844,42.98752975463867,1768378527,404520862,X6-tool2,0.03329152220832634,2.670565316492699,39.68861525819578,-0.020966380352618965,0.025524724188865443,0.021489488725755953,0.07396984100341797
2026-01-14 16:15:27.529030,1768378527,519217847,1,167866,-157,1768378527,522552551,2,163894,-180,1768378527,525879434,3,175095,0,1768378527,509243326,4,168997,-106,1768378527,512573069,5,162834,-276,1768378527,515887403,6,154468,-139,0.12738417088985443,2.1455750465393066,40.5716667175293,1.252104640007019,4.703901290893555,-1.1658505201339722,31.318208694458008,36.77549743652344,34.80133056640625,44.88300323486328,39.87425231933594,43.481529235839844,1768378527,504344903,X6-tool2,-0.039114126367986994,2.4637299503849754,40.33605597902981,-0.0449386331913612,0.033681753394210555,0.014186183900296719,0.07378673553466797
2026-01-14 16:15:27.564923,1768378527,559227574,1,167261,-153,1768378527,562572468,2,163081,-205,1768378527,545909729,3,175095,0,1768378527,549230852,4,168569,-117,1768378527,552571787,5,161801,-273,1768378527,555882870,6,153929,-119,0.11864284425973892,2.045976161956787,40.824974060058594,1.3745070695877075,5.274954795837402,-1.2607783079147339,31.90620994567871,37.59449768066406,34.80133056640625,45.311004638671875,40.93425369262695,44.01953125,1768378527,504344903,X6-tool2,-0.039114126367986994,2.4637299503849754,40.33605597902981,-0.0449386331913612,0.033681753394210555,0.014186183900296719,0.07378673553466797
2026-01-14 16:15:27.602457,1768378527,599239062,1,166674,-112,1768378527,582627264,2,162653,-232,1768378527,585884495,3,175089,0,1768378527,589243160,4,168107,-111,1768378527,592588015,5,160757,-279,1768378527,595910298,6,153402,-132,0.11475083976984024,1.9472709894180298,41.08528137207031,1.4601179361343384,5.793586254119873,-1.3135676383972168,32.499210357666016,38.43449783325195,34.80733108520508,45.773006439208984,41.97825241088867,44.56953048706055,1768378527,504344903,X6-tool2,-0.039114126367986994,2.4637299503849754,40.33605597902981,-0.0449386331913612,0.033681753394210555,0.014186183900296719,0.07378673553466797
2026-01-14 16:15:27.638796,1768378527,619210894,1,166377,-166,1768378527,622569409,2,161829,-200,1768378527,625918144,3,175084,-5,1768378527,629210076,4,167662,-88,1768378527,632564890,5,159697,-266,1768378527,635891954,6,152902,-125,0.11672534793615341,1.8448231220245361,41.333187103271484,1.5273191928863525,6.286619663238525,-1.368355631828308,33.098209381103516,39.25849533081055,34.81233215332031,46.2180061340332,43.03225326538086,45.07453155517578,1768378527,604420435,X6-tool2,-0.12527196841242322,2.14090745586495,40.90545199802997,-0.06994698838522755,0.04114581397475487,0.00815684016475754,0.06698989868164062
2026-01-14 16:15:27.674730,1768378527,659214822,1,165767,-155,1768378527,662572007,2,160994,-207,1768378527,665897710,3,175084,0,1768378527,669194932,4,167283,-107,1768378527,672547657,5,158665,-251,1768378527,655887138,6,152655,-107,0.11018017679452896,1.7865196466445923,41.44926834106445,1.5585256814956665,6.505603313446045,-1.402785062789917,33.400211334228516,39.665496826171875,34.81233215332031,46.39900588989258,43.56025314331055,45.316532135009766,1768378527,604420435,X6-tool2,-0.12527196841242322,2.14090745586495,40.90545199802997,-0.06994698838522755,0.04114581397475487,0.00815684016475754,0.06698989868164062
2026-01-14 16:15:27.709975,1768378527,699214659,1,165135,-133,1768378527,702552083,2,160164,-212,1768378527,705880047,3,175078,0,1768378527,709199900,4,166877,-119,1768378527,692578192,5,158126,-261,1768378527,695898376,6,152155,-125,0.10349955409765244,1.6700834035873413,41.687721252441406,1.5822510719299316,6.914030075073242,-1.4402518272399902,34.021209716796875,40.50049591064453,34.81233215332031,46.79400634765625,44.59225082397461,45.8055305480957,1768378527,704550467,X6-tool2,-0.1329769276639203,1.7866067973130317,41.58218875273561,-0.09149147514231164,0.044201704556451796,0.005369104464925941,0.07290109246969223
2026-01-14 16:15:27.746802,1768378527,739218716,1,164542,-131,1768378527,742564181,2,159324,-182,1768378527,745901995,3,175073,-10,1768378527,729212314,4,166663,-117,1768378527,732562709,5,157072,-274,1768378527,735886603,6,151628,-143,0.09622810781002045,1.5582107305526733,41.93239974975586,1.5859359502792358,7.298897743225098,-1.4517282247543335,34.642208099365234,41.34649658203125,34.81833267211914,47.21700668334961,45.64725112915039,46.321529388427734,1768378527,704550467,X6-tool2,-0.1329769276639203,1.7866067973130317,41.58218875273561,-0.09149147514231164,0.044201704556451796,0.005369104464925941,0.07290109246969223
2026-01-14 16:15:27.782161,1768378527,779234814,1,163960,-148,1768378527,762567654,2,158917,-172,1768378527,765878958,3,175073,0,1768378527,769203731,4,166190,-129,1768378527,772548126,5,156039,-271,1768378527,775886950,6,151100,-129,0.09524678438901901,1.4629424810409546,42.179588317871094,1.5702141523361206,7.674165725708008,-1.4229841232299805,35.229209899902344,42.17049789428711,34.82332992553711,47.690006256103516,46.70225143432617,46.854530334472656,1768378527,704550467,X6-tool2,-0.1329769276639203,1.7866067973130317,41.58218875273561,-0.09149147514231164,0.044201704556451796,0.005369104464925941,0.07290109246969223
2026-01-14 16:15:27.817833,1768378527,799223027,1,163647,-111,1768378527,802552741,2,158082,-232,1768378527,805913816,3,175073,0,1768378527,809290331,4,165762,-108,1768378527,812571754,5,154968,-260,1768378527,815888717,6,150584,-130,0.08729693293571472,1.3549964427947998,42.41856384277344,1.5433686971664429,8.009485244750977,-1.3938919305801392,35.828208923339844,43.005496978759766,34.82332992553711,48.118003845214844,47.76725387573242,47.37052917480469,1768378527,804529235,X6-tool2,-0.18089181203415736,1.4793962631334745,42.11071157164031,-0.1097028289064044,0.04396179768186397,0.0049008014928281435,0.06967544555664062
2026-01-14 16:15:27.854303,1768378527,839215124,1,163021,-154,1768378527,842552318,2,157236,-207,1768378527,845905653,3,175067,0,1768378527,849235767,4,165333,-109,1768378527,852549330,5,153907,-276,1768378527,835884030,6,150353,-113,0.08316674083471298,1.2997596263885498,42.54014587402344,1.506172776222229,8.159041404724121,-1.3760383129119873,36.1522102355957,43.433494567871094,34.82933044433594,48.33800506591797,48.28925323486328,47.63452911376953,1768378527,804529235,X6-tool2,-0.18089181203415736,1.4793962631334745,42.11071157164031,-0.1097028289064044,0.04396179768186397,0.0049008014928281435,0.06967544555664062
2026-01-14 16:15:27.889324,1768378527,879235152,1,162411,-153,1768378527,882555976,2,156396,-191,1768378527,885889020,3,175062,0,1768378527,869217510,4,165119,-101,1768378527,872544624,5,153397,-264,1768378527,875920159,6,149865,-121,0.08078980445861816,1.187394618988037,42.77082824707031,1.450796127319336,8.45962905883789,-1.332585096359253,36.762210845947266,44.268497467041016,34.82933044433594,48.76100540161133,49.350250244140625,48.117530822753906,1768378527,804529235,X6-tool2,-0.18089181203415736,1.4793962631334745,42.11071157164031,-0.1097028289064044,0.04396179768186397,0.0049008014928281435,0.06967544555664062
2026-01-14 16:15:27.925721,1768378527,919227449,1,161796,-148,1768378527,922572214,2,155583,-218,1768378527,905891573,3,175062,0,1768378527,909197656,4,164674,-102,1768378527,912570612,5,152331,-263,1768378527,915906476,6,149365,-131,0.08238734304904938,1.0803509950637817,43.00111770629883,1.3535244464874268,8.736809730529785,-1.2737963199615479,37.39421081542969,45.09849548339844,34.83433151245117,49.20600509643555,50.38825225830078,48.601531982421875,1768378527,904494571,X6-tool2,-0.12196686233518618,1.1281669231094071,42.63146018253731,-0.12380247608584391,0.04009839811622016,0.005835246368476834,0.06529394537210464
2026-01-14 16:15:27.961732,1768378527,959227276,1,161213,-146,1768378527,942558237,2,155149,-237,1768378527,945899671,3,175056,-5,1768378527,949229264,4,164295,-107,1768378527,952559358,5,151276,-271,1768378527,955901543,6,148832,-140,0.0586119070649147,0.964748203754425,43.22710037231445,1.2888137102127075,8.946950912475586,-1.1955885887145996,37.970211029052734,45.93849563598633,34.84033203125,49.58500671386719,51.4482536315918,49.123531341552734,1768378527,904494571,X6-tool2,-0.12196686233518618,1.1281669231094071,42.63146018253731,-0.12380247608584391,0.04009839811622016,0.005835246368476834,0.06529394537210464
2026-01-14 16:15:27.998354,1768378527,979223150,1,160906,-175,1768378527,982559564,2,154303,-192,1768378527,985885687,3,175051,0,1768378527,989218802,4,163872,-118,1768378527,992548405,5,150233,-264,1768378527,995882399,6,148315,-122,0.04319078102707863,0.8557111620903015,43.4571418762207,1.1813760995864868,9.149935722351074,-1.0916833877563477,38.569210052490234,46.78449630737305,34.84532928466797,50.00800323486328,52.49725341796875,49.65053176879883,1768378527,904494571,X6-tool2,-0.12196686233518618,1.1281669231094071,42.63146018253731,-0.12380247608584391,0.04009839811622016,0.005835246368476834,0.06529394537210464
2026-01-14 16:15:28.034552,1768378528,19222947,1,160269,-134,1768378528,22550671,2,153463,-229,1768378528,25885615,3,175040,0,1768378528,29214818,4,163400,-126,1768378528,32563093,5,149167,-248,1768378528,15903294,6,148063,-123,0.04063735902309418,0.8067837357521057,43.569339752197266,1.1051009893417358,9.259760856628418,-1.049196720123291,38.893211364746094,47.191497802734375,34.8513298034668,50.23300552368164,53.024253845214844,49.90353012084961,1768378528,4250361,X6-tool2,-0.17875972560589645,0.9075302560822947,43.09732064285594,-0.13118150640791024,0.03522869822467374,0.008786448849144932,0.06846269220113754
2026-01-14 16:15:28.070734,1768378528,59215664,1,159670,-140,1768378528,62547577,2,152639,-218,1768378528,65900722,3,175034,-5,1768378528,69214566,4,162966,-93,1768378528,52558116,5,148656,-238,1768378528,55882650,6,147568,-123,0.048616133630275726,0.7075017094612122,43.796913146972656,0.9623189568519592,9.478716850280762,-0.919084370136261,39.50920867919922,48.02549743652344,34.85633087158203,50.72200393676758,54.09025192260742,50.39152908325195,1768378528,4250361,X6-tool2,-0.17875972560589645,0.9075302560822947,43.09732064285594,-0.13118150640791024,0.03522869822467374,0.008786448849144932,0.06846269220113754
2026-01-14 16:15:28.106226,1768378528,99222181,1,159060,-123,1768378528,102549595,2,151776,-200,1768378528,85889155,3,175029,0,1768378528,89222299,4,162757,-101,1768378528,92559073,5,147596,-249,1768378528,95901708,6,147090,-125,0.03508788347244263,0.5890628695487976,44.0145378112793,0.8300286531448364,9.616344451904297,-0.7894525527954102,40.11320877075195,48.88249588012695,34.867332458496094,51.12300491333008,55.13425064086914,50.880531311035156,1768378528,104452736,X6-tool2,-0.22467019815602496,0.6661391302238922,43.701997308726,-0.13801664132549776,0.029970307790439514,0.01366877065811754,0.06653785705566406
2026-01-14 16:15:28.142651,1768378528,139222558,1,158467,-160,1768378528,122540398,2,151370,-199,1768378528,125888362,3,175018,-5,1768378528,129211536,4,162361,-108,1768378528,132574211,5,146519,-277,1768378528,135910555,6,146580,-124,0.017824674025177956,0.47777265310287476,44.226707458496094,0.6856058835983276,9.736991882324219,-0.6523090600967407,40.70621109008789,49.71749496459961,34.87833023071289,51.519004821777344,56.183250427246094,51.37553024291992,1768378528,104452736,X6-tool2,-0.22467019815602496,0.6661391302238922,43.701997308726,-0.13801664132549776,0.029970307790439514,0.01366877065811754,0.06653785705566406
2026-01-14 16:15:28.178911,1768378528,159195701,1,158159,-142,1768378528,162532245,2,150535,-232,1768378528,165883349,3,175001,-1,1768378528,169213243,4,161933,-116,1768378528,172567368,5,145503,-263,1768378528,175899952,6,146047,-133,-0.00043201990774832666,0.3763461410999298,44.44365692138672,0.5107142925262451,9.842857360839844,-0.4956735372543335,41.31620788574219,50.55249786376953,34.89533233642578,51.94700622558594,57.238250732421875,51.902530670166016,1768378528,104452736,X6-tool2,-0.22467019815602496,0.6661391302238922,43.701997308726,-0.13801664132549776,0.029970307790439514,0.01366877065811754,0.06653785705566406
2026-01-14 16:15:28.214875,1768378528,199222849,1,157527,-147,1768378528,202548993,2,149678,-211,1768378528,205883006,3,174979,-10,1768378528,209296333,4,161505,-105,1768378528,212570025,5,144432,-270,1768378528,195857633,6,145794,-124,-0.005956870969384909,0.32680362462997437,44.555694580078125,0.39619237184524536,9.89191722869873,-0.4105156660079956,41.65620803833008,50.98149490356445,34.90633010864258,52.183006286621094,57.75425338745117,52.171531677246094,1768378528,204401102,X6-tool2,-0.2732254201519688,0.46771392271239076,44.20300545710442,-0.1416424502514656,0.0218352580780771,0.01902251533132428,0.06693807989358902
2026-01-14 16:15:28.251898,1768378528,239221166,1,156912,-134,1768378528,242567700,2,148837,-208,1768378528,245888924,3,174952,0,1768378528,249234268,4,161082,-109,1768378528,232574799,5,143915,-262,1768378528,235880322,6,145305,-103,-0.026676936075091362,0.21627666056156158,44.76467514038086,0.22757704555988312,9.948983192443848,-0.2407202273607254,42.255210876464844,51.832496643066406,34.93333053588867,52.58400344848633,58.825252532958984,52.67753219604492,1768378528,204401102,X6-tool2,-0.2732254201519688,0.46771392271239076,44.20300545710442,-0.1416424502514656,0.0218352580780771,0.01902251533132428,0.06693807989358902
2026-01-14 16:15:28.289243,1768378528,279223763,1,156434,-21,1768378528,282546876,2,148134,-74,1768378528,285886471,3,174930,-3,1768378528,269189860,4,160889,-51,1768378528,272571845,5,143163,-50,1768378528,275919880,6,145190,-9,-0.006693382281810045,0.0916006863117218,44.949256896972656,0.06900287419557571,10.023636817932129,-0.06866853684186935,42.848209381103516,52.66249465942383,34.95532989501953,52.991004943847656,59.87425231933594,53.01253128051758,1768378528,204401102,X6-tool2,-0.2732254201519688,0.46771392271239076,44.20300545710442,-0.1416424502514656,0.0218352580780771,0.01902251533132428,0.06693807989358902
2026-01-14 16:15:28.326998,1768378528,319220060,1,156379,-1,1768378528,322572405,2,148052,-4,1768378528,325888448,3,174913,-10,1768378528,309236429,4,160840,-10,1768378528,312563423,5,143108,0,1768378528,315905616,6,145184,0,0.0011937114177271724,0.004817767534404993,44.9991340637207,0.023853829130530357,9.979968070983887,-0.034231532365083694,43.09621047973633,53.01949691772461,34.97732925415039,53.04000473022461,60.13825225830078,53.03453063964844,1768378528,304415179,X6-tool2,-0.29153186980341006,0.18588904443971688,44.62386680250703,-0.14378563287107013,0.015658901333275355,0.026750706115336007,0.0748952254652977
2026-01-14 16:15:28.363156,1768378528,359221117,1,156379,0,1768378528,362575232,2,148046,0,1768378528,345885691,3,174902,-7,1768378528,349233776,4,160840,0,1768378528,352553109,5,143102,0,1768378528,355901694,6,145184,0,0.001299233641475439,-0.0011181014124304056,45.001686096191406,0.03893524408340454,9.96430778503418,-0.037191566079854965,43.09621047973633,53.04149627685547,34.99433135986328,53.04000473022461,60.149253845214844,53.03453063964844,1768378528,304415179,X6-tool2,-0.29153186980341006,0.18588904443971688,44.62386680250703,-0.14378563287107013,0.015658901333275355,0.026750706115336007,0.0748952254652977
2026-01-14 16:15:28.398327,1768378528,379205030,1,156379,0,1768378528,382571585,2,148046,0,1768378528,385888598,3,174891,0,1768378528,389233603,4,160840,0,1768378528,392554026,5,143102,0,1768378528,395899931,6,145184,0,0.001299233641475439,-0.0011181014124304056,45.001686096191406,0.04692388325929642,9.959967613220215,-0.04530590400099754,43.09621047973633,53.04149627685547,35.005332946777344,53.04000473022461,60.155250549316406,53.03453063964844,1768378528,304415179,X6-tool2,-0.29153186980341006,0.18588904443971688,44.62386680250703,-0.14378563287107013,0.015658901333275355,0.026750706115336007,0.0748952254652977
2026-01-14 16:15:28.434753,1768378528,419224038,1,156379,0,1768378528,422551022,2,148046,0,1768378528,425885456,3,174880,0,1768378528,429212179,4,160840,0,1768378528,432548573,5,143102,0,1768378528,415882624,6,145184,0,0.001299233641475439,-0.0011181014124304056,45.001686096191406,0.04692388325929642,9.959967613220215,-0.04530590400099754,43.09621047973633,53.04149627685547,35.01033020019531,53.04000473022461,60.155250549316406,53.03453063964844,1768378528,404281862,X6-tool2,-0.28897692102674444,0.08208785316745823,44.701447045635575,-0.1449619738212728,0.015531901557981525,0.02976670946375365,0.07006486505270004
2026-01-14 16:15:28.470739,1768378528,459220865,1,156379,0,1768378528,462545708,2,148046,0,1768378528,465885483,3,174869,-8,1768378528,469210266,4,160840,0,1768378528,452556287,5,143102,0,1768378528,455879961,6,145184,0,0.001299233641475439,-0.0011181014124304056,45.001686096191406,0.05408983677625656,9.954312324523926,-0.05258559808135033,43.09621047973633,53.04149627685547,35.021331787109375,53.04000473022461,60.155250549316406,53.03453063964844,1768378528,404281862,X6-tool2,-0.28897692102674444,0.08208785316745823,44.701447045635575,-0.1449619738212728,0.015531901557981525,0.02976670946375365,0.07006486505270004
2026-01-14 16:15:28.506610,1768378528,499213552,1,156379,0,1768378528,502541565,2,148046,0,1768378528,505878429,3,174858,0,1768378528,489210180,4,160840,0,1768378528,492547784,5,143102,0,1768378528,495878938,6,145184,0,0.001299233641475439,-0.0011181014124304056,45.001686096191406,0.0612497553229332,9.94865608215332,-0.05985905975103378,43.09621047973633,53.04149627685547,35.03232955932617,53.04000473022461,60.155250549316406,53.03453063964844,1768378528,504322381,X6-tool2,-0.27075217760226256,0.13979072491633565,44.62258994188392,-0.14378845235213286,0.014876265886280493,0.02998328442680364,0.07120037078857422
2026-01-14 16:15:28.541701,1768378528,539229849,1,156379,0,1768378528,522541939,2,148046,0,1768378528,525876353,3,174853,0,1768378528,529190586,4,160840,0,1768378528,532550981,5,143102,0,1768378528,535876904,6,145184,0,0.001299233641475439,-0.0011181014124304056,45.001686096191406,0.06840492784976959,9.943000793457031,-0.06712744385004044,43.09621047973633,53.04149627685547,35.043331146240234,53.04000473022461,60.155250549316406,53.03453063964844,1768378528,504322381,X6-tool2,-0.27075217760226256,0.13979072491633565,44.62258994188392,-0.14378845235213286,0.014876265886280493,0.02998328442680364,0.07120037078857422
2026-01-14 16:15:28.578622,1768378528,559215582,1,156379,0,1768378528,562541676,2,148046,0,1768378528,565857329,3,174847,0,1768378528,569209314,4,160840,0,1768378528,572545688,5,143102,0,1768378528,575879112,6,145184,0,0.001299233641475439,-0.0011181014124304056,45.001686096191406,0.07555537670850754,9.937345504760742,-0.07439076900482178,43.09621047973633,53.04149627685547,35.04933166503906,53.04000473022461,60.155250549316406,53.03453063964844,1768378528,504322381,X6-tool2,-0.27075217760226256,0.13979072491633565,44.62258994188392,-0.14378845235213286,0.014876265886280493,0.02998328442680364,0.07120037078857422
2026-01-14 16:15:28.614749,1768378528,599219620,1,156379,0,1768378528,602597675,2,148046,0,1768378528,605882457,3,174842,0,1768378528,609194711,4,160840,0,1768378528,612551025,5,143102,-5,1768378528,595915677,6,145184,0,0.001299233641475439,-0.0011181014124304056,45.001686096191406,0.07555537670850754,9.937345504760742,-0.07439076900482178,43.09621047973633,53.04149627685547,35.0543327331543,53.04000473022461,60.155250549316406,53.03453063964844,1768378528,604263437,X6-tool2,-0.2759505703460377,0.12992293898094862,44.68930777900504,-0.1436112432760105,0.015176962706724594,0.030089077914774852,0.06871255487203598
2026-01-14 16:15:28.651303,1768378528,639229507,1,156379,0,1768378528,642599393,2,148046,0,1768378528,645894705,3,174836,0,1768378528,649262090,4,160840,0,1768378528,632563119,5,143102,0,1768378528,635928624,6,145184,0,0.001299233641475439,-0.0011181014124304056,45.001686096191406,0.08270108699798584,9.931690216064453,-0.08164903521537781,43.09621047973633,53.04149627685547,35.06032943725586,53.04000473022461,60.155250549316406,53.03453063964844,1768378528,604263437,X6-tool2,-0.2759505703460377,0.12992293898094862,44.68930777900504,-0.1436112432760105,0.015176962706724594,0.030089077914774852,0.06871255487203598
2026-01-14 16:15:28.689959,1768378528,679224864,1,156379,0,1768378528,682598949,2,148046,0,1768378528,685893072,3,174831,-7,1768378528,689262967,4,160840,0,1768378528,672561576,5,143102,0,1768378528,675929761,6,145184,0,0.001299233641475439,-0.0011181014124304056,45.001686096191406,0.08270108699798584,9.931690216064453,-0.08164903521537781,43.09621047973633,53.04149627685547,35.065330505371094,53.04000473022461,60.155250549316406,53.03453063964844,1768378528,604263437,X6-tool2,-0.2759505703460377,0.12992293898094862,44.68930777900504,-0.1436112432760105,0.015176962706724594,0.030089077914774852,0.06871255487203598
2026-01-14 16:15:28.728138,1768378528,719228811,1,156379,0,1768378528,722600826,2,148046,0,1768378528,725895229,3,174825,0,1768378528,709262571,4,160840,0,1768378528,712563973,5,143102,0,1768378528,715931959,6,145184,0,0.001299233641475439,-0.0011181014124304056,45.001686096191406,0.08984208106994629,9.92603588104248,-0.08890224993228912,43.09621047973633,53.04149627685547,35.07133102416992,53.04000473022461,60.155250549316406,53.03453063964844,1768378528,704369969,X6-tool2,-0.27318863825711004,0.11628619287374922,44.676062465551205,-0.14394847932222252,0.015213531108229926,0.030186050573686268,0.07096131891012192
2026-01-14 16:15:28.765345,1768378528,759229918,1,156379,0,1768378528,762598954,2,148046,0,1768378528,745893933,3,174820,0,1768378528,749263528,4,160840,0,1768378528,752564241,5,143097,0,1768378528,755930625,6,145184,0,0.001299233641475439,-0.0011181014124304056,45.001686096191406,0.08984208106994629,9.92603588104248,-0.08890224993228912,43.09621047973633,53.04149627685547,35.076332092285156,53.04000473022461,60.16025161743164,53.03453063964844,1768378528,704369969,X6-tool2,-0.27318863825711004,0.11628619287374922,44.676062465551205,-0.14394847932222252,0.015213531108229926,0.030186050573686268,0.07096131891012192
2026-01-14 16:15:28.801192,1768378528,799228265,1,156379,0,1768378528,782566176,2,148046,0,1768378528,785908830,3,174820,0,1768378528,789263505,4,160840,0,1768378528,792571408,5,143097,0,1768378528,795931473,6,145184,0,0.001299233641475439,-0.0011181014124304056,45.001686096191406,0.08984208106994629,9.92603588104248,-0.08890224993228912,43.09621047973633,53.04149627685547,35.076332092285156,53.04000473022461,60.16025161743164,53.03453063964844,1768378528,704369969,X6-tool2,-0.27318863825711004,0.11628619287374922,44.676062465551205,-0.14394847932222252,0.015213531108229926,0.030186050573686268,0.07096131891012192
2026-01-14 16:15:28.837369,1768378528,819208068,1,156379,0,1768378528,822600804,2,148046,0,1768378528,825892396,3,174814,0,1768378528,829261422,4,160840,0,1768378528,832599666,5,143097,0,1768378528,835926249,6,145184,0,0.001299233641475439,-0.0011181014124304056,45.001686096191406,0.09766726195812225,9.921481132507324,-0.0968463197350502,43.09621047973633,53.04149627685547,35.082332611083984,53.04000473022461,60.16025161743164,53.03453063964844,1768378528,804291964,X6-tool2,-0.2902807636785871,0.10504455303223892,44.70143359473341,-0.14421297918884346,0.015732731010522957,0.030298726399620567,0.07103538513183594
2026-01-14 16:15:28.874576,1768378528,859256357,1,156379,0,1768378528,862602601,2,148046,0,1768378528,865921505,3,174809,0,1768378528,869264659,4,160840,0,1768378528,872572352,5,143097,0,1768378528,855899952,6,145184,0,0.001299233641475439,-0.0011181014124304056,45.001686096191406,0.09766726195812225,9.921481132507324,-0.0968463197350502,43.09621047973633,53.04149627685547,35.08732986450195,53.04000473022461,60.16025161743164,53.03453063964844,1768378528,804291964,X6-tool2,-0.2902807636785871,0.10504455303223892,44.70143359473341,-0.14421297918884346,0.015732731010522957,0.030298726399620567,0.07103538513183594
2026-01-14 16:15:28.910674,1768378528,899232293,1,156379,0,1768378528,902584708,2,148046,0,1768378528,905910411,3,174803,-8,1768378528,909224985,4,160840,0,1768378528,892565965,5,143097,0,1768378528,895911790,6,145184,0,0.001299233641475439,-0.0011181014124304056,45.001686096191406,0.09766726195812225,9.921481132507324,-0.0968463197350502,43.09621047973633,53.04149627685547,35.08732986450195,53.04000473022461,60.16025161743164,53.03453063964844,1768378528,904438607,X6-tool2,-0.2746709885885036,0.11511953921842909,44.668159671213374,-0.14376347065297246,0.01530726708746202,0.03029955578159715,0.07080522924661636
2026-01-14 16:15:28.947025,1768378528,939222360,1,156379,0,1768378528,942551333,2,148046,0,1768378528,945902318,3,174798,-6,1768378528,929195137,4,160840,0,1768378528,932554552,5,143097,0,1768378528,935883746,6,145184,0,0.001299233641475439,-0.0011181014124304056,45.001686096191406,0.1048004999756813,9.915827751159668,-0.10409070551395416,43.09621047973633,53.04149627685547,35.09333038330078,53.04000473022461,60.16025161743164,53.03453063964844,1768378528,904438607,X6-tool2,-0.2746709885885036,0.11511953921842909,44.668159671213374,-0.14376347065297246,0.01530726708746202,0.03029955578159715,0.07080522924661636
2026-01-14 16:15:28.982555,1768378528,979235627,1,156379,0,1768378528,962554157,2,148046,0,1768378528,965892581,3,174798,0,1768378528,969194444,4,160840,0,1768378528,972551439,5,143097,0,1768378528,975884483,6,145184,0,0.001299233641475439,-0.0011181014124304056,45.001686096191406,0.1048004999756813,9.915827751159668,-0.10409070551395416,43.09621047973633,53.04149627685547,35.098331451416016,53.04000473022461,60.16025161743164,53.03453063964844,1768378528,904438607,X6-tool2,-0.2746709885885036,0.11511953921842909,44.668159671213374,-0.14376347065297246,0.01530726708746202,0.03029955578159715,0.07080522924661636
2026-01-14 16:15:29.018622,1768378528,999230981,1,156379,0,1768378529,2551224,2,148046,0,1768378529,5865108,3,174792,0,1768378529,9216912,4,160840,0,1768378529,12570117,5,143097,0,1768378529,15882710,6,145184,0,0.001299233641475439,-0.0011181014124304056,45.001686096191406,0.11192794144153595,9.910173416137695,-0.111329086124897,43.09621047973633,53.04149627685547,35.104331970214844,53.04000473022461,60.16025161743164,53.03453063964844,1768378529,4367132,X6-tool2,-0.27195804025512177,0.1337551387880467,44.708114003723594,-0.14345571722970346,0.015360108034726754,0.030338835659044966,0.07152748107910156
2026-01-14 16:15:29.054458,1768378529,39225077,1,156379,0,1768378529,42545381,2,148046,0,1768378529,45903886,3,174792,0,1768378529,49214729,4,160840,0,1768378529,52550743,5,143097,0,1768378529,35880703,6,145184,0,0.001299233641475439,-0.0011181014124304056,45.001686096191406,0.11192794144153595,9.910173416137695,-0.111329086124897,43.09621047973633,53.04149627685547,35.104331970214844,53.04000473022461,60.16025161743164,53.03453063964844,1768378529,4367132,X6-tool2,-0.27195804025512177,0.1337551387880467,44.708114003723594,-0.14345571722970346,0.015360108034726754,0.030338835659044966,0.07152748107910156
2026-01-14 16:15:29.090932,1768378529,79236945,1,156379,0,1768378529,82548938,2,148052,0,1768378529,85890422,3,174787,0,1768378529,89213966,4,160840,0,1768378529,72551676,5,143097,0,1768378529,75881050,6,145184,0,0.0012704571709036827,0.0005006447318010032,45.0009880065918,0.1144736260175705,9.910135269165039,-0.11728604882955551,43.09621047973633,53.03549575805664,35.10932922363281,53.04000473022461,60.16025161743164,53.03453063964844,1768378529,4367132,X6-tool2,-0.27195804025512177,0.1337551387880467,44.708114003723594,-0.14345571722970346,0.015360108034726754,0.030338835659044966,0.07152748107910156
2026-01-14 16:15:29.129288,1768378529,119223292,1,156379,0,1768378529,122549525,2,148052,0,1768378529,125897599,3,174781,0,1768378529,109217720,4,160840,0,1768378529,112570714,5,143097,0,1768378529,115883327,6,145184,0,0.0012704571709036827,0.0005006447318010032,45.0009880065918,0.1144736260175705,9.910135269165039,-0.11728604882955551,43.09621047973633,53.03549575805664,35.10932922363281,53.04000473022461,60.16025161743164,53.03453063964844,1768378529,104628669,X6-tool2,-0.28673438030716886,0.1297126696893471,44.66868217366528,-0.14346971499265784,0.015502194205290566,0.03017563364269298,0.06891282647848129
2026-01-14 16:15:29.167074,1768378529,159229239,1,156379,0,1768378529,162551562,2,148052,0,1768378529,165884616,3,174781,0,1768378529,149210916,4,160840,0,1768378529,152556600,5,143097,0,1768378529,155879764,6,145184,0,0.0012704571709036827,0.0005006447318010032,45.0009880065918,0.1144736260175705,9.910135269165039,-0.11728604882955551,43.09621047973633,53.03549575805664,35.11532974243164,53.04000473022461,60.16025161743164,53.03453063964844,1768378529,104628669,X6-tool2,-0.28673438030716886,0.1297126696893471,44.66868217366528,-0.14346971499265784,0.015502194205290566,0.03017563364269298,0.06891282647848129
2026-01-14 16:15:29.202388,1768378529,199222415,1,156379,0,1768378529,182554646,2,148052,0,1768378529,185888810,3,174781,0,1768378529,189209183,4,160840,0,1768378529,192549887,5,143097,0,1768378529,195895291,6,145184,0,0.0012704571709036827,0.0005006447318010032,45.0009880065918,0.1144736260175705,9.910135269165039,-0.11728604882955551,43.09621047973633,53.03549575805664,35.11532974243164,53.04000473022461,60.16025161743164,53.03453063964844,1768378529,104628669,X6-tool2,-0.28673438030716886,0.1297126696893471,44.66868217366528,-0.14346971499265784,0.015502194205290566,0.03017563364269298,0.06891282647848129
2026-01-14 16:15:29.238095,1768378529,219220949,1,156379,0,1768378529,222551062,2,148052,0,1768378529,225886726,3,174776,0,1768378529,229216040,4,160840,0,1768378529,232549994,5,143097,0,1768378529,235881798,6,145184,0,0.0012704571709036827,0.0005006447318010032,45.0009880065918,0.12159893661737442,9.904483795166016,-0.12452033162117004,43.09621047973633,53.03549575805664,35.120330810546875,53.04000473022461,60.16025161743164,53.03453063964844,1768378529,204315425,X6-tool2,-0.2748954554606931,0.13191949534937947,44.65419861357121,-0.14343325153118702,0.01523320530941876,0.030254096026191956,0.07057603448629379
2026-01-14 16:15:29.274744,1768378529,259221316,1,156379,0,1768378529,262553400,2,148052,0,1768378529,265901424,3,174776,0,1768378529,269214047,4,160840,0,1768378529,272550241,5,143097,0,1768378529,255886632,6,145179,0,9.033088281285018e-05,0.001154317520558834,45.00156784057617,0.12159893661737442,9.904483795166016,-0.12452033162117004,43.09621047973633,53.03549575805664,35.120330810546875,53.04000473022461,60.16025161743164,53.03953170776367,1768378529,204315425,X6-tool2,-0.2748954554606931,0.13191949534937947,44.65419861357121,-0.14343325153118702,0.01523320530941876,0.030254096026191956,0.07057603448629379
2026-01-14 16:15:29.310466,1768378529,299218332,1,156379,0,1768378529,302549026,2,148052,0,1768378529,305920082,3,174771,0,1768378529,309197173,4,160840,0,1768378529,292561795,5,143097,0,1768378529,295882999,6,145179,0,9.033088281285018e-05,0.001154317520558834,45.00156784057617,0.12159893661737442,9.904483795166016,-0.12452033162117004,43.09621047973633,53.03549575805664,35.12533187866211,53.04000473022461,60.16025161743164,53.03953170776367,1768378529,304455277,X6-tool2,-0.2889754126108562,0.1326040628315767,44.67085342393278,-0.14335273798964043,0.015585906545674849,0.03019249787823365,0.07177162170410156
2026-01-14 16:15:29.346879,1768378529,339243160,1,156379,0,1768378529,342552873,2,148052,0,1768378529,345909498,3,174771,0,1768378529,329220358,4,160840,0,1768378529,332588703,5,143097,0,1768378529,335885755,6,145179,0,9.033088281285018e-05,0.001154317520558834,45.00156784057617,0.12159893661737442,9.904483795166016,-0.12452033162117004,43.09621047973633,53.03549575805664,35.12533187866211,53.04000473022461,60.16025161743164,53.03953170776367,1768378529,304455277,X6-tool2,-0.2889754126108562,0.1326040628315767,44.67085342393278,-0.14335273798964043,0.015585906545674849,0.03019249787823365,0.07177162170410156
2026-01-14 16:15:29.382492,1768378529,379237437,1,156379,0,1768378529,362553007,2,148052,0,1768378529,365904901,3,174771,0,1768378529,369214985,4,160840,0,1768378529,372568969,5,143097,0,1768378529,375887673,6,145179,0,9.033088281285018e-05,0.001154317520558834,45.00156784057617,0.12159893661737442,9.904483795166016,-0.12452033162117004,43.09621047973633,53.03549575805664,35.12533187866211,53.04000473022461,60.16025161743164,53.03953170776367,1768378529,304455277,X6-tool2,-0.2889754126108562,0.1326040628315767,44.67085342393278,-0.14335273798964043,0.015585906545674849,0.03019249787823365,0.07177162170410156
2026-01-14 16:15:29.418768,1768378529,399241281,1,156379,0,1768378529,402561184,2,148052,0,1768378529,405880047,3,174771,0,1768378529,409220162,4,160840,0,1768378529,412574586,5,143097,0,1768378529,415883089,6,145179,0,9.033088281285018e-05,0.001154317520558834,45.00156784057617,0.12159893661737442,9.904483795166016,-0.12452033162117004,43.09621047973633,53.03549575805664,35.12533187866211,53.04000473022461,60.16025161743164,53.03953170776367,1768378529,404414653,X6-tool2,-0.2865204879796527,0.10921929533587818,44.64131386184756,-0.1439437518011419,0.015488689482717534,0.030255105235483054,0.06836605072021484
2026-01-14 16:15:29.454887,1768378529,439237348,1,156379,0,1768378529,442539860,2,148052,0,1768378529,445915176,3,174765,0,1768378529,449195487,4,160840,0,1768378529,452559053,5,143097,0,1768378529,435861892,6,145179,0,9.033088281285018e-05,0.001154317520558834,45.00156784057617,0.12159893661737442,9.904483795166016,-0.12452033162117004,43.09621047973633,53.03549575805664,35.12533187866211,53.04000473022461,60.16025161743164,53.03953170776367,1768378529,404414653,X6-tool2,-0.2865204879796527,0.10921929533587818,44.64131386184756,-0.1439437518011419,0.015488689482717534,0.030255105235483054,0.06836605072021484
2026-01-14 16:15:29.491483,1768378529,479222884,1,156379,0,1768378529,482555638,2,148052,0,1768378529,485889602,3,174765,0,1768378529,489217615,4,160840,0,1768378529,472561006,5,143097,0,1768378529,475923272,6,145179,0,9.033088281285018e-05,0.001154317520558834,45.00156784057617,0.1278110295534134,9.897873878479004,-0.13129112124443054,43.09621047973633,53.03549575805664,35.13133239746094,53.04000473022461,60.16025161743164,53.03953170776367,1768378529,404414653,X6-tool2,-0.2865204879796527,0.10921929533587818,44.64131386184756,-0.1439437518011419,0.015488689482717534,0.030255105235483054,0.06836605072021484
2026-01-14 16:15:29.529547,1768378529,519221410,1,156379,0,1768378529,522552354,2,148052,0,1768378529,525924600,3,174765,0,1768378529,509210308,4,160840,0,1768378529,512659887,5,143097,0,1768378529,515909608,6,145179,0,9.033088281285018e-05,0.001154317520558834,45.00156784057617,0.1278110295534134,9.897873878479004,-0.13129112124443054,43.09621047973633,53.03549575805664,35.13133239746094,53.04000473022461,60.16025161743164,53.03953170776367,1768378529,512858104,X6-tool2,-0.28425326579731647,0.09941683256967332,44.66321829402617,-0.14411588202295175,0.015481284819889694,0.030378207890917098,0.07568073272705078
2026-01-14 16:15:29.565861,1768378529,559216457,1,156379,0,1768378529,562559422,2,148052,0,1768378529,545890012,3,174765,0,1768378529,549225236,4,160840,0,1768378529,552551080,5,143097,0,1768378529,555891154,6,145179,0,9.033088281285018e-05,0.001154317520558834,45.00156784057617,0.1278110295534134,9.897873878479004,-0.13129112124443054,43.09621047973633,53.03549575805664,35.13133239746094,53.04000473022461,60.16025161743164,53.03953170776367,1768378529,512858104,X6-tool2,-0.28425326579731647,0.09941683256967332,44.66321829402617,-0.14411588202295175,0.015481284819889694,0.030378207890917098,0.07568073272705078
2026-01-14 16:15:29.602666,1768378529,599228765,1,156379,0,1768378529,582547885,2,148052,0,1768378529,585891439,3,174765,0,1768378529,589220333,4,160845,0,1768378529,592609009,5,143097,0,1768378529,595892391,6,145179,0,-0.0010659071849659085,0.0004590779426507652,45.0009880065918,0.1278110295534134,9.897873878479004,-0.13129112124443054,43.09621047973633,53.03549575805664,35.13133239746094,53.035003662109375,60.16025161743164,53.03953170776367,1768378529,512858104,X6-tool2,-0.28425326579731647,0.09941683256967332,44.66321829402617,-0.14411588202295175,0.015481284819889694,0.030378207890917098,0.07568073272705078
2026-01-14 16:15:29.638928,1768378529,619304971,1,156379,0,1768378529,622556002,2,148052,0,1768378529,625907007,3,174765,0,1768378529,629200889,4,160845,0,1768378529,632569604,5,143097,0,1768378529,635890068,6,145179,0,-0.0010659071849659085,0.0004590779426507652,45.0009880065918,0.1278110295534134,9.897873878479004,-0.13129112124443054,43.09621047973633,53.03549575805664,35.13133239746094,53.035003662109375,60.16025161743164,53.03953170776367,1768378529,612133764,X6-tool2,-0.28184066973363175,0.11078832179337045,44.6722084887564,-0.14372527071186797,0.015395626387335291,0.030472712373494342,0.06868235021829605
2026-01-14 16:15:29.675217,1768378529,659263887,1,156379,0,1768378529,662574810,2,148052,0,1768378529,665917704,3,174765,0,1768378529,669237938,4,160845,0,1768378529,672553751,5,143097,0,1768378529,655905992,6,145179,0,-0.0010659071849659085,0.0004590779426507652,45.0009880065918,0.1278110295534134,9.897873878479004,-0.13129112124443054,43.09621047973633,53.03549575805664,35.13133239746094,53.035003662109375,60.16025161743164,53.03953170776367,1768378529,612133764,X6-tool2,-0.28184066973363175,0.11078832179337045,44.6722084887564,-0.14372527071186797,0.015395626387335291,0.030472712373494342,0.06868235021829605
2026-01-14 16:15:29.711253,1768378529,699237973,1,156379,0,1768378529,702557276,2,148052,0,1768378529,705903540,3,174765,0,1768378529,709224744,4,160845,0,1768378529,692574895,5,143097,0,1768378529,695908829,6,145179,0,-0.0010659071849659085,0.0004590779426507652,45.0009880065918,0.1278110295534134,9.897873878479004,-0.13129112124443054,43.09621047973633,53.03549575805664,35.13133239746094,53.035003662109375,60.16025161743164,53.03953170776367,1768378529,612133764,X6-tool2,-0.28184066973363175,0.11078832179337045,44.6722084887564,-0.14372527071186797,0.015395626387335291,0.030472712373494342,0.06868235021829605
2026-01-14 16:15:29.748070,1768378529,739224619,1,156379,0,1768378529,742573294,2,148052,5,1768378529,745891137,3,174765,0,1768378529,729237508,4,160845,0,1768378529,732572102,5,143097,0,1768378529,735906196,6,145179,0,-0.0010659071849659085,0.0004590779426507652,45.0009880065918,0.1278110295534134,9.897873878479004,-0.13129112124443054,43.09621047973633,53.03549575805664,35.13133239746094,53.035003662109375,60.16025161743164,53.03953170776367,1768378529,711658224,X6-tool2,-0.27700421910861234,0.11986796654356836,44.63266278550185,-0.14384650341533947,0.015299977839410202,0.03025226969472867,0.0677938461303711
2026-01-14 16:15:29.784440,1768378529,779243347,1,156379,0,1768378529,782578851,2,148052,0,1768378529,765892261,3,174765,0,1768378529,769239565,4,160845,0,1768378529,772554348,5,143097,0,1768378529,775903603,6,145179,0,-0.0010659071849659085,0.0004590779426507652,45.0009880065918,0.1278110295534134,9.897873878479004,-0.13129112124443054,43.09621047973633,53.03549575805664,35.13133239746094,53.035003662109375,60.16025161743164,53.03953170776367,1768378529,711658224,X6-tool2,-0.27700421910861234,0.11986796654356836,44.63266278550185,-0.14384650341533947,0.015299977839410202,0.03025226969472867,0.0677938461303711
2026-01-14 16:15:29.820853,1768378529,819210833,1,156379,0,1768378529,802572974,2,148052,0,1768378529,805868146,3,174765,0,1768378529,809238152,4,160845,0,1768378529,812573355,5,143097,0,1768378529,815906060,6,145179,0,-0.0010659071849659085,0.0004590779426507652,45.0009880065918,0.1278110295534134,9.897873878479004,-0.13129112124443054,43.09621047973633,53.03549575805664,35.13133239746094,53.035003662109375,60.16025161743164,53.03953170776367,1768378529,811021408,X6-tool2,-0.2615499916474073,0.11381362784950227,44.66527276154699,-0.1436219675022176,0.01497128737473223,0.030402877744696525,0.06910546869039536
2026-01-14 16:15:29.857933,1768378529,839239867,1,156379,0,1768378529,842644564,2,148052,0,1768378529,845907065,3,174765,0,1768378529,849236478,4,160845,0,1768378529,852553022,5,143097,0,1768378529,855902766,6,145179,0,-0.0010659071849659085,0.0004590779426507652,45.0009880065918,0.1278110295534134,9.897873878479004,-0.13129112124443054,43.09621047973633,53.03549575805664,35.13133239746094,53.035003662109375,60.16025161743164,53.03953170776367,1768378529,811021408,X6-tool2,-0.2615499916474073,0.11381362784950227,44.66527276154699,-0.1436219675022176,0.01497128737473223,0.030402877744696525,0.06910546869039536
2026-01-14 16:15:29.894626,1768378529,879237284,1,156379,0,1768378529,882549057,2,148052,0,1768378529,885907272,3,174765,0,1768378529,889183244,4,160845,0,1768378529,892565709,5,143097,0,1768378529,875905960,6,145179,0,-0.0010659071849659085,0.0004590779426507652,45.0009880065918,0.1278110295534134,9.897873878479004,-0.13129112124443054,43.09621047973633,53.03549575805664,35.13133239746094,53.035003662109375,60.16025161743164,53.03953170776367,1768378529,811021408,X6-tool2,-0.2615499916474073,0.11381362784950227,44.66527276154699,-0.1436219675022176,0.01497128737473223,0.030402877744696525,0.06910546869039536
2026-01-14 16:15:29.930825,1768378529,919216700,1,156379,0,1768378529,922576045,2,148052,0,1768378529,925881408,3,174765,0,1768378529,929236643,4,160845,0,1768378529,912629235,5,143097,0,1768378529,915902337,6,145179,0,-0.0010659071849659085,0.0004590779426507652,45.0009880065918,0.1278110295534134,9.897873878479004,-0.13129112124443054,43.09621047973633,53.03549575805664,35.13133239746094,53.035003662109375,60.16025161743164,53.03953170776367,1768378529,910352861,X6-tool2,-0.28798084096673654,0.10654809366762533,44.69217955770115,-0.14374213666321684,0.01561487913980713,0.03048525229221472,0.06725629419088364
2026-01-14 16:15:29.966973,1768378529,959256158,1,156379,0,1768378529,962574722,2,148052,0,1768378529,965881075,3,174765,0,1768378529,949211365,4,160845,0,1768378529,952567430,5,143097,0,1768378529,955900963,6,145179,0,-0.0010659071849659085,0.0004590779426507652,45.0009880065918,0.1278110295534134,9.897873878479004,-0.13129112124443054,43.09621047973633,53.03549575805664,35.13133239746094,53.035003662109375,60.16025161743164,53.03953170776367,1768378529,910352861,X6-tool2,-0.28798084096673654,0.10654809366762533,44.69217955770115,-0.14374213666321684,0.01561487913980713,0.03048525229221472,0.06725629419088364
2026-01-14 16:15:30.002632,1768378529,999223194,1,156379,0,1768378529,982575085,2,148052,0,1768378529,985868578,3,174765,0,1768378529,989223972,4,160845,0,1768378529,992560426,5,143097,0,1768378529,995906681,6,145179,0,-0.0010659071849659085,0.0004590779426507652,45.0009880065918,0.1278110295534134,9.897873878479004,-0.13129112124443054,43.09621047973633,53.03549575805664,35.13133239746094,53.035003662109375,60.16025161743164,53.03953170776367,1768378529,910352861,X6-tool2,-0.28798084096673654,0.10654809366762533,44.69217955770115,-0.14374213666321684,0.01561487913980713,0.03048525229221472,0.06725629419088364
2026-01-14 16:15:30.038842,1768378530,19315551,1,156379,0,1768378530,22538941,2,148052,0,1768378530,25878365,3,174765,0,1768378530,29211719,4,160845,0,1768378530,32569354,5,143097,0,1768378530,35890287,6,145179,0,-0.0010659071849659085,0.0004590779426507652,45.0009880065918,0.1278110295534134,9.897873878479004,-0.13129112124443054,43.09621047973633,53.03549575805664,35.13133239746094,53.035003662109375,60.16025161743164,53.03953170776367,1768378530,10012015,X6-tool2,-0.2744761758801077,0.12555067965038885,44.65626418956176,-0.14354589367778547,0.015246920083162288,0.030379393403595488,0.07053407281637192
2026-01-14 16:15:30.075126,1768378530,59223234,1,156379,0,1768378530,62577489,2,148052,0,1768378530,65952034,3,174765,0,1768378530,69218136,4,160845,0,1768378530,72572101,5,143097,0,1768378530,55905191,6,145179,0,-0.0010659071849659085,0.0004590779426507652,45.0009880065918,0.1278110295534134,9.897873878479004,-0.13129112124443054,43.09621047973633,53.03549575805664,35.13133239746094,53.035003662109375,60.16025161743164,53.03953170776367,1768378530,10012015,X6-tool2,-0.2744761758801077,0.12555067965038885,44.65626418956176,-0.14354589367778547,0.015246920083162288,0.030379393403595488,0.07053407281637192
2026-01-14 16:15:30.110961,1768378530,99235202,1,156379,0,1768378530,102552615,2,148052,0,1768378530,105901099,3,174765,0,1768378530,109195142,4,160845,0,1768378530,92571184,5,143097,0,1768378530,95881347,6,145179,0,-0.0010659071849659085,0.0004590779426507652,45.0009880065918,0.1278110295534134,9.897873878479004,-0.13129112124443054,43.09621047973633,53.03549575805664,35.13133239746094,53.035003662109375,60.16025161743164,53.03953170776367,1768378530,109283295,X6-tool2,-0.2871822766666525,0.12517859800263909,44.69507509271188,-0.14347530188991295,0.015659139273814876,0.030446709808740435,0.0708821639418602
2026-01-14 16:15:30.147228,1768378530,139237109,1,156379,0,1768378530,142538461,2,148052,0,1768378530,145897976,3,174765,0,1768378530,129234307,4,160845,0,1768378530,132544750,5,143097,0,1768378530,135921655,6,145179,0,-0.0010659071849659085,0.0004590779426507652,45.0009880065918,0.1278110295534134,9.897873878479004,-0.13129112124443054,43.09621047973633,53.03549575805664,35.13133239746094,53.035003662109375,60.16025161743164,53.03953170776367,1768378530,109283295,X6-tool2,-0.2871822766666525,0.12517859800263909,44.69507509271188,-0.14347530188991295,0.015659139273814876,0.030446709808740435,0.0708821639418602
2026-01-14 16:15:30.182510,1768378530,179235965,1,156379,0,1768378530,162580376,2,148052,0,1768378530,165883639,3,174765,0,1768378530,169213653,4,160845,0,1768378530,172568017,5,143097,0,1768378530,175907351,6,145179,0,-0.0010659071849659085,0.0004590779426507652,45.0009880065918,0.1278110295534134,9.897873878479004,-0.13129112124443054,43.09621047973633,53.03549575805664,35.13133239746094,53.035003662109375,60.16025161743164,53.03953170776367,1768378530,109283295,X6-tool2,-0.2871822766666525,0.12517859800263909,44.69507509271188,-0.14347530188991295,0.015659139273814876,0.030446709808740435,0.0708821639418602
