timestamp,out_1_header.stamp.sec,out_1_header.stamp.nanosec,out_1_header.frame_id,out_1_val,out_1_speed,out_2_header.stamp.sec,out_2_header.stamp.nanosec,out_2_header.frame_id,out_2_val,out_2_speed,out_3_header.stamp.sec,out_3_header.stamp.nanosec,out_3_header.frame_id,out_3_val,out_3_speed,out_4_header.stamp.sec,out_4_header.stamp.nanosec,out_4_header.frame_id,out_4_val,out_4_speed,out_5_header.stamp.sec,out_5_header.stamp.nanosec,out_5_header.frame_id,out_5_val,out_5_speed,out_6_header.stamp.sec,out_6_header.stamp.nanosec,out_6_header.frame_id,out_6_val,out_6_speed,x6position_pose_rp[0],x6position_pose_rp[1],x6position_pose_rp[2],x6position_pose_rp[3],x6position_pose_rp[4],x6position_pose_rp[5],x6position_joints[0],x6position_joints[1],x6position_joints[2],x6position_joints[3],x6position_joints[4],x6position_joints[5],aimooe_coord_header.stamp.sec,aimooe_coord_header.stamp.nanosec,aimooe_coord_header.frame_id,aimooe_coord_position.x,aimooe_coord_position.y,aimooe_coord_position.z,aimooe_coord_orientation.x,aimooe_coord_orientation.y,aimooe_coord_orientation.z,aimooe_coord_mean_error
2026-02-03 21:29:15.256018,1770125355,237921695,1,220358,0,1770125355,241215587,2,228884,0,1770125355,244560488,3,225500,0,1770125355,247922339,4,235020,0,1770125355,251232960,5,218183,-32,1770125355,254586381,6,227736,0,-0.00012936578423250467,2.8857359886169434,45.00006866455078,0.032131094485521317,0.05166323110461235,-0.045089658349752426,39.63999938964844,46.53850173950195,48.38750076293945,56.96950149536133,43.755001068115234,57.314998626708984,1770125355,183752666,X6-tool2,0.14795805042367563,1.7235715361967834,45.845042831368005,0.02166611599342353,-0.025224856898387226,-0.08008323400165433,0.03468481823801994
2026-02-03 21:29:15.292172,1770125355,277914950,1,220358,0,1770125355,281254761,2,228884,0,1770125355,284585562,3,225500,0,1770125355,287927864,4,235020,0,1770125355,291251565,5,218084,-2,1770125355,274586479,6,227741,0,-0.0006345663568936288,2.886011838912964,45.000308990478516,0.010779835283756256,0.016099505126476288,-0.012569851242005825,39.63999938964844,46.53850173950195,48.38750076293945,56.96950149536133,43.69200134277344,57.317501068115234,1770125355,283357542,X6-tool2,0.06772072617305172,1.6068740811916946,45.722240903720454,0.023427497140786038,-0.026776325131840188,-0.07980351264531596,0.041339874267578125
2026-02-03 21:29:15.327713,1770125355,317916944,1,220358,0,1770125355,321256575,2,228884,0,1770125355,324584186,3,225500,0,1770125355,307927901,4,235020,0,1770125355,311252772,5,218079,0,1770125355,314585703,6,227741,0,-0.0006345663568936288,2.886011838912964,45.000308990478516,0.00439405906945467,0.00513965031132102,-0.002748324768617749,39.63999938964844,46.53850173950195,48.38750076293945,56.96950149536133,43.66999816894531,57.317501068115234,1770125355,283357542,X6-tool2,0.06772072617305172,1.6068740811916946,45.722240903720454,0.023427497140786038,-0.026776325131840188,-0.07980351264531596,0.041339874267578125
2026-02-03 21:29:15.364183,1770125355,357916398,1,220358,0,1770125355,361257430,2,228884,0,1770125355,344582204,3,225500,0,1770125355,347931765,4,235020,0,1770125355,351251816,5,218079,19,1770125355,354584697,6,227741,0,-0.0006345663568936288,2.886011838912964,45.000308990478516,0.00439405906945467,0.00513965031132102,-0.002748324768617749,39.63999938964844,46.53850173950195,48.38750076293945,56.96950149536133,43.66999816894531,57.317501068115234,1770125355,283357542,X6-tool2,0.06772072617305172,1.6068740811916946,45.722240903720454,0.023427497140786038,-0.026776325131840188,-0.07980351264531596,0.041339874267578125
2026-02-03 21:29:15.399689,1770125355,397916383,1,220358,0,1770125355,381257417,2,228878,0,1770125355,384582658,3,225500,0,1770125355,387944099,4,235020,0,1770125355,391252340,5,218073,0,1770125355,394586682,6,227741,0,-0.0006345663568936288,2.886011838912964,45.000308990478516,0.00439405906945467,0.00513965031132102,-0.002748324768617749,39.63999938964844,46.53850173950195,48.38750076293945,56.96950149536133,43.66699981689453,57.317501068115234,1770125355,382742387,X6-tool2,0.1387946102973159,1.645694975516761,45.77879417873012,0.022917308622412303,-0.02688341708026188,-0.07982698564363715,0.04372628405690193
2026-02-03 21:29:15.435172,1770125355,417915350,1,220358,0,1770125355,421255631,2,228878,0,1770125355,424583632,3,225500,0,1770125355,427947574,4,235020,0,1770125355,431255485,5,218068,-17,1770125355,434597776,6,227741,0,-0.0006117612938396633,2.8868627548217773,44.99985122680664,0.00439405906945467,0.00513965031132102,-0.002748324768617749,39.63999938964844,46.535499572753906,48.38750076293945,56.96950149536133,43.66699981689453,57.317501068115234,1770125355,382742387,X6-tool2,0.1387946102973159,1.645694975516761,45.77879417873012,0.022917308622412303,-0.02688341708026188,-0.07982698564363715,0.04372628405690193
2026-02-03 21:29:15.470607,1770125355,457899304,1,220358,0,1770125355,461214295,2,228878,0,1770125355,464563877,3,225500,0,1770125355,467904798,4,235020,0,1770125355,451232962,5,218073,0,1770125355,454621723,6,227741,0,-0.0006117612938396633,2.8868627548217773,44.99985122680664,0.00439405906945467,0.00513965031132102,-0.002748324768617749,39.63999938964844,46.535499572753906,48.38750076293945,56.96950149536133,43.66699981689453,57.317501068115234,1770125355,382742387,X6-tool2,0.1387946102973159,1.645694975516761,45.77879417873012,0.022917308622412303,-0.02688341708026188,-0.07982698564363715,0.04372628405690193
2026-02-03 21:29:15.506661,1770125355,497895439,1,220358,0,1770125355,501207960,2,228878,0,1770125355,504561131,3,225500,0,1770125355,487924425,4,235020,0,1770125355,491229526,5,218068,-3,1770125355,494566197,6,227741,0,-0.0006117612938396633,2.8868627548217773,44.99985122680664,0.00439405906945467,0.00513965031132102,-0.002748324768617749,39.63999938964844,46.535499572753906,48.38750076293945,56.96950149536133,43.66450119018555,57.317501068115234,1770125355,482338693,X6-tool2,0.14088788140609348,1.6424719266008891,45.773559968385044,0.02227539849844538,-0.02698394780805578,-0.07985162983337776,0.04552777484059334
2026-02-03 21:29:15.541906,1770125355,537916363,1,220358,-5,1770125355,541227854,2,228878,0,1770125355,524615058,3,225500,0,1770125355,527907619,4,235020,0,1770125355,531252711,5,218073,23,1770125355,534570952,6,227741,0,-0.0006117612938396633,2.8868627548217773,44.99985122680664,0.00439405906945467,0.00513965031132102,-0.002748324768617749,39.63999938964844,46.535499572753906,48.38750076293945,56.96950149536133,43.66699981689453,57.317501068115234,1770125355,482338693,X6-tool2,0.14088788140609348,1.6424719266008891,45.773559968385044,0.02227539849844538,-0.02698394780805578,-0.07985162983337776,0.04552777484059334
2026-02-03 21:29:15.577748,1770125355,557945630,1,220358,0,1770125355,561222991,2,228878,0,1770125355,564614182,3,225500,0,1770125355,567921264,4,235020,0,1770125355,571282535,5,218068,-18,1770125355,574630846,6,227741,0,-0.0006117612938396633,2.8868627548217773,44.99985122680664,0.00439405906945467,0.00513965031132102,-0.002748324768617749,39.63999938964844,46.535499572753906,48.38750076293945,56.96950149536133,43.66450119018555,57.317501068115234,1770125355,482338693,X6-tool2,0.14088788140609348,1.6424719266008891,45.773559968385044,0.02227539849844538,-0.02698394780805578,-0.07985162983337776,0.04552777484059334
2026-02-03 21:29:15.613672,1770125355,597945934,1,220358,0,1770125355,601227045,2,228878,0,1770125355,604613997,3,225500,0,1770125355,607918858,4,235020,0,1770125355,611359789,5,218068,9,1770125355,594583713,6,227741,0,-0.0006117612938396633,2.8868627548217773,44.99985122680664,0.00439405906945467,0.00513965031132102,-0.002748324768617749,39.63999938964844,46.535499572753906,48.38750076293945,56.96950149536133,43.66699981689453,57.317501068115234,1770125355,581583129,X6-tool2,0.08633494986275919,1.6191714364421093,45.727081617615816,0.023158346557263572,-0.027400811315977117,-0.07974727571045952,0.03941790387034416
2026-02-03 21:29:15.649199,1770125355,637962779,1,220358,0,1770125355,641265700,2,228878,4,1770125355,644631521,3,225500,0,1770125355,647962672,4,235020,0,1770125355,631286806,5,218062,-11,1770125355,634631477,6,227741,0,-0.0006117612938396633,2.8868627548217773,44.99985122680664,-0.00029992524650879204,-0.0006023230962455273,0.0020002215169370174,39.63999938964844,46.535499572753906,48.38750076293945,56.96950149536133,43.6614990234375,57.317501068115234,1770125355,581583129,X6-tool2,0.08633494986275919,1.6191714364421093,45.727081617615816,0.023158346557263572,-0.027400811315977117,-0.07974727571045952,0.03941790387034416
2026-02-03 21:29:15.684491,1770125355,678039363,1,220358,0,1770125355,681226854,2,228878,0,1770125355,664583868,3,225500,0,1770125355,668005799,4,235020,0,1770125355,671286870,5,218068,12,1770125355,674583592,6,227741,0,-0.0006117612938396633,2.8868627548217773,44.99985122680664,-0.00029992524650879204,-0.0006023230962455273,0.0020002215169370174,39.63999938964844,46.535499572753906,48.38750076293945,56.96950149536133,43.66450119018555,57.317501068115234,1770125355,681162994,X6-tool2,0.15497264937484592,1.6439107680298828,45.76695298571544,0.02304526991120894,-0.02717880924902208,-0.07995228017463703,0.03760210797190666
2026-02-03 21:29:15.720156,1770125355,717940597,1,220358,0,1770125355,701230371,2,228878,0,1770125355,704589033,3,225500,0,1770125355,707949564,4,235020,0,1770125355,711285795,5,218062,-5,1770125355,714567586,6,227741,0,-0.0006117612938396633,2.8868627548217773,44.99985122680664,-0.00029992524650879204,-0.0006023230962455273,0.0020002215169370174,39.63999938964844,46.535499572753906,48.38750076293945,56.96950149536133,43.66450119018555,57.317501068115234,1770125355,681162994,X6-tool2,0.15497264937484592,1.6439107680298828,45.76695298571544,0.02304526991120894,-0.02717880924902208,-0.07995228017463703,0.03760210797190666
2026-02-03 21:29:15.756359,1770125355,737894784,1,220358,0,1770125355,741230695,2,228878,0,1770125355,744586647,3,225500,0,1770125355,747902148,4,235020,0,1770125355,751228529,5,218068,-5,1770125355,754586510,6,227741,0,-0.0006117612938396633,2.8868627548217773,44.99985122680664,-0.00029992524650879204,-0.0006023230962455273,0.0020002215169370174,39.63999938964844,46.535499572753906,48.38750076293945,56.96950149536133,43.6614990234375,57.317501068115234,1770125355,681162994,X6-tool2,0.15497264937484592,1.6439107680298828,45.76695298571544,0.02304526991120894,-0.02717880924902208,-0.07995228017463703,0.03760210797190666
2026-02-03 21:29:15.791350,1770125355,777924589,1,220358,0,1770125355,781229120,2,228878,0,1770125355,784566071,3,225500,0,1770125355,787898862,4,235020,0,1770125355,771230696,5,218068,23,1770125355,774561258,6,227741,0,-0.0006117612938396633,2.8868627548217773,44.99985122680664,-0.00029992524650879204,-0.0006023230962455273,0.0020002215169370174,39.63999938964844,46.535499572753906,48.38750076293945,56.96950149536133,43.66450119018555,57.317501068115234,1770125355,780961060,X6-tool2,0.1167027918890409,1.5990176843511372,45.734871241283685,0.02321373334134054,-0.027515053408800134,-0.07968955045050996,0.0402069091796875
2026-02-03 21:29:15.827093,1770125355,817893733,1,220358,0,1770125355,821280984,2,228878,0,1770125355,824563235,3,225500,0,1770125355,807896359,4,235020,0,1770125355,811230520,5,218062,-6,1770125355,814559802,6,227741,0,-0.0006117612938396633,2.8868627548217773,44.99985122680664,-0.00029992524650879204,-0.0006023230962455273,0.0020002215169370174,39.63999938964844,46.535499572753906,48.38750076293945,56.96950149536133,43.6614990234375,57.317501068115234,1770125355,780961060,X6-tool2,0.1167027918890409,1.5990176843511372,45.734871241283685,0.02321373334134054,-0.027515053408800134,-0.07968955045050996,0.0402069091796875
2026-02-03 21:29:15.862875,1770125355,857895837,1,220358,0,1770125355,861230709,2,228878,0,1770125355,844563763,3,225500,0,1770125355,847919764,4,235020,0,1770125355,851227175,5,218068,1,1770125355,854565166,6,227736,0,-0.00010657414532033727,2.886587142944336,44.999610900878906,-0.00029992524650879204,-0.0006023230962455273,0.0020002215169370174,39.63999938964844,46.535499572753906,48.38750076293945,56.96950149536133,43.66450119018555,57.314998626708984,1770125355,780961060,X6-tool2,0.1167027918890409,1.5990176843511372,45.734871241283685,0.02321373334134054,-0.027515053408800134,-0.07968955045050996,0.0402069091796875
2026-02-03 21:29:15.897874,1770125355,877894495,1,220358,0,1770125355,881227116,2,228878,0,1770125355,884562397,3,225500,0,1770125355,887899408,4,235020,0,1770125355,891227099,5,218068,20,1770125355,894560550,6,227736,0,-0.00010657414532033727,2.886587142944336,44.999610900878906,-0.00029992524650879204,-0.0006023230962455273,0.0020002215169370174,39.63999938964844,46.535499572753906,48.38750076293945,56.96950149536133,43.66450119018555,57.314998626708984,1770125355,881215806,X6-tool2,0.06880015310601748,1.6011713161887198,45.692966623524924,0.023930872371841234,-0.027677025631701355,-0.07980605844069658,0.03773021697998047
2026-02-03 21:29:15.933980,1770125355,917907449,1,220358,0,1770125355,921250330,2,228878,0,1770125355,924543801,3,225500,0,1770125355,927939062,4,235020,0,1770125355,931231294,5,218062,-26,1770125355,914617888,6,227736,0,-0.00010657414532033727,2.886587142944336,44.999610900878906,-0.00029992524650879204,-0.0006023230962455273,0.0020002215169370174,39.63999938964844,46.535499572753906,48.38750076293945,56.96950149536133,43.6614990234375,57.314998626708984,1770125355,881215806,X6-tool2,0.06880015310601748,1.6011713161887198,45.692966623524924,0.023930872371841234,-0.027677025631701355,-0.07980605844069658,0.03773021697998047
2026-02-03 21:29:15.969674,1770125355,957904443,1,220358,0,1770125355,961235084,2,228878,0,1770125355,964563966,3,225500,0,1770125355,967915557,4,235020,0,1770125355,951231221,5,218068,0,1770125355,954571982,6,227736,0,-0.00010657414532033727,2.886587142944336,44.999610900878906,-0.00029992524650879204,-0.0006023230962455273,0.0020002215169370174,39.63999938964844,46.535499572753906,48.38750076293945,56.96950149536133,43.66450119018555,57.314998626708984,1770125355,881215806,X6-tool2,0.06880015310601748,1.6011713161887198,45.692966623524924,0.023930872371841234,-0.027677025631701355,-0.07980605844069658,0.03773021697998047
2026-02-03 21:29:16.005043,1770125355,997879097,1,220358,0,1770125356,1225488,2,228878,0,1770125356,4541440,3,225500,0,1770125355,987893224,4,235020,0,1770125355,991211365,5,218068,25,1770125355,994556176,6,227736,0,-0.00010657414532033727,2.886587142944336,44.999610900878906,-0.00029992524650879204,-0.0006023230962455273,0.0020002215169370174,39.63999938964844,46.535499572753906,48.38750076293945,56.96950149536133,43.66450119018555,57.314998626708984,1770125355,981309472,X6-tool2,0.039497769172783095,1.5936174065334319,45.68007907247266,0.023252704318835807,-0.027728323154018422,-0.07967034608216077,0.03976154327392578
2026-02-03 21:29:16.040155,1770125356,37896462,1,220358,0,1770125356,21233376,2,228878,0,1770125356,24567157,3,225500,0,1770125356,27895448,4,235020,0,1770125356,31235979,5,218062,-27,1770125356,34526740,6,227736,0,-0.00010657414532033727,2.886587142944336,44.999610900878906,-0.00029992524650879204,-0.0006023230962455273,0.0020002215169370174,39.63999938964844,46.535499572753906,48.38750076293945,56.96950149536133,43.6614990234375,57.314998626708984,1770125355,981309472,X6-tool2,0.039497769172783095,1.5936174065334319,45.68007907247266,0.023252704318835807,-0.027728323154018422,-0.07967034608216077,0.03976154327392578
2026-02-03 21:29:16.075364,1770125356,57876179,1,220358,0,1770125356,61229290,2,228878,0,1770125356,64541441,3,225500,0,1770125356,67900042,4,235020,0,1770125356,71211353,5,218068,6,1770125356,74561255,6,227736,0,-0.00010657414532033727,2.886587142944336,44.999610900878906,-0.00029992524650879204,-0.0006023230962455273,0.0020002215169370174,39.63999938964844,46.535499572753906,48.38750076293945,56.96950149536133,43.66450119018555,57.314998626708984,1770125355,981309472,X6-tool2,0.039497769172783095,1.5936174065334319,45.68007907247266,0.023252704318835807,-0.027728323154018422,-0.07967034608216077,0.03976154327392578
2026-02-03 21:29:16.110453,1770125356,97896653,1,220358,0,1770125356,101231374,2,228878,0,1770125356,104562805,3,225500,0,1770125356,107899997,4,235020,0,1770125356,91213541,5,218068,30,1770125356,94573122,6,227736,0,-0.00010657414532033727,2.886587142944336,44.999610900878906,-0.00029992524650879204,-0.0006023230962455273,0.0020002215169370174,39.63999938964844,46.535499572753906,48.38750076293945,56.96950149536133,43.66450119018555,57.314998626708984,1770125356,81199387,X6-tool2,0.10093124339263881,1.6003346533790777,45.76095051202093,0.02364487831041946,-0.026910377672857203,-0.07981107211252293,0.039745647460222244
2026-02-03 21:29:16.146222,1770125356,137900028,1,220358,0,1770125356,141231019,2,228878,0,1770125356,144560500,3,225500,0,1770125356,127899514,4,235020,0,1770125356,131229125,5,218062,-14,1770125356,134562756,6,227736,0,-0.00010657414532033727,2.886587142944336,44.999610900878906,-0.00029992524650879204,-0.0006023230962455273,0.0020002215169370174,39.63999938964844,46.535499572753906,48.38750076293945,56.96950149536133,43.6614990234375,57.314998626708984,1770125356,81199387,X6-tool2,0.10093124339263881,1.6003346533790777,45.76095051202093,0.02364487831041946,-0.026910377672857203,-0.07981107211252293,0.039745647460222244
2026-02-03 21:29:16.181290,1770125356,177984042,1,220358,0,1770125356,161228446,2,228878,0,1770125356,164560727,3,225500,0,1770125356,167901268,4,235020,0,1770125356,171228949,5,218068,0,1770125356,174563610,6,227736,0,-0.00010657414532033727,2.886587142944336,44.999610900878906,-0.00029992524650879204,-0.0006023230962455273,0.0020002215169370174,39.63999938964844,46.535499572753906,48.38750076293945,56.96950149536133,43.6614990234375,57.314998626708984,1770125356,81199387,X6-tool2,0.10093124339263881,1.6003346533790777,45.76095051202093,0.02364487831041946,-0.026910377672857203,-0.07981107211252293,0.039745647460222244
2026-02-03 21:29:16.217738,1770125356,197902489,1,220358,0,1770125356,201227940,2,228878,0,1770125356,204565601,3,225500,0,1770125356,207913062,4,235020,0,1770125356,211231044,5,218062,10,1770125356,214575915,6,227736,0,-0.00010657414532033727,2.886587142944336,44.999610900878906,-0.00029992524650879204,-0.0006023230962455273,0.0020002215169370174,39.63999938964844,46.535499572753906,48.38750076293945,56.96950149536133,43.66450119018555,57.314998626708984,1770125356,181242013,X6-tool2,0.07210904306121538,1.677036389777126,45.70843834731987,0.023368928564909124,-0.027892297305361233,-0.07977839105520888,0.03928565979003906
2026-02-03 21:29:16.253507,1770125356,237894303,1,220358,0,1770125356,241240624,2,228878,0,1770125356,244602506,3,225500,0,1770125356,248046837,4,235020,0,1770125356,251264648,5,218062,-27,1770125356,234578792,6,227736,0,-0.00010657414532033727,2.886587142944336,44.999610900878906,-0.00029992524650879204,-0.0006023230962455273,0.0020002215169370174,39.63999938964844,46.535499572753906,48.38750076293945,56.96950149536133,43.6614990234375,57.314998626708984,1770125356,181242013,X6-tool2,0.07210904306121538,1.677036389777126,45.70843834731987,0.023368928564909124,-0.027892297305361233,-0.07977839105520888,0.03928565979003906
2026-02-03 21:29:16.288794,1770125356,277884898,1,220358,0,1770125356,281214519,2,228878,0,1770125356,284578310,3,225500,0,1770125356,287901461,4,235020,0,1770125356,271243975,5,218068,0,1770125356,274547746,6,227736,0,-0.00010657414532033727,2.886587142944336,44.999610900878906,-0.00029992524650879204,-0.0006023230962455273,0.0020002215169370174,39.63999938964844,46.535499572753906,48.38750076293945,56.96950149536133,43.66450119018555,57.314998626708984,1770125356,281103379,X6-tool2,0.11820182248151308,1.6309464488480876,45.77227586127226,0.023456144040480666,-0.02645601158970772,-0.07972630632225455,0.04026635363698006
2026-02-03 21:29:16.323971,1770125356,317901322,1,220358,0,1770125356,321214133,2,228878,0,1770125356,304545687,3,225500,0,1770125356,307915648,4,235020,0,1770125356,311210659,5,218062,0,1770125356,314562681,6,227736,0,-0.00010657414532033727,2.886587142944336,44.999610900878906,-0.00029992524650879204,-0.0006023230962455273,0.0020002215169370174,39.63999938964844,46.535499572753906,48.38750076293945,56.96950149536133,43.6614990234375,57.314998626708984,1770125356,281103379,X6-tool2,0.11820182248151308,1.6309464488480876,45.77227586127226,0.023456144040480666,-0.02645601158970772,-0.07972630632225455,0.04026635363698006
2026-02-03 21:29:16.359472,1770125356,357928056,1,220358,0,1770125356,341234350,2,228878,0,1770125356,344563891,3,225500,0,1770125356,347900923,4,235020,0,1770125356,351231554,5,218062,-28,1770125356,354547775,6,227736,0,-0.00010657414532033727,2.886587142944336,44.999610900878906,-0.00029992524650879204,-0.0006023230962455273,0.0020002215169370174,39.63999938964844,46.535499572753906,48.38750076293945,56.96950149536133,43.6614990234375,57.314998626708984,1770125356,281103379,X6-tool2,0.11820182248151308,1.6309464488480876,45.77227586127226,0.023456144040480666,-0.02645601158970772,-0.07972630632225455,0.04026635363698006
2026-02-03 21:29:16.394748,1770125356,377890143,1,220358,0,1770125356,381233924,2,228878,0,1770125356,384545086,3,225500,0,1770125356,387880637,4,235020,0,1770125356,391210838,5,218068,27,1770125356,374562082,6,227736,0,-0.00010657414532033727,2.886587142944336,44.999610900878906,-0.00029992524650879204,-0.0006023230962455273,0.0020002215169370174,39.63999938964844,46.535499572753906,48.38750076293945,56.96950149536133,43.66450119018555,57.314998626708984,1770125356,381098144,X6-tool2,0.09322827229992836,1.6970881868803789,45.76542186398361,0.02329112071265133,-0.026336020000372048,-0.07983001982871116,0.0419413261115551
2026-02-03 21:29:16.430337,1770125356,417899808,1,220358,0,1770125356,421233409,2,228878,0,1770125356,424603550,3,225500,0,1770125356,427875271,4,235020,0,1770125356,411229895,5,218062,6,1770125356,414541586,6,227736,0,-0.00010657414532033727,2.886587142944336,44.999610900878906,-0.00029992524650879204,-0.0006023230962455273,0.0020002215169370174,39.63999938964844,46.535499572753906,48.38750076293945,56.96950149536133,43.6614990234375,57.314998626708984,1770125356,381098144,X6-tool2,0.09322827229992836,1.6970881868803789,45.76542186398361,0.02329112071265133,-0.026336020000372048,-0.07983001982871116,0.0419413261115551
2026-02-03 21:29:16.465407,1770125356,457887962,1,220358,0,1770125356,461237113,2,228878,0,1770125356,464547454,3,225500,0,1770125356,447943658,4,235020,0,1770125356,451268020,5,218062,-35,1770125356,454581411,6,227736,0,-0.00010657414532033727,2.886587142944336,44.999610900878906,-0.00029992524650879204,-0.0006023230962455273,0.0020002215169370174,39.63999938964844,46.535499572753906,48.38750076293945,56.96950149536133,43.6614990234375,57.314998626708984,1770125356,381098144,X6-tool2,0.09322827229992836,1.6970881868803789,45.76542186398361,0.02329112071265133,-0.026336020000372048,-0.07983001982871116,0.0419413261115551
2026-02-03 21:29:16.500465,1770125356,497902566,1,220358,0,1770125356,481237240,2,228878,0,1770125356,484544171,3,225500,0,1770125356,487898513,4,235020,0,1770125356,491214994,5,218068,13,1770125356,494543715,6,227736,0,-0.00010657414532033727,2.886587142944336,44.999610900878906,-0.00029992524650879204,-0.0006023230962455273,0.0020002215169370174,39.63999938964844,46.535499572753906,48.38750076293945,56.96950149536133,43.66450119018555,57.314998626708984,1770125356,481119120,X6-tool2,0.10160357941470508,1.6753069951021136,45.75548155694455,0.02383839907243296,-0.026479606434138485,-0.07981325454615583,0.03704261779785156
2026-02-03 21:29:16.535878,1770125356,517957433,1,220358,0,1770125356,521231574,2,228878,0,1770125356,524568876,3,225500,0,1770125356,527913107,4,235020,0,1770125356,531240238,5,218062,0,1770125356,534564739,6,227736,0,-0.00010657414532033727,2.886587142944336,44.999610900878906,-0.00029992524650879204,-0.0006023230962455273,0.0020002215169370174,39.63999938964844,46.535499572753906,48.38750076293945,56.96950149536133,43.6614990234375,57.314998626708984,1770125356,481119120,X6-tool2,0.10160357941470508,1.6753069951021136,45.75548155694455,0.02383839907243296,-0.026479606434138485,-0.07981325454615583,0.03704261779785156
2026-02-03 21:29:16.571132,1770125356,557898088,1,220358,0,1770125356,561214889,2,228878,0,1770125356,564562590,3,225500,0,1770125356,567912141,4,235020,0,1770125356,551233445,5,218062,-17,1770125356,554563617,6,227736,0,-0.00010657414532033727,2.886587142944336,44.999610900878906,-0.00029992524650879204,-0.0006023230962455273,0.0020002215169370174,39.63999938964844,46.535499572753906,48.38750076293945,56.96950149536133,43.6614990234375,57.314998626708984,1770125356,481119120,X6-tool2,0.10160357941470508,1.6753069951021136,45.75548155694455,0.02383839907243296,-0.026479606434138485,-0.07981325454615583,0.03704261779785156
2026-02-03 21:29:16.606482,1770125356,597895902,1,220358,0,1770125356,601210053,2,228878,0,1770125356,604563894,3,225500,0,1770125356,587899548,4,235020,0,1770125356,591230410,5,218068,5,1770125356,594544191,6,227736,0,-0.00010657414532033727,2.886587142944336,44.999610900878906,-0.00029992524650879204,-0.0006023230962455273,0.0020002215169370174,39.63999938964844,46.535499572753906,48.38750076293945,56.96950149536133,43.66450119018555,57.314998626708984,1770125356,581183476,X6-tool2,0.14174986348937801,1.5812352899239073,45.78743750659165,0.023108708593018244,-0.026647901655235277,-0.07971878127404716,0.04164377972483635
2026-02-03 21:29:16.641812,1770125356,637893016,1,220358,0,1770125356,641235148,2,228878,0,1770125356,624561762,3,225500,0,1770125356,627899983,4,235020,0,1770125356,631227624,5,218062,1,1770125356,634562515,6,227736,0,-0.00010657414532033727,2.886587142944336,44.999610900878906,-0.00029992524650879204,-0.0006023230962455273,0.0020002215169370174,39.63999938964844,46.535499572753906,48.38750076293945,56.96950149536133,43.66450119018555,57.314998626708984,1770125356,581183476,X6-tool2,0.14174986348937801,1.5812352899239073,45.78743750659165,0.023108708593018244,-0.026647901655235277,-0.07971878127404716,0.04164377972483635
2026-02-03 21:29:16.677161,1770125356,657903623,1,220358,0,1770125356,661224444,2,228878,0,1770125356,664567816,3,225500,0,1770125356,667891047,4,235020,0,1770125356,671212948,5,218062,-20,1770125356,674576659,6,227736,0,-0.00010657414532033727,2.886587142944336,44.999610900878906,-0.00029992524650879204,-0.0006023230962455273,0.0020002215169370174,39.63999938964844,46.535499572753906,48.38750076293945,56.96950149536133,43.6614990234375,57.314998626708984,1770125356,581183476,X6-tool2,0.14174986348937801,1.5812352899239073,45.78743750659165,0.023108708593018244,-0.026647901655235277,-0.07971878127404716,0.04164377972483635
2026-02-03 21:29:16.712613,1770125356,697909868,1,220358,0,1770125356,701232209,2,228878,0,1770125356,704576650,3,225500,0,1770125356,707906131,4,235020,0,1770125356,711234073,5,218062,25,1770125356,694679987,6,227736,-3,-0.00010657414532033727,2.886587142944336,44.999610900878906,-0.00029992524650879204,-0.0006023230962455273,0.0020002215169370174,39.63999938964844,46.535499572753906,48.38750076293945,56.96950149536133,43.66450119018555,57.314998626708984,1770125356,681145612,X6-tool2,0.20107635275708707,1.6321198551376426,45.865538193815375,0.0227645193767787,-0.025819211802193473,-0.07989005923338073,0.03939755633473396
2026-02-03 21:29:16.747699,1770125356,737900722,1,220358,0,1770125356,741214823,2,228878,0,1770125356,744571044,3,225500,0,1770125356,727902028,4,235020,0,1770125356,731232330,5,218062,-9,1770125356,734564531,6,227736,0,-0.00010657414532033727,2.886587142944336,44.999610900878906,-0.00029992524650879204,-0.0006023230962455273,0.0020002215169370174,39.63999938964844,46.535499572753906,48.38750076293945,56.96950149536133,43.6614990234375,57.314998626708984,1770125356,681145612,X6-tool2,0.20107635275708707,1.6321198551376426,45.865538193815375,0.0227645193767787,-0.025819211802193473,-0.07989005923338073,0.03939755633473396
2026-02-03 21:29:16.783376,1770125356,777876006,1,220358,0,1770125356,781217158,2,228878,0,1770125356,764546572,3,225500,0,1770125356,767894643,4,235020,0,1770125356,771228744,5,218062,0,1770125356,774566225,6,227736,0,-0.00010657414532033727,2.886587142944336,44.999610900878906,-0.00029992524650879204,-0.0006023230962455273,0.0020002215169370174,39.63999938964844,46.535499572753906,48.38750076293945,56.96950149536133,43.6614990234375,57.314998626708984,1770125356,781169167,X6-tool2,0.041689353919201165,1.6347339382223316,45.66569398711089,0.02296580583242435,-0.027666952954004346,-0.07991423114775824,0.038321495056152344
2026-02-03 21:29:16.818456,1770125356,817874711,1,220358,0,1770125356,801209205,2,228878,0,1770125356,804544976,3,225500,0,1770125356,807895987,4,235020,0,1770125356,811255038,5,218062,24,1770125356,814539849,6,227736,0,-0.00010657414532033727,2.886587142944336,44.999610900878906,-0.00029992524650879204,-0.0006023230962455273,0.0020002215169370174,39.63999938964844,46.535499572753906,48.38750076293945,56.96950149536133,43.66450119018555,57.314998626708984,1770125356,781169167,X6-tool2,0.041689353919201165,1.6347339382223316,45.66569398711089,0.02296580583242435,-0.027666952954004346,-0.07991423114775824,0.038321495056152344
2026-02-03 21:29:16.853683,1770125356,837895598,1,220358,0,1770125356,841210569,2,228878,0,1770125356,844565250,3,225500,0,1770125356,847878461,4,235020,0,1770125356,851208783,5,218062,-20,1770125356,834544206,6,227736,0,-0.00010657414532033727,2.886587142944336,44.999610900878906,-0.00029992524650879204,-0.0006023230962455273,0.0020002215169370174,39.63999938964844,46.535499572753906,48.38750076293945,56.96950149536133,43.6614990234375,57.314998626708984,1770125356,781169167,X6-tool2,0.041689353919201165,1.6347339382223316,45.66569398711089,0.02296580583242435,-0.027666952954004346,-0.07991423114775824,0.038321495056152344
2026-02-03 21:29:16.889111,1770125356,877880422,1,220358,0,1770125356,881232453,2,228878,0,1770125356,884545824,3,225500,0,1770125356,887879296,4,235020,0,1770125356,871227650,5,218062,-13,1770125356,874561141,6,227736,0,-0.00010657414532033727,2.886587142944336,44.999610900878906,-0.00029992524650879204,-0.0006023230962455273,0.0020002215169370174,39.63999938964844,46.535499572753906,48.38750076293945,56.96950149536133,43.6614990234375,57.314998626708984,1770125356,881111423,X6-tool2,0.1444000742599602,1.6529612673905478,45.80145622920285,0.023527761634199746,-0.02619055869882086,-0.07988276289620032,0.04110654070973396
2026-02-03 21:29:16.924239,1770125356,917894656,1,220358,0,1770125356,921232217,2,228878,0,1770125356,904562012,3,225500,0,1770125356,907880753,4,235020,0,1770125356,911230594,5,218062,22,1770125356,914564265,6,227736,0,-0.00010657414532033727,2.886587142944336,44.999610900878906,-0.00029992524650879204,-0.0006023230962455273,0.0020002215169370174,39.63999938964844,46.535499572753906,48.38750076293945,56.96950149536133,43.6614990234375,57.314998626708984,1770125356,881111423,X6-tool2,0.1444000742599602,1.6529612673905478,45.80145622920285,0.023527761634199746,-0.02619055869882086,-0.07988276289620032,0.04110654070973396
2026-02-03 21:29:16.959859,1770125356,957898621,1,220358,0,1770125356,941241125,2,228878,0,1770125356,944563416,3,225500,0,1770125356,947944757,4,235020,0,1770125356,951233418,5,218062,-26,1770125356,954561249,6,227736,0,-0.00010657414532033727,2.886587142944336,44.999610900878906,-0.00029992524650879204,-0.0006023230962455273,0.0020002215169370174,39.63999938964844,46.535499572753906,48.38750076293945,56.96950149536133,43.6614990234375,57.314998626708984,1770125356,881111423,X6-tool2,0.1444000742599602,1.6529612673905478,45.80145622920285,0.023527761634199746,-0.02619055869882086,-0.07988276289620032,0.04110654070973396
2026-02-03 21:29:16.995101,1770125356,977901318,1,220358,0,1770125356,981327549,2,228878,0,1770125356,984561930,3,225500,0,1770125356,987899021,4,235020,0,1770125356,991226042,5,218068,21,1770125356,994545744,6,227736,0,-0.00010657414532033727,2.886587142944336,44.999610900878906,-0.00029992524650879204,-0.0006023230962455273,0.0020002215169370174,39.63999938964844,46.535499572753906,48.38750076293945,56.96950149536133,43.66450119018555,57.314998626708984,1770125356,980885649,X6-tool2,0.16643086749120106,1.6771566507419937,45.821917738250015,0.0233363480116265,-0.026216078007487494,-0.07986067196332915,0.04066785052418709
2026-02-03 21:29:17.030251,1770125357,17894082,1,220358,0,1770125357,21233343,2,228878,0,1770125357,24561465,3,225500,0,1770125357,27898966,4,235020,0,1770125357,11233660,5,218062,15,1770125357,14566781,6,227736,0,-0.00010657414532033727,2.886587142944336,44.999610900878906,-0.00029992524650879204,-0.0006023230962455273,0.0020002215169370174,39.63999938964844,46.535499572753906,48.38750076293945,56.96950149536133,43.6614990234375,57.314998626708984,1770125356,980885649,X6-tool2,0.16643086749120106,1.6771566507419937,45.821917738250015,0.0233363480116265,-0.026216078007487494,-0.07986067196332915,0.04066785052418709
2026-02-03 21:29:17.065428,1770125357,57897566,1,220358,0,1770125357,61199118,2,228878,0,1770125357,64563749,3,225500,0,1770125357,47899213,4,235020,0,1770125357,51229224,5,218062,-35,1770125357,54564365,6,227736,0,-0.00010657414532033727,2.886587142944336,44.999610900878906,-0.00029992524650879204,-0.0006023230962455273,0.0020002215169370174,39.63999938964844,46.535499572753906,48.38750076293945,56.96950149536133,43.6614990234375,57.314998626708984,1770125356,980885649,X6-tool2,0.16643086749120106,1.6771566507419937,45.821917738250015,0.0233363480116265,-0.026216078007487494,-0.07986067196332915,0.04066785052418709
2026-02-03 21:29:17.100743,1770125357,97890231,1,220358,0,1770125357,81213455,2,228878,0,1770125357,84626516,3,225500,0,1770125357,87877817,4,235020,0,1770125357,91236218,5,218062,30,1770125357,94545290,6,227736,0,-0.00010657414532033727,2.886587142944336,44.999610900878906,-0.00029992524650879204,-0.0006023230962455273,0.0020002215169370174,39.63999938964844,46.535499572753906,48.38750076293945,56.96950149536133,43.66450119018555,57.314998626708984,1770125357,81158015,X6-tool2,0.11061013275970134,1.5985075246840674,45.7793757476759,0.022781280511487353,-0.026350210801536465,-0.07985340490494575,0.03812599182128906
2026-02-03 21:29:17.136934,1770125357,117875698,1,220358,0,1770125357,121211149,2,228878,0,1770125357,124604290,3,225500,0,1770125357,127904991,4,235020,0,1770125357,131242333,5,218062,-9,1770125357,134566144,6,227736,0,-0.00010657414532033727,2.886587142944336,44.999610900878906,-0.00029992524650879204,-0.0006023230962455273,0.0020002215169370174,39.63999938964844,46.535499572753906,48.38750076293945,56.96950149536133,43.6614990234375,57.314998626708984,1770125357,81158015,X6-tool2,0.11061013275970134,1.5985075246840674,45.7793757476759,0.022781280511487353,-0.026350210801536465,-0.07985340490494575,0.03812599182128906
2026-02-03 21:29:17.172262,1770125357,157905742,1,220358,0,1770125357,161241823,2,228878,0,1770125357,164572964,3,225500,0,1770125357,167898866,4,235020,0,1770125357,171235727,5,218068,13,1770125357,154569421,6,227736,0,-0.00010657414532033727,2.886587142944336,44.999610900878906,-0.00029992524650879204,-0.0006023230962455273,0.0020002215169370174,39.63999938964844,46.535499572753906,48.38750076293945,56.96950149536133,43.6614990234375,57.314998626708984,1770125357,81158015,X6-tool2,0.11061013275970134,1.5985075246840674,45.7793757476759,0.022781280511487353,-0.026350210801536465,-0.07985340490494575,0.03812599182128906
2026-02-03 21:29:17.207580,1770125357,197899696,1,220358,0,1770125357,201229528,2,228878,0,1770125357,204569319,3,225500,0,1770125357,187886033,4,235020,0,1770125357,191231444,5,218062,18,1770125357,194546655,6,227736,0,-0.00010657414532033727,2.886587142944336,44.999610900878906,-0.00029992524650879204,-0.0006023230962455273,0.0020002215169370174,39.63999938964844,46.535499572753906,48.38750076293945,56.96950149536133,43.6614990234375,57.314998626708984,1770125357,181212441,X6-tool2,0.07642742284841894,1.653416582898633,45.72130598782687,0.023153710149883763,-0.026907766472254152,-0.07983573949404618,0.04048633575439453
2026-02-03 21:29:17.243340,1770125357,237881191,1,220358,0,1770125357,241287232,2,228878,0,1770125357,224569636,3,225500,0,1770125357,227908617,4,235020,0,1770125357,231242108,5,218062,-27,1770125357,234565840,6,227736,0,-0.00010657414532033727,2.886587142944336,44.999610900878906,-0.00029992524650879204,-0.0006023230962455273,0.0020002215169370174,39.63999938964844,46.535499572753906,48.38750076293945,56.96950149536133,43.6614990234375,57.314998626708984,1770125357,181212441,X6-tool2,0.07642742284841894,1.653416582898633,45.72130598782687,0.023153710149883763,-0.026907766472254152,-0.07983573949404618,0.04048633575439453
2026-02-03 21:29:17.278709,1770125357,277907885,1,220358,0,1770125357,261254499,2,228878,0,1770125357,264550880,3,225500,0,1770125357,267915341,4,235020,0,1770125357,271264173,5,218068,25,1770125357,274550434,6,227736,0,-0.00010657414532033727,2.886587142944336,44.999610900878906,-0.00029992524650879204,-0.0006023230962455273,0.0020002215169370174,39.63999938964844,46.535499572753906,48.38750076293945,56.96950149536133,43.6614990234375,57.314998626708984,1770125357,181212441,X6-tool2,0.07642742284841894,1.653416582898633,45.72130598782687,0.023153710149883763,-0.026907766472254152,-0.07983573949404618,0.04048633575439453
2026-02-03 21:29:17.313937,1770125357,297910052,1,220358,0,1770125357,301261313,2,228878,0,1770125357,304580645,3,225500,0,1770125357,307927276,4,235020,0,1770125357,311234217,5,218062,-8,1770125357,294594671,6,227736,0,-0.00010657414532033727,2.886587142944336,44.999610900878906,-0.00029992524650879204,-0.0006023230962455273,0.0020002215169370174,39.63999938964844,46.535499572753906,48.38750076293945,56.96950149536133,43.6614990234375,57.314998626708984,1770125357,281055176,X6-tool2,0.051755838080282335,1.649389520165552,45.70793640123689,0.023548876712777722,-0.027486441904992942,-0.07975734326558881,0.04126739501953125
2026-02-03 21:29:17.349820,1770125357,337900477,1,220358,0,1770125357,341258768,2,228878,0,1770125357,344544999,3,225500,0,1770125357,347902650,4,235020,0,1770125357,331234724,5,218062,-29,1770125357,334590845,6,227736,0,-0.00010657414532033727,2.886587142944336,44.999610900878906,-0.00029992524650879204,-0.0006023230962455273,0.0020002215169370174,39.63999938964844,46.535499572753906,48.38750076293945,56.96950149536133,43.6614990234375,57.314998626708984,1770125357,281055176,X6-tool2,0.051755838080282335,1.649389520165552,45.70793640123689,0.023548876712777722,-0.027486441904992942,-0.07975734326558881,0.04126739501953125
2026-02-03 21:29:17.385662,1770125357,377922311,1,220358,0,1770125357,381208402,2,228878,0,1770125357,384580083,3,225500,0,1770125357,367881147,4,235020,0,1770125357,371256318,5,218062,28,1770125357,374584970,6,227736,0,-0.00010657414532033727,2.886587142944336,44.999610900878906,-0.00029992524650879204,-0.0006023230962455273,0.0020002215169370174,39.63999938964844,46.535499572753906,48.38750076293945,56.96950149536133,43.6614990234375,57.314998626708984,1770125357,381119152,X6-tool2,0.10229728434145345,1.658189561332025,45.71642368941899,0.02334630260037337,-0.026911593077823665,-0.07975696756118719,0.039920490235090256
2026-02-03 21:29:17.420972,1770125357,417885975,1,220358,0,1770125357,401576409,2,228878,0,1770125357,404575930,3,225500,0,1770125357,407897622,4,235020,0,1770125357,411238263,5,218062,-12,1770125357,414578864,6,227736,0,-0.00010657414532033727,2.886587142944336,44.999610900878906,-0.00029992524650879204,-0.0006023230962455273,0.0020002215169370174,39.63999938964844,46.535499572753906,48.38750076293945,56.96950149536133,43.6614990234375,57.314998626708984,1770125357,381119152,X6-tool2,0.10229728434145345,1.658189561332025,45.71642368941899,0.02334630260037337,-0.026911593077823665,-0.07975696756118719,0.039920490235090256
2026-02-03 21:29:17.457475,1770125357,437901972,1,220358,0,1770125357,441235854,2,228878,0,1770125357,444566825,3,225500,0,1770125357,447904116,4,235020,0,1770125357,451235687,5,218068,12,1770125357,454568218,6,227736,0,-0.00010657414532033727,2.886587142944336,44.999610900878906,-0.00029992524650879204,-0.0006023230962455273,0.0020002215169370174,39.63999938964844,46.535499572753906,48.38750076293945,56.96950149536133,43.6614990234375,57.314998626708984,1770125357,381119152,X6-tool2,0.10229728434145345,1.658189561332025,45.71642368941899,0.02334630260037337,-0.026911593077823665,-0.07975696756118719,0.039920490235090256
2026-02-03 21:29:17.493361,1770125357,477879157,1,220358,0,1770125357,481230788,2,228878,0,1770125357,484556839,3,225500,0,1770125357,487899250,4,235020,0,1770125357,491235021,5,218062,12,1770125357,474612486,6,227736,0,-0.00010657414532033727,2.886587142944336,44.999610900878906,-0.00029992524650879204,-0.0006023230962455273,0.0020002215169370174,39.63999938964844,46.535499572753906,48.38750076293945,56.96950149536133,43.6614990234375,57.314998626708984,1770125357,482256278,X6-tool2,0.22804620934732164,1.5783887637835579,45.853424100645995,0.02302751422324709,-0.026649814364963494,-0.07980512159719759,0.040951091796159744
2026-02-03 21:29:17.528785,1770125357,517878881,1,220369,3,1770125357,521257132,2,228994,28,1770125357,524545703,3,225214,-73,1770125357,527920985,4,234673,-97,1770125357,511236988,5,218062,0,1770125357,514595590,6,227708,-12,-0.01617712713778019,2.8657643795013428,44.99510955810547,-0.00029992524650879204,-0.0006023230962455273,0.0020002215169370174,39.64550018310547,46.5629997253418,48.316001892089844,56.89250183105469,43.6614990234375,57.30099868774414,1770125357,482256278,X6-tool2,0.22804620934732164,1.5783887637835579,45.853424100645995,0.02302751422324709,-0.026649814364963494,-0.07980512159719759,0.040951091796159744
2026-02-03 21:29:17.563887,1770125357,557877135,1,220380,9,1770125357,561255017,2,229224,67,1770125357,544573080,3,225066,-78,1770125357,547918122,4,234448,-114,1770125357,551213573,5,218057,0,1770125357,554584504,6,227609,-39,-0.03710935264825821,2.8412363529205322,44.98920440673828,-0.009205637499690056,-0.004724648781120777,-0.0006548164528794587,39.64550018310547,46.59349822998047,48.24449920654297,56.79600143432617,43.659000396728516,57.287498474121094,1770125357,482256278,X6-tool2,0.22804620934732164,1.5783887637835579,45.853424100645995,0.02302751422324709,-0.026649814364963494,-0.07980512159719759,0.040951091796159744
2026-02-03 21:29:17.599643,1770125357,597877739,1,220391,7,1770125357,581226984,2,229307,45,1770125357,584546285,3,224648,-113,1770125357,587922176,4,233965,-141,1770125357,591216217,5,218051,-16,1770125357,594586718,6,227483,-33,-0.08104842901229858,2.7672619819641113,44.978271484375,0.00256878393702209,-0.017732197418808937,-0.008007838390767574,39.65399932861328,46.708499908447266,48.069000244140625,56.56549835205078,43.659000396728516,57.2239990234375,1770125357,580916884,X6-tool2,0.15259343395632305,1.6617986813600025,45.7511777151559,0.02304717959985643,-0.029230457552452866,-0.07903292700366148,0.04100735858082771
2026-02-03 21:29:17.635228,1770125357,617881517,1,220408,10,1770125357,621254828,2,229559,80,1770125357,624546529,3,224061,-165,1770125357,627919600,4,233476,-114,1770125357,631236111,5,218051,0,1770125357,634588233,6,227324,-33,-0.12903961539268494,2.6915323734283447,44.95915985107422,-0.003977553453296423,-0.00983592588454485,-0.014749513007700443,39.665000915527344,46.80500030517578,47.82149887084961,56.301998138427734,43.65599822998047,57.141998291015625,1770125357,580916884,X6-tool2,0.15259343395632305,1.6617986813600025,45.7511777151559,0.02304717959985643,-0.029230457552452866,-0.07903292700366148,0.04100735858082771
2026-02-03 21:29:17.670357,1770125357,657881711,1,220430,13,1770125357,661256762,2,229768,62,1770125357,664545883,3,223671,-102,1770125357,667920025,4,232976,-129,1770125357,651244899,5,218051,0,1770125357,654586210,6,227252,-34,-0.17183612287044525,2.616039514541626,44.947349548339844,-0.003952986095100641,0.005059584975242615,-0.0034489280078560114,39.67599868774414,46.92300033569336,47.574501037597656,56.07099914550781,43.65599822998047,57.073001861572266,1770125357,580916884,X6-tool2,0.15259343395632305,1.6617986813600025,45.7511777151559,0.02304717959985643,-0.029230457552452866,-0.07903292700366148,0.04100735858082771
2026-02-03 21:29:17.706163,1770125357,697877255,1,220485,13,1770125357,701229827,2,230043,48,1770125357,704543098,3,223198,-106,1770125357,687921422,4,232701,-144,1770125357,691242293,5,218051,0,1770125357,694587494,6,227109,-31,-0.22146180272102356,2.5296154022216797,44.93517303466797,-0.0033225480001419783,-0.00012827623868361115,-0.004220979753881693,39.70349884033203,47.0629997253418,47.34349822998047,55.810001373291016,43.65599822998047,57.00149917602539,1770125357,680903289,X6-tool2,-0.015927185699850993,1.6284869741685797,45.72855065158573,0.022445744872141536,-0.030737772715835065,-0.07719682796795077,0.04247729107737541
2026-02-03 21:29:17.741253,1770125357,737883060,1,220573,25,1770125357,721229974,2,230169,67,1770125357,724564575,3,222946,-133,1770125357,727918826,4,232141,-119,1770125357,731294857,5,218051,0,1770125357,734587379,6,226956,-50,-0.2510013282299042,2.488311767578125,44.925174713134766,-0.010001547634601593,-0.009951082989573479,-0.015367312356829643,39.720001220703125,47.11800003051758,47.23649978637695,55.6619987487793,43.65599822998047,56.96849822998047,1770125357,680903289,X6-tool2,-0.015927185699850993,1.6284869741685797,45.72855065158573,0.022445744872141536,-0.030737772715835065,-0.07719682796795077,0.04247729107737541
2026-02-03 21:29:17.777047,1770125357,757889837,1,220589,8,1770125357,761229788,2,230499,59,1770125357,764542039,3,222435,-109,1770125357,767920930,4,231685,-115,1770125357,771212532,5,218051,0,1770125357,774582893,6,226829,-31,-0.2973652482032776,2.3979954719543457,44.91594696044922,-0.01611396111547947,0.00592824025079608,0.0038235869724303484,39.75550079345703,47.277000427246094,46.95349884033203,55.4119987487793,43.65599822998047,56.894500732421875,1770125357,680903289,X6-tool2,-0.015927185699850993,1.6284869741685797,45.72855065158573,0.022445744872141536,-0.030737772715835065,-0.07719682796795077,0.04247729107737541
2026-02-03 21:29:17.812668,1770125357,797874981,1,220649,17,1770125357,801252932,2,230790,87,1770125357,804541393,3,222017,-112,1770125357,807915975,4,231147,-147,1770125357,811288326,5,218057,0,1770125357,794588820,6,226752,-38,-0.33997833728790283,2.3180429935455322,44.904239654541016,-0.013408863916993141,-0.0023017870262265205,0.0005301175406202674,39.785499572753906,47.409000396728516,46.75299835205078,55.17850112915039,43.65599822998047,56.823001861572266,1770125357,781081945,X6-tool2,-0.15584531344827363,1.5525415795703255,45.6569188047579,0.02401937713747973,-0.03476618752541938,-0.07536732697656147,0.046319007873535156
2026-02-03 21:29:17.847988,1770125357,837894285,1,220693,15,1770125357,841262717,2,231053,57,1770125357,844548898,3,221627,-97,1770125357,827962072,4,230900,-131,1770125357,831230493,5,218057,0,1770125357,834582804,6,226609,-38,-0.39125576615333557,2.225987434387207,44.8919563293457,0.0010405153734609485,-0.02181081846356392,-0.00120701699052006,39.807498931884766,47.56549835205078,46.547000885009766,54.90950012207031,43.659000396728516,56.75149917602539,1770125357,781081945,X6-tool2,-0.15584531344827363,1.5525415795703255,45.6569188047579,0.02401937713747973,-0.03476618752541938,-0.07536732697656147,0.046319007873535156
2026-02-03 21:29:17.883853,1770125357,877875850,1,220759,13,1770125357,881257641,2,231361,72,1770125357,864542035,3,221364,-142,1770125357,867917876,4,230400,-134,1770125357,871232847,5,218068,0,1770125357,874584649,6,226456,-38,-0.41370612382888794,2.1863598823547363,44.88294982910156,-0.0027544829063117504,-0.02956964634358883,-0.012778816744685173,39.829498291015625,47.62300109863281,46.45100021362305,54.78300094604492,43.659000396728516,56.71049880981445,1770125357,881737841,X6-tool2,-0.30997309642836884,1.4414167514520848,45.60290770016621,0.02379071052743213,-0.036710578505432294,-0.07405252552618731,0.03762022778391838
2026-02-03 21:29:17.919570,1770125357,917876304,1,220814,7,1770125357,901253608,2,231471,61,1770125357,904541069,3,220913,-112,1770125357,907917681,4,229889,-130,1770125357,911212472,5,218073,0,1770125357,914584283,6,226313,-32,-0.46014901995658875,2.0979466438293457,44.8715705871582,0.004414997063577175,-0.02947711944580078,-0.0029339005704969168,39.85449981689453,47.777000427246094,46.21500015258789,54.53300094604492,43.66450119018555,56.638999938964844,1770125357,881737841,X6-tool2,-0.30997309642836884,1.4414167514520848,45.60290770016621,0.02379071052743213,-0.036710578505432294,-0.07405252552618731,0.03762022778391838
2026-02-03 21:29:17.954800,1770125357,937896531,1,220831,10,1770125357,941254372,2,231713,68,1770125357,944565123,3,220463,-99,1770125357,947962655,4,229400,-106,1770125357,951235376,5,218090,0,1770125357,934586570,6,226230,-37,-0.507140040397644,2.019259452819824,44.85239028930664,0.0003424818569328636,-0.019446369260549545,-0.007791243493556976,39.87649917602539,47.88949966430664,45.972999572753906,54.275001525878906,43.675498962402344,56.5620002746582,1770125357,881737841,X6-tool2,-0.30997309642836884,1.4414167514520848,45.60290770016621,0.02379071052743213,-0.036710578505432294,-0.07405252552618731,0.03762022778391838
2026-02-03 21:29:17.990764,1770125357,977897646,1,220886,22,1770125357,981256527,2,231987,63,1770125357,984562278,3,220012,-119,1770125357,987982569,4,228950,-111,1770125357,971231933,5,218095,10,1770125357,974584494,6,226115,-29,-0.5516673922538757,1.9415032863616943,44.840415954589844,-0.0022995080798864365,-0.022250313311815262,0.0011569504858925939,39.90399932861328,48.02149963378906,45.75899887084961,54.04399871826172,43.678001403808594,56.50450134277344,1770125357,981011007,X6-tool2,-0.4229048988874943,1.347351788022418,45.55093224548475,0.02270688944165301,-0.038938005277466305,-0.0734786522787452,0.038931529968976974
2026-02-03 21:29:18.025996,1770125358,17876520,1,220990,10,1770125358,21226941,2,232251,68,1770125358,24543642,3,219573,-106,1770125358,7916216,4,228730,-111,1770125358,11231577,5,218117,0,1770125358,14612059,6,226000,-22,-0.5932857394218445,1.8670521974563599,44.82855224609375,-0.022166132926940918,-0.010161316953599453,0.003949715755879879,39.95600128173828,48.14799880981445,45.52799987792969,53.824501037597656,43.68899917602539,56.446998596191406,1770125357,981011007,X6-tool2,-0.4229048988874943,1.347351788022418,45.55093224548475,0.02270688944165301,-0.038938005277466305,-0.0734786522787452,0.038931529968976974
2026-02-03 21:29:18.061112,1770125358,57876324,1,221094,33,1770125358,41254368,2,232421,87,1770125358,44542649,3,219359,-102,1770125358,47935471,4,228203,-145,1770125358,51234512,5,218156,11,1770125358,54585363,6,225895,-31,-0.6189219951629639,1.8256053924560547,44.82313919067383,-0.022166132926940918,-0.010161316953599453,0.003949715755879879,39.97800064086914,48.22200012207031,45.42399978637695,53.70100021362305,43.69449996948242,56.42499923706055,1770125357,981011007,X6-tool2,-0.4229048988874943,1.347351788022418,45.55093224548475,0.02270688944165301,-0.038938005277466305,-0.0734786522787452,0.038931529968976974
2026-02-03 21:29:18.096755,1770125358,77898641,1,221138,30,1770125358,81255223,2,232718,66,1770125358,84570754,3,218985,-92,1770125358,87922915,4,227686,-76,1770125358,91214076,5,218172,9,1770125358,94583957,6,225775,-31,-0.6713608503341675,1.7310948371887207,44.811641693115234,-0.023261768743395805,-0.038346804678440094,5.5700722441542894e-05,40.029998779296875,48.39500045776367,45.2234992980957,53.43450164794922,43.708499908447266,56.364498138427734,1770125358,82209723,X6-tool2,-0.5259526739088236,1.2525564117630479,45.393427332714424,0.022403921034816383,-0.04308505023686672,-0.07343949892060675,0.028272947296500206
2026-02-03 21:29:18.132504,1770125358,117877736,1,221237,15,1770125358,121255977,2,233015,74,1770125358,124543918,3,218595,-107,1770125358,127916699,4,227236,-119,1770125358,131231200,5,218221,0,1770125358,114584564,6,225709,-30,-0.7170923352241516,1.6513092517852783,44.79645538330078,-0.025642937049269676,-0.0437418557703495,-0.019435638561844826,40.079498291015625,48.527000427246094,45.034000396728516,53.192501068115234,43.73550033569336,56.30149841308594,1770125358,82209723,X6-tool2,-0.5259526739088236,1.2525564117630479,45.393427332714424,0.022403921034816383,-0.04308505023686672,-0.07343949892060675,0.028272947296500206
2026-02-03 21:29:18.167704,1770125358,157895950,1,221287,15,1770125358,161257301,2,233306,85,1770125358,164561402,3,218101,-122,1770125358,147916496,4,227000,-114,1770125358,151288797,5,218249,10,1770125358,154585239,6,225599,-18,-0.7622910737991333,1.5716925859451294,44.78377914428711,-0.02331787906587124,-0.03600281476974487,-0.0076755923219025135,40.10449981689453,48.66699981689453,44.80849838256836,52.95949935913086,43.755001068115234,56.246498107910156,1770125358,82209723,X6-tool2,-0.5259526739088236,1.2525564117630479,45.393427332714424,0.022403921034816383,-0.04308505023686672,-0.07343949892060675,0.028272947296500206
2026-02-03 21:29:18.203529,1770125358,197885554,1,221342,14,1770125358,201253865,2,233646,85,1770125358,184567239,3,217853,-109,1770125358,187915581,4,226527,-128,1770125358,191211002,5,218309,13,1770125358,194582333,6,225533,-14,-0.7870504260063171,1.5299468040466309,44.78020477294922,-0.018924176692962646,-0.024439308792352676,0.0019054225413128734,40.11800003051758,48.7495002746582,44.6879997253418,52.84400177001953,43.77949905395508,56.22999954223633,1770125358,181041188,X6-tool2,-0.5347814504112325,1.100678282394838,45.417744210662626,0.02195955534018661,-0.04528088441057399,-0.07355754712177942,0.048798561096191406
2026-02-03 21:29:18.239588,1770125358,237893959,1,221424,23,1770125358,221227322,2,233822,101,1770125358,224560314,3,217452,-97,1770125358,227921865,4,226044,-117,1770125358,231227136,5,218375,25,1770125358,234586587,6,225434,-28,-0.839362382888794,1.442084789276123,44.77094268798828,-0.01574714668095112,-0.03201182931661606,0.02411593310534954,40.14849853515625,48.919498443603516,44.46549987792969,52.596500396728516,43.79600143432617,56.19150161743164,1770125358,181041188,X6-tool2,-0.5347814504112325,1.100678282394838,45.417744210662626,0.02195955534018661,-0.04528088441057399,-0.07355754712177942,0.048798561096191406
2026-02-03 21:29:18.274806,1770125358,257939886,1,221462,25,1770125358,261259177,2,234097,74,1770125358,264586168,3,217046,-99,1770125358,267938299,4,225566,-116,1770125358,271285510,5,218430,21,1770125358,254602614,6,225396,-18,-0.8856448531150818,1.3596365451812744,44.76057052612305,-0.01574714668095112,-0.03201182931661606,0.02411593310534954,40.19200134277344,49.07600021362305,44.259498596191406,52.36600112915039,43.82899856567383,56.14500045776367,1770125358,181041188,X6-tool2,-0.5347814504112325,1.100678282394838,45.417744210662626,0.02195955534018661,-0.04528088441057399,-0.07355754712177942,0.048798561096191406
2026-02-03 21:29:18.310950,1770125358,297950410,1,221578,36,1770125358,301245491,2,234382,54,1770125358,304614942,3,216606,-92,1770125358,307938324,4,225005,-154,1770125358,291290227,5,218469,19,1770125358,294605779,6,225286,-29,-0.9367212057113647,1.2751539945602417,44.74420166015625,-0.023206066340208054,-0.03230215981602669,0.014010707847774029,40.25,49.221500396728516,44.04800033569336,52.108001708984375,43.8650016784668,56.09000015258789,1770125358,282189434,X6-tool2,-0.8565241014831558,0.8658266019308284,45.22011144383639,0.019880177380282762,-0.0474248065628548,-0.07346345976085039,0.03937085345387459
2026-02-03 21:29:18.346745,1770125358,337996424,1,221671,19,1770125358,341245675,2,234613,63,1770125358,344614627,3,216233,-83,1770125358,327931491,4,224742,-124,1770125358,331286822,5,218540,21,1770125358,334598393,6,225181,-25,-0.9931179881095886,1.1947377920150757,44.72201919555664,-0.03316212072968483,-0.04097805544734001,-0.008493254892528057,40.29650115966797,49.342498779296875,43.84450149536133,51.830501556396484,43.9005012512207,56.037498474121094,1770125358,282189434,X6-tool2,-0.8565241014831558,0.8658266019308284,45.22011144383639,0.019880177380282762,-0.0474248065628548,-0.07346345976085039,0.03937085345387459
2026-02-03 21:29:18.382381,1770125358,377950598,1,221737,12,1770125358,381245780,2,234937,80,1770125358,364614444,3,216046,-96,1770125358,367938885,4,224390,-84,1770125358,371285356,5,218666,38,1770125358,374605437,6,225099,-16,-1.0111044645309448,1.1618454456329346,44.71662139892578,-0.031155085191130638,-0.03246935456991196,-0.008932029828429222,40.3129997253418,49.40299987792969,43.75400161743164,51.73699951171875,43.92250061035156,56.015499114990234,1770125358,381015850,X6-tool2,-0.8499601579581942,0.8040754647989845,45.265016033686464,0.018697967687586716,-0.04794075748011167,-0.0738640905492205,0.04391257092356682
2026-02-03 21:29:18.417746,1770125358,397949636,1,221770,17,1770125358,401270237,2,235096,88,1770125358,404614068,3,215656,-105,1770125358,407961489,4,223945,-120,1770125358,411286001,5,218721,16,1770125358,414603132,6,225016,-22,-1.048085331916809,1.0858540534973145,44.71163558959961,-0.015725797042250633,-0.016782399266958237,0.005877208895981312,40.34600067138672,49.564998626708984,43.56449890136719,51.550498962402344,43.97200012207031,55.97700119018555,1770125358,381015850,X6-tool2,-0.8499601579581942,0.8040754647989845,45.265016033686464,0.018697967687586716,-0.04794075748011167,-0.0738640905492205,0.04391257092356682
2026-02-03 21:29:18.453515,1770125358,437948670,1,221869,19,1770125358,441270301,2,235443,65,1770125358,444616832,3,215206,-111,1770125358,447937694,4,223418,-123,1770125358,451286515,5,218820,16,1770125358,434613839,6,224978,-18,-1.1008104085922241,0.998275637626648,44.69863510131836,-0.015725797042250633,-0.016782399266958237,0.005877208895981312,40.39550018310547,49.73249816894531,43.34749984741211,51.29750061035156,44.027000427246094,55.93600082397461,1770125358,381015850,X6-tool2,-0.8499601579581942,0.8040754647989845,45.265016033686464,0.018697967687586716,-0.04794075748011167,-0.0738640905492205,0.04391257092356682
2026-02-03 21:29:18.489265,1770125358,477949444,1,221973,26,1770125358,481271375,2,235778,93,1770125358,484615917,3,214783,-102,1770125358,487939808,4,222935,-117,1770125358,471288582,5,218870,27,1770125358,474600843,6,224868,-22,-1.1514804363250732,0.9076363444328308,44.68351364135742,-0.015725797042250633,-0.016782399266958237,0.005877208895981312,40.4474983215332,49.90299987792969,43.127498626708984,51.03950119018555,44.06549835205078,55.88100051879883,1770125358,482355086,X6-tool2,-1.0497480928475074,0.6316298470167548,45.134825365987446,0.017826223782838838,-0.04914575643970439,-0.07406139386411478,0.036677997559309006
2026-02-03 21:29:18.524328,1770125358,517950539,1,222083,24,1770125358,521272380,2,236085,68,1770125358,504585514,3,214601,-97,1770125358,507939185,4,222709,-116,1770125358,511287326,5,218996,20,1770125358,514605497,6,224758,-16,-1.1940492391586304,0.8242678642272949,44.67084884643555,-0.0025688032619655132,-0.0025478859897702932,-0.0030325392726808786,40.502498626708984,50.064998626708984,42.9379997253418,50.81399917602539,44.128501892089844,55.82600021362305,1770125358,482355086,X6-tool2,-1.0497480928475074,0.6316298470167548,45.134825365987446,0.017826223782838838,-0.04914575643970439,-0.07406139386411478,0.036677997559309006
