timestamp,x6position_pose_rp[0],x6position_pose_rp[1],x6position_pose_rp[2],x6position_pose_rp[3],x6position_pose_rp[4],x6position_pose_rp[5],x6position_joints[0],x6position_joints[1],x6position_joints[2],x6position_joints[3],x6position_joints[4],x6position_joints[5],aimooe_coord_header.stamp.sec,aimooe_coord_header.stamp.nanosec,aimooe_coord_header.frame_id,aimooe_coord_position.x,aimooe_coord_position.y,aimooe_coord_position.z,aimooe_coord_orientation.x,aimooe_coord_orientation.y,aimooe_coord_orientation.z,aimooe_coord_mean_error
2026-01-13 16:45:24.174031,-0.00022644597629550844,-0.00040881699533201754,45.00144958496094,-0.0009084437042474747,0.0005655043059960008,-0.0010254851076751947,43.097999572753906,53.03900146484375,43.097999572753906,53.0369987487793,43.097999572753906,53.03799819946289,1768293924,128426628,X6-tool2,-0.1967041786316814,0.43843746669035916,44.72488036262667,-0.03797288217467314,-0.028368400037367517,0.024748099650404663,0.0680023804306984
2026-01-13 16:45:24.211548,-0.00022644597629550844,-0.00040881699533201754,45.00144958496094,-0.0009084437042474747,0.0005655043059960008,-0.0010254851076751947,43.097999572753906,53.03900146484375,43.097999572753906,53.0369987487793,43.097999572753906,53.03799819946289,1768293924,128426628,X6-tool2,-0.1967041786316814,0.43843746669035916,44.72488036262667,-0.03797288217467314,-0.028368400037367517,0.024748099650404663,0.0680023804306984
2026-01-13 16:45:24.246356,-0.00022644597629550844,-0.00040881699533201754,45.00144958496094,-0.0009084437042474747,0.0005655043059960008,-0.0010254851076751947,43.097999572753906,53.03900146484375,43.097999572753906,53.0369987487793,43.097999572753906,53.03799819946289,1768293924,228057804,X6-tool2,-0.2033272843051302,0.4347882263582267,44.68863891249153,-0.038274408369830065,-0.02821995779944562,0.02482705800232697,0.06941509246826172
2026-01-13 16:45:24.280831,-0.00022644597629550844,-0.00040881699533201754,45.00144958496094,-0.0009084437042474747,0.0005655043059960008,-0.0010254851076751947,43.097999572753906,53.03900146484375,43.097999572753906,53.0369987487793,43.097999572753906,53.03799819946289,1768293924,228057804,X6-tool2,-0.2033272843051302,0.4347882263582267,44.68863891249153,-0.038274408369830065,-0.02821995779944562,0.02482705800232697,0.06941509246826172
2026-01-13 16:45:24.315383,-0.00022644597629550844,-0.00040881699533201754,45.00144958496094,-0.0009084437042474747,0.0005655043059960008,-0.0010254851076751947,43.097999572753906,53.03900146484375,43.097999572753906,53.0369987487793,43.097999572753906,53.03799819946289,1768293924,228057804,X6-tool2,-0.2033272843051302,0.4347882263582267,44.68863891249153,-0.038274408369830065,-0.02821995779944562,0.02482705800232697,0.06941509246826172
2026-01-13 16:45:24.349820,-0.00022644597629550844,-0.00040881699533201754,45.00144958496094,-0.0009084437042474747,0.0005655043059960008,-0.0010254851076751947,43.097999572753906,53.03900146484375,43.09299850463867,53.0369987487793,43.097999572753906,53.03799819946289,1768293924,327288785,X6-tool2,-0.19083188904886517,0.40181007413588943,44.72687751305745,-0.03850914641640393,-0.028443338920760033,0.02472834964447114,0.06710433959960938
2026-01-13 16:45:24.384423,-0.00022644597629550844,-0.00040881699533201754,45.00144958496094,-0.0009084437042474747,0.0005655043059960008,-0.0010254851076751947,43.097999572753906,53.03900146484375,43.09299850463867,53.0369987487793,43.097999572753906,53.03799819946289,1768293924,327288785,X6-tool2,-0.19083188904886517,0.40181007413588943,44.72687751305745,-0.03850914641640393,-0.028443338920760033,0.02472834964447114,0.06710433959960938
2026-01-13 16:45:24.419514,-0.00022644597629550844,-0.00040881699533201754,45.00144958496094,-0.0009084437042474747,0.0005655043059960008,-0.0010254851076751947,43.097999572753906,53.03900146484375,43.09299850463867,53.0369987487793,43.097999572753906,53.03799819946289,1768293924,327288785,X6-tool2,-0.19083188904886517,0.40181007413588943,44.72687751305745,-0.03850914641640393,-0.028443338920760033,0.02472834964447114,0.06710433959960938
2026-01-13 16:45:24.454160,-0.00022644597629550844,-0.00040881699533201754,45.00144958496094,-0.0009084437042474747,0.0005655043059960008,-0.0010254851076751947,43.097999572753906,53.03900146484375,43.09299850463867,53.0369987487793,43.097999572753906,53.03799819946289,1768293924,427148959,X6-tool2,-0.16459205616569772,0.4516590584143808,44.70985937355032,-0.037775845895812316,-0.028902291373224087,0.024787643922474314,0.07540035247802734
2026-01-13 16:45:24.488936,-0.00022644597629550844,-0.00040881699533201754,45.00144958496094,-0.0009084437042474747,0.0005655043059960008,-0.0010254851076751947,43.097999572753906,53.03900146484375,43.09299850463867,53.0369987487793,43.097999572753906,53.03799819946289,1768293924,427148959,X6-tool2,-0.16459205616569772,0.4516590584143808,44.70985937355032,-0.037775845895812316,-0.028902291373224087,0.024787643922474314,0.07540035247802734
2026-01-13 16:45:24.523660,-0.00022644597629550844,-0.00040881699533201754,45.00144958496094,-0.0009084437042474747,0.0005655043059960008,-0.0010254851076751947,43.097999572753906,53.03900146484375,43.09299850463867,53.0369987487793,43.097999572753906,53.03799819946289,1768293924,427148959,X6-tool2,-0.16459205616569772,0.4516590584143808,44.70985937355032,-0.037775845895812316,-0.028902291373224087,0.024787643922474314,0.07540035247802734
2026-01-13 16:45:24.558054,-0.00022644597629550844,-0.00040881699533201754,45.00144958496094,-0.0009084437042474747,0.0005655043059960008,-0.0010254851076751947,43.097999572753906,53.03900146484375,43.09299850463867,53.0369987487793,43.097999572753906,53.03799819946289,1768293924,526502624,X6-tool2,-0.1912903750133067,0.419864445310074,44.702428870635444,-0.038410420580148076,-0.028507197447028856,0.024907303942827412,0.07652155309915543
2026-01-13 16:45:24.592712,-0.00022644597629550844,-0.00040881699533201754,45.00144958496094,-0.0009084437042474747,0.0005655043059960008,-0.0010254851076751947,43.097999572753906,53.03900146484375,43.09299850463867,53.0369987487793,43.097999572753906,53.03799819946289,1768293924,526502624,X6-tool2,-0.1912903750133067,0.419864445310074,44.702428870635444,-0.038410420580148076,-0.028507197447028856,0.024907303942827412,0.07652155309915543
2026-01-13 16:45:24.627192,-0.00022644597629550844,-0.00040881699533201754,45.00144958496094,-0.0009084437042474747,0.0005655043059960008,-0.0010254851076751947,43.097999572753906,53.03900146484375,43.09299850463867,53.0369987487793,43.097999572753906,53.03799819946289,1768293924,625977043,X6-tool2,-0.22264143195077818,0.44874165248923376,44.77287575061551,-0.03743814727528658,-0.02771234411179482,0.02475665185803387,0.07232507318258286
2026-01-13 16:45:24.661697,-0.00022644597629550844,-0.00040881699533201754,45.00144958496094,-0.0009084437042474747,0.0005655043059960008,-0.0010254851076751947,43.097999572753906,53.03900146484375,43.09299850463867,53.0369987487793,43.097999572753906,53.03799819946289,1768293924,625977043,X6-tool2,-0.22264143195077818,0.44874165248923376,44.77287575061551,-0.03743814727528658,-0.02771234411179482,0.02475665185803387,0.07232507318258286
2026-01-13 16:45:24.696246,-0.00022644597629550844,-0.00040881699533201754,45.00144958496094,-0.0009084437042474747,0.0005655043059960008,-0.0010254851076751947,43.097999572753906,53.03900146484375,43.09299850463867,53.0369987487793,43.097999572753906,53.03799819946289,1768293924,625977043,X6-tool2,-0.22264143195077818,0.44874165248923376,44.77287575061551,-0.03743814727528658,-0.02771234411179482,0.02475665185803387,0.07232507318258286
2026-01-13 16:45:24.730538,-0.00022644597629550844,-0.00040881699533201754,45.00144958496094,-0.0009084437042474747,0.0005655043059960008,-0.0010254851076751947,43.097999572753906,53.03900146484375,43.09299850463867,53.0369987487793,43.097999572753906,53.03799819946289,1768293924,725158682,X6-tool2,-0.2000431606701673,0.4440772646997691,44.69959597998448,-0.0375634078970133,-0.028464000306791415,0.024799862508842953,0.07317638397216797
2026-01-13 16:45:24.765218,-0.00022644597629550844,-0.00040881699533201754,45.00144958496094,-0.0009084437042474747,0.0005655043059960008,-0.0010254851076751947,43.097999572753906,53.03900146484375,43.09299850463867,53.0369987487793,43.097999572753906,53.03799819946289,1768293924,725158682,X6-tool2,-0.2000431606701673,0.4440772646997691,44.69959597998448,-0.0375634078970133,-0.028464000306791415,0.024799862508842953,0.07317638397216797
2026-01-13 16:45:24.799916,-0.00022644597629550844,-0.00040881699533201754,45.00144958496094,-0.0009084437042474747,0.0005655043059960008,-0.0010254851076751947,43.097999572753906,53.03900146484375,43.09299850463867,53.0369987487793,43.097999572753906,53.03799819946289,1768293924,725158682,X6-tool2,-0.2000431606701673,0.4440772646997691,44.69959597998448,-0.0375634078970133,-0.028464000306791415,0.024799862508842953,0.07317638397216797
2026-01-13 16:45:24.834381,-0.00022644597629550844,-0.00040881699533201754,45.00144958496094,-0.0009084437042474747,0.0005655043059960008,-0.0010254851076751947,43.097999572753906,53.03900146484375,43.09299850463867,53.0369987487793,43.097999572753906,53.03799819946289,1768293924,824782907,X6-tool2,-0.17280474046237887,0.4223431027868541,44.68996864157093,-0.03839532351316887,-0.028909680375643565,0.02474339366922778,0.07246812433004379
2026-01-13 16:45:24.868973,-0.00022644597629550844,-0.00040881699533201754,45.00144958496094,-0.0009084437042474747,0.0005655043059960008,-0.0010254851076751947,43.097999572753906,53.03900146484375,43.09299850463867,53.0369987487793,43.097999572753906,53.03799819946289,1768293924,824782907,X6-tool2,-0.17280474046237887,0.4223431027868541,44.68996864157093,-0.03839532351316887,-0.028909680375643565,0.02474339366922778,0.07246812433004379
2026-01-13 16:45:24.903440,-0.00022644597629550844,-0.00040881699533201754,45.00144958496094,-0.0009084437042474747,0.0005655043059960008,-0.0010254851076751947,43.097999572753906,53.03900146484375,43.09299850463867,53.0369987487793,43.097999572753906,53.03799819946289,1768293924,824782907,X6-tool2,-0.17280474046237887,0.4223431027868541,44.68996864157093,-0.03839532351316887,-0.028909680375643565,0.02474339366922778,0.07246812433004379
2026-01-13 16:45:24.937745,-0.00022644597629550844,-0.00040881699533201754,45.00144958496094,-0.0009084437042474747,0.0005655043059960008,-0.0010254851076751947,43.097999572753906,53.03900146484375,43.09299850463867,53.0369987487793,43.097999572753906,53.03799819946289,1768293924,924257767,X6-tool2,-0.20439649898699927,0.44361603745325356,44.70514456834389,-0.037800608150632395,-0.02835087787215817,0.024800153541641345,0.0712289810180664
2026-01-13 16:45:24.972175,-0.00022644597629550844,-0.00040881699533201754,45.00144958496094,-0.0009084437042474747,0.0005655043059960008,-0.0010254851076751947,43.097999572753906,53.03900146484375,43.09299850463867,53.0369987487793,43.097999572753906,53.03799819946289,1768293924,924257767,X6-tool2,-0.20439649898699927,0.44361603745325356,44.70514456834389,-0.037800608150632395,-0.02835087787215817,0.024800153541641345,0.0712289810180664
2026-01-13 16:45:25.006549,-0.00022644597629550844,-0.00040881699533201754,45.00144958496094,-0.0009084437042474747,0.0005655043059960008,-0.0010254851076751947,43.097999572753906,53.03900146484375,43.09299850463867,53.0369987487793,43.097999572753906,53.03799819946289,1768293924,924257767,X6-tool2,-0.20439649898699927,0.44361603745325356,44.70514456834389,-0.037800608150632395,-0.02835087787215817,0.024800153541641345,0.0712289810180664
2026-01-13 16:45:25.041041,-0.00022644597629550844,-0.00040881699533201754,45.00144958496094,-0.0009084437042474747,0.0005655043059960008,-0.0010254851076751947,43.097999572753906,53.03900146484375,43.09299850463867,53.0369987487793,43.097999572753906,53.03799819946289,1768293925,24319430,X6-tool2,-0.178582536008184,0.4198351752849794,44.756257555494344,-0.03836261143325126,-0.028592799080373047,0.025094033180235665,0.07216516882181168
2026-01-13 16:45:25.075637,-0.00022644597629550844,-0.00040881699533201754,45.00144958496094,-0.0009084437042474747,0.0005655043059960008,-0.0010254851076751947,43.097999572753906,53.03900146484375,43.09299850463867,53.0369987487793,43.097999572753906,53.03799819946289,1768293925,24319430,X6-tool2,-0.178582536008184,0.4198351752849794,44.756257555494344,-0.03836261143325126,-0.028592799080373047,0.025094033180235665,0.07216516882181168
2026-01-13 16:45:25.110468,0.02567128837108612,0.0015308244619518518,45.002708435058594,0.00953896064311266,0.014739458449184895,0.011033168062567711,43.097999572753906,53.03900146484375,43.097999572753906,53.097999572753906,43.06999969482422,52.987998962402344,1768293925,24319430,X6-tool2,-0.178582536008184,0.4198351752849794,44.756257555494344,-0.03836261143325126,-0.028592799080373047,0.025094033180235665,0.07216516882181168
2026-01-13 16:45:25.145009,0.07399380207061768,0.012878474779427052,45.011627197265625,-0.001211239374242723,0.03470563516020775,0.02056359313428402,43.15299987792969,53.03900146484375,43.13100051879883,53.24100112915039,43.020999908447266,52.92300033569336,1768293925,124653323,X6-tool2,-0.16115379672159325,0.4076283796210939,44.671290781586734,-0.03884661293829165,-0.028492295166110796,0.02453319735274351,0.06701310724020004
2026-01-13 16:45:25.179668,0.17100790143013,0.02765277773141861,45.022403717041016,0.0018644857918843627,0.0687948614358902,0.021284500136971474,43.24599838256836,53.03900146484375,43.20800018310547,53.499000549316406,42.93299865722656,52.76300048828125,1768293925,124653323,X6-tool2,-0.16115379672159325,0.4076283796210939,44.671290781586734,-0.03884661293829165,-0.028492295166110796,0.02453319735274351,0.06701310724020004
2026-01-13 16:45:25.213975,0.25891977548599243,0.031228724867105484,45.025211334228516,0.016455817967653275,0.07482756674289703,-0.01804223470389843,43.35100173950195,53.04399871826172,43.31800079345703,53.70199966430664,42.85599899291992,52.58700180053711,1768293925,124653323,X6-tool2,-0.16115379672159325,0.4076283796210939,44.671290781586734,-0.03884661293829165,-0.028492295166110796,0.02453319735274351,0.06701310724020004
2026-01-13 16:45:25.248404,0.3450446128845215,0.04141802340745926,45.031715393066406,0.017079629004001617,0.10248076170682907,-0.03568197041749954,43.45500183105469,53.04399871826172,43.39500045776367,53.922000885009766,42.78499984741211,52.433998107910156,1768293925,224035259,X6-tool2,-0.07712213139812053,0.5149890508821491,44.73333376856222,-0.03499859612713362,-0.02637786777871257,0.02504948343453981,0.07419967651367188
2026-01-13 16:45:25.282941,0.395822137594223,0.043371714651584625,45.0340576171875,0.025987539440393448,0.11844444274902344,-0.04150944575667381,43.50400161743164,53.04999923706055,43.43299865722656,54.042999267578125,42.74100112915039,52.334999084472656,1768293925,224035259,X6-tool2,-0.07712213139812053,0.5149890508821491,44.73333376856222,-0.03499859612713362,-0.02637786777871257,0.02504948343453981,0.07419967651367188
2026-01-13 16:45:25.317424,0.49314582347869873,0.051071956753730774,45.037654876708984,0.02413836121559143,0.14547176659107208,-0.06076480448246002,43.625,53.04999923706055,43.5099983215332,54.27899932861328,42.64699935913086,52.14799880981445,1768293925,224035259,X6-tool2,-0.07712213139812053,0.5149890508821491,44.73333376856222,-0.03499859612713362,-0.02637786777871257,0.02504948343453981,0.07419967651367188
2026-01-13 16:45:25.351720,0.5884652733802795,0.06691762059926987,45.049713134765625,0.021420741453766823,0.17310141026973724,-0.042499687522649765,43.7239990234375,53.05500030517578,43.582000732421875,54.54800033569336,42.542999267578125,52.0,1768293925,324214317,X6-tool2,0.13005028262080134,0.4684459137726018,44.76423843740842,-0.03579634440499341,-0.0237085815598405,0.026709716479995226,0.06710752099752426
2026-01-13 16:45:25.386335,0.6386149525642395,0.07457149773836136,45.05653381347656,0.016521446406841278,0.19183170795440674,-0.033763330429792404,43.78499984741211,53.06100082397461,43.6150016784668,54.691001892089844,42.49300003051758,51.92300033569336,1768293925,324214317,X6-tool2,0.13005028262080134,0.4684459137726018,44.76423843740842,-0.03579634440499341,-0.0237085815598405,0.026709716479995226,0.06710752099752426
2026-01-13 16:45:25.421179,0.7447182536125183,0.09237971156835556,45.069332122802734,0.01975884474813938,0.23817183077335358,-0.016002489253878593,43.89400100708008,53.066001892089844,43.68600082397461,54.99300003051758,42.400001525878906,51.757999420166016,1768293925,324214317,X6-tool2,0.13005028262080134,0.4684459137726018,44.76423843740842,-0.03579634440499341,-0.0237085815598405,0.026709716479995226,0.06710752099752426
2026-01-13 16:45:25.455695,0.8455522656440735,0.10537511110305786,45.07821273803711,0.01907883584499359,0.2589591443538666,-0.011330440640449524,44.01499938964844,53.071998596191406,43.77399826049805,55.268001556396484,42.290000915527344,51.5880012512207,1768293925,424233768,X6-tool2,0.40949905116276314,0.4466196768409558,44.85186952757637,-0.03643909862415054,-0.022545042841678235,0.030361085177715536,0.06706428527832031
2026-01-13 16:45:25.490130,0.9495875239372253,0.1190011277794838,45.08676528930664,0.009758040308952332,0.26707741618156433,0.024102680385112762,44.125,53.07699966430664,43.845001220703125,55.553001403808594,42.13100051879883,51.4119987487793,1768293925,424233768,X6-tool2,0.40949905116276314,0.4466196768409558,44.85186952757637,-0.03643909862415054,-0.022545042841678235,0.030361085177715536,0.06706428527832031
2026-01-13 16:45:25.524551,1.0016320943832397,0.12348075211048126,45.090152740478516,0.01243576593697071,0.2745749354362488,0.03369343653321266,44.18000030517578,53.08300018310547,43.88399887084961,55.691001892089844,42.064998626708984,51.319000244140625,1768293925,424233768,X6-tool2,0.40949905116276314,0.4466196768409558,44.85186952757637,-0.03643909862415054,-0.022545042841678235,0.030361085177715536,0.06706428527832031
2026-01-13 16:45:25.559146,1.1089134216308594,0.13442762196063995,45.09782028198242,0.022055452689528465,0.3002249598503113,0.05387784540653229,44.290000915527344,53.09400177001953,43.96099853515625,55.981998443603516,41.944000244140625,51.13199996948242,1768293925,524091212,X6-tool2,0.5656419110581123,0.41754108486212543,44.909434819152985,-0.03676473440066402,-0.018588277944058706,0.03320849230509377,0.0657246932387352
2026-01-13 16:45:25.593669,1.2145694494247437,0.14307962357997894,45.10109329223633,0.022679198533296585,0.3117586374282837,0.069276824593544,44.4109992980957,53.0989990234375,44.03799819946289,56.25600051879883,41.80099868774414,50.933998107910156,1768293925,524091212,X6-tool2,0.5656419110581123,0.41754108486212543,44.909434819152985,-0.03676473440066402,-0.018588277944058706,0.03320849230509377,0.0657246932387352
2026-01-13 16:45:25.628064,1.3276792764663696,0.14549411833286285,45.10036849975586,0.016103066504001617,0.3083544671535492,0.08522525429725647,44.55400085449219,53.11000061035156,44.1150016784668,56.53099822998047,41.619998931884766,50.702999114990234,1768293925,624086363,X6-tool2,0.831833580304279,0.34540305835920543,44.979621161850226,-0.03684496408561047,-0.017399527029126345,0.03706046711632636,0.06499099731445312
2026-01-13 16:45:25.662494,1.381476879119873,0.14500288665294647,45.098751068115234,0.014232860878109932,0.310085266828537,0.07710766047239304,44.63600158691406,53.11600112915039,44.159000396728516,56.65700149536133,41.54899978637695,50.5880012512207,1768293925,624086363,X6-tool2,0.831833580304279,0.34540305835920543,44.979621161850226,-0.03684496408561047,-0.017399527029126345,0.03706046711632636,0.06499099731445312
2026-01-13 16:45:25.696828,1.4841958284378052,0.14747272431850433,45.09597396850586,0.009525174275040627,0.30542147159576416,0.07632694393396378,44.784000396728516,53.12099838256836,44.23500061035156,56.904998779296875,41.388999938964844,50.374000549316406,1768293925,624086363,X6-tool2,0.831833580304279,0.34540305835920543,44.979621161850226,-0.03684496408561047,-0.017399527029126345,0.03706046711632636,0.06499099731445312
2026-01-13 16:45:25.731666,1.5949290990829468,0.14989756047725677,45.092594146728516,0.0020798295736312866,0.3097189962863922,0.0836666002869606,44.93299865722656,53.12699890136719,44.31800079345703,57.17399978637695,41.22999954223633,50.143001556396484,1768293925,724217217,X6-tool2,1.0556568162637396,0.36825023172388316,44.97965927809661,-0.035797990437943045,-0.01627895278185646,0.037996223255631095,0.07407983392477036
2026-01-13 16:45:25.766315,1.6542617082595825,0.1514638066291809,45.09148025512695,0.013685153797268867,0.30991825461387634,0.07521418482065201,45.0099983215332,53.13199996948242,44.37799835205078,57.321998596191406,41.159000396728516,50.02199935913086,1768293925,724217217,X6-tool2,1.0556568162637396,0.36825023172388316,44.97965927809661,-0.035797990437943045,-0.01627895278185646,0.037996223255631095,0.07407983392477036
2026-01-13 16:45:25.801153,1.7710074186325073,0.16073592007160187,45.09282302856445,0.013372110202908516,0.3206818103790283,0.07332820445299149,45.185001373291016,53.13800048828125,44.47700119018555,57.6349983215332,41.020999908447266,49.801998138427734,1768293925,724217217,X6-tool2,1.0556568162637396,0.36825023172388316,44.97965927809661,-0.035797990437943045,-0.01627895278185646,0.037996223255631095,0.07407983392477036
2026-01-13 16:45:25.835615,1.894039511680603,0.1729269176721573,45.09348678588867,0.010298870503902435,0.3395631015300751,0.07876835763454437,45.367000579833984,53.13800048828125,44.58100128173828,57.970001220703125,40.867000579833984,49.571998596191406,1768293925,824099823,X6-tool2,1.3981755448218833,0.30363446681328526,44.921562608192666,-0.038024010812535806,-0.016714199449310282,0.03874159307966582,0.06257184594869614
2026-01-13 16:45:25.870182,2.001356363296509,0.18121275305747986,45.09345245361328,-0.0040565477684140205,0.34636545181274414,0.09818457067012787,45.5369987487793,53.143001556396484,44.65299987792969,58.26100158691406,40.70800018310547,49.36800003051758,1768293925,824099823,X6-tool2,1.3981755448218833,0.30363446681328526,44.921562608192666,-0.038024010812535806,-0.016714199449310282,0.03874159307966582,0.06257184594869614
2026-01-13 16:45:25.904487,2.0548949241638184,0.1823064237833023,45.091976165771484,-0.015110916458070278,0.34527963399887085,0.11288876086473465,45.625,53.14899826049805,44.68000030517578,58.39899826049805,40.6150016784668,49.25899887084961,1768293925,824099823,X6-tool2,1.3981755448218833,0.30363446681328526,44.921562608192666,-0.038024010812535806,-0.016714199449310282,0.03874159307966582,0.06257184594869614
2026-01-13 16:45:25.939016,2.159105062484741,0.1887771636247635,45.088260650634766,-0.024624835699796677,0.34408697485923767,0.13080541789531708,45.784000396728516,53.14899826049805,44.75199890136719,58.67300033569336,40.45000076293945,49.04999923706055,1768293925,924112524,X6-tool2,1.6146895162482386,0.308218938075462,44.93763323475776,-0.038281040855361735,-0.015728927940849603,0.04014540532495268,0.07520993798971176
2026-01-13 16:45:25.973510,2.2570152282714844,0.19605818390846252,45.0872688293457,-0.03007461130619049,0.3303544521331787,0.14273351430892944,45.94300079345703,53.15399932861328,44.845001220703125,58.94300079345703,40.29600143432617,48.862998962402344,1768293925,924112524,X6-tool2,1.6146895162482386,0.308218938075462,44.93763323475776,-0.038281040855361735,-0.015728927940849603,0.04014540532495268,0.07520993798971176
2026-01-13 16:45:26.007944,2.369602680206299,0.20337392389774323,45.08271026611328,-0.05003754049539566,0.3251800239086151,0.1507706344127655,46.152000427246094,53.15399932861328,44.93299865722656,59.244998931884766,40.119998931884766,48.63800048828125,1768293925,924112524,X6-tool2,1.6146895162482386,0.308218938075462,44.93763323475776,-0.038281040855361735,-0.015728927940849603,0.04014540532495268,0.07520993798971176
2026-01-13 16:45:26.042839,2.4782283306121826,0.2064630091190338,45.07672119140625,-0.04043961688876152,0.3284175992012024,0.1580640971660614,46.305999755859375,53.15999984741211,45.01499938964844,59.529998779296875,39.97800064086914,48.41299819946289,1768293926,24337043,X6-tool2,1.8678363538021923,0.3332272475110549,44.92187636856486,-0.03765535678236428,-0.015456499006127715,0.04145056311869714,0.06449731439352036
2026-01-13 16:45:26.077438,2.5322368144989014,0.20773322880268097,45.072269439697266,-0.03382082283496857,0.34527960419654846,0.15977753698825836,46.38800048828125,53.15999984741211,45.04800033569336,59.667999267578125,39.9119987487793,48.297000885009766,1768293926,24337043,X6-tool2,1.8678363538021923,0.3332272475110549,44.92187636856486,-0.03765535678236428,-0.015456499006127715,0.04145056311869714,0.06449731439352036
2026-01-13 16:45:26.111816,2.6405491828918457,0.20644205808639526,45.06161117553711,-0.022608688101172447,0.37860167026519775,0.15209603309631348,46.558998107910156,53.165000915527344,45.10900115966797,59.9370002746582,39.79600143432617,48.055999755859375,1768293926,24337043,X6-tool2,1.8678363538021923,0.3332272475110549,44.92187636856486,-0.03765535678236428,-0.015456499006127715,0.04145056311869714,0.06449731439352036
2026-01-13 16:45:26.146286,2.6998350620269775,0.20795883238315582,45.05648422241211,-0.010467173531651497,0.3993690013885498,0.1610596925020218,46.630001068115234,53.165000915527344,45.13600158691406,60.090999603271484,39.72999954223633,47.92900085449219,1768293926,124267111,X6-tool2,2.119173851047942,0.4119929312787452,45.04971260655774,-0.0367733345498763,-0.014039121128542,0.042195062248797495,0.08054319769144058
2026-01-13 16:45:26.180997,2.8172965049743652,0.2090848684310913,45.04657745361328,0.015029423870146275,0.42948275804519653,0.17609959840774536,46.77799987792969,53.17100143432617,45.20199966430664,60.39799880981445,39.59299850463867,47.676998138427734,1768293926,124267111,X6-tool2,2.119173851047942,0.4119929312787452,45.04971260655774,-0.0367733345498763,-0.014039121128542,0.042195062248797495,0.08054319769144058
2026-01-13 16:45:26.215550,2.895784854888916,0.19010713696479797,45.02141189575195,0.0272216796875,0.4011772871017456,0.11982940882444382,46.926998138427734,53.17100143432617,45.28499984741211,60.51900100708008,39.46099853515625,47.435001373291016,1768293926,124267111,X6-tool2,2.119173851047942,0.4119929312787452,45.04971260655774,-0.0367733345498763,-0.014039121128542,0.042195062248797495,0.08054319769144058
2026-01-13 16:45:26.249919,2.9519388675689697,0.1553121954202652,44.987003326416016,0.029858939349651337,0.3358628451824188,0.02479197084903717,47.08100128173828,53.17599868774414,45.37200164794922,60.525001525878906,39.32400131225586,47.19300079345703,1768293926,224139686,X6-tool2,2.453891509819802,0.36398054597997237,44.93541768721847,-0.03802368790821348,-0.014136032904076081,0.04310195125240378,0.07300567626953125
2026-01-13 16:45:26.284427,2.979461669921875,0.1382720023393631,44.96916580200195,0.029963871464133263,0.28783634305000305,-0.017643345519900322,47.152000427246094,53.17599868774414,45.422000885009766,60.525001525878906,39.236000061035156,47.071998596191406,1768293926,224139686,X6-tool2,2.453891509819802,0.36398054597997237,44.93541768721847,-0.03802368790821348,-0.014136032904076081,0.04310195125240378,0.07300567626953125
2026-01-13 16:45:26.319053,2.999509572982788,0.12405768036842346,44.95684051513672,-0.021859699860215187,0.14754177629947662,-0.03592444583773613,47.28900146484375,53.18199920654297,45.5099983215332,60.525001525878906,39.03799819946289,46.98400115966797,1768293926,224139686,X6-tool2,2.453891509819802,0.36398054597997237,44.93541768721847,-0.03802368790821348,-0.014136032904076081,0.04310195125240378,0.07300567626953125
2026-01-13 16:45:26.353825,3.000662326812744,0.1218431293964386,44.95667266845703,-0.09026763588190079,0.08013990521430969,-0.0654090940952301,47.44900131225586,53.1870002746582,45.558998107910156,60.525001525878906,38.96099853515625,46.979000091552734,1768293926,324216109,X6-tool2,2.5971874677193263,0.2381815265151619,44.827767473766265,-0.03787845282181212,-0.015182207683241834,0.04218933353495439,0.06550756841897964
2026-01-13 16:45:26.388301,3.000662326812744,0.1218431293964386,44.95667266845703,-0.11237089335918427,0.07545831799507141,-0.07932856678962708,47.50400161743164,53.1870002746582,45.564998626708984,60.525001525878906,38.95600128173828,46.979000091552734,1768293926,324216109,X6-tool2,2.5971874677193263,0.2381815265151619,44.827767473766265,-0.03787845282181212,-0.015182207683241834,0.04218933353495439,0.06550756841897964
2026-01-13 16:45:26.422931,3.0006797313690186,0.12003177404403687,44.957359313964844,-0.11237089335918427,0.07545831799507141,-0.07932856678962708,47.50400161743164,53.19300079345703,45.564998626708984,60.525001525878906,38.95600128173828,46.979000091552734,1768293926,324216109,X6-tool2,2.5971874677193263,0.2381815265151619,44.827767473766265,-0.03787845282181212,-0.015182207683241834,0.04218933353495439,0.06550756841897964
2026-01-13 16:45:26.457503,3.0006797313690186,0.12003177404403687,44.957359313964844,-0.11237089335918427,0.07545831799507141,-0.07932856678962708,47.50400161743164,53.19300079345703,45.56999969482422,60.525001525878906,38.95600128173828,46.979000091552734,1768293926,424299742,X6-tool2,2.60295157060814,0.232697914712264,44.80916752928397,-0.03741281781103391,-0.016000201734828315,0.04200816549508497,0.06990909576416016
2026-01-13 16:45:26.491883,3.0006942749023438,0.11852237582206726,44.95793151855469,-0.1080334335565567,0.07073602825403214,-0.07925571501255035,47.50400161743164,53.198001861572266,45.564998626708984,60.525001525878906,38.95600128173828,46.979000091552734,1768293926,424299742,X6-tool2,2.60295157060814,0.232697914712264,44.80916752928397,-0.03741281781103391,-0.016000201734828315,0.04200816549508497,0.06990909576416016
2026-01-13 16:45:26.526225,2.999553918838501,0.115971639752388,44.95812225341797,-0.1080334335565567,0.07073602825403214,-0.07925571501255035,47.50400161743164,53.20399856567383,45.56999969482422,60.51900100708008,38.95600128173828,46.979000091552734,1768293926,524310313,X6-tool2,2.573173386274312,0.2467928339107679,44.8834857513366,-0.036880487953793284,-0.01536926098208825,0.042034909710363264,0.07010873407125473
2026-01-13 16:45:26.560686,2.999553918838501,0.115971639752388,44.95812225341797,-0.1080334335565567,0.07073602825403214,-0.07925571501255035,47.50400161743164,53.20399856567383,45.564998626708984,60.51900100708008,38.95600128173828,46.979000091552734,1768293926,524310313,X6-tool2,2.573173386274312,0.2467928339107679,44.8834857513366,-0.036880487953793284,-0.01536926098208825,0.042034909710363264,0.07010873407125473
2026-01-13 16:45:26.595189,2.999568223953247,0.11446244269609451,44.95869445800781,-0.1080334335565567,0.07073602825403214,-0.07925571501255035,47.50400161743164,53.20899963378906,45.564998626708984,60.51900100708008,38.95600128173828,46.979000091552734,1768293926,524310313,X6-tool2,2.573173386274312,0.2467928339107679,44.8834857513366,-0.036880487953793284,-0.01536926098208825,0.042034909710363264,0.07010873407125473
2026-01-13 16:45:26.629661,2.9995827674865723,0.1129533052444458,44.959266662597656,-0.10411780327558517,0.06618563830852509,-0.0778685212135315,47.50400161743164,53.2140007019043,45.56999969482422,60.51900100708008,38.95600128173828,46.979000091552734,1768293926,624321994,X6-tool2,2.6194264835340015,0.2568621052277487,44.826206977770255,-0.03693022337234295,-0.016405879519893404,0.04209071730171904,0.06650575250387192
2026-01-13 16:45:26.664059,2.9996001720428467,0.11114241182804108,44.95995330810547,-0.10411780327558517,0.06618563830852509,-0.0778685212135315,47.50400161743164,53.220001220703125,45.564998626708984,60.51900100708008,38.95600128173828,46.979000091552734,1768293926,624321994,X6-tool2,2.6194264835340015,0.2568621052277487,44.826206977770255,-0.03693022337234295,-0.016405879519893404,0.04209071730171904,0.06650575250387192
2026-01-13 16:45:26.698380,2.9996001720428467,0.11114241182804108,44.95995330810547,-0.10411780327558517,0.06618563830852509,-0.0778685212135315,47.50400161743164,53.220001220703125,45.56999969482422,60.51900100708008,38.95600128173828,46.979000091552734,1768293926,624321994,X6-tool2,2.6194264835340015,0.2568621052277487,44.826206977770255,-0.03693022337234295,-0.016405879519893404,0.04209071730171904,0.06650575250387192
2026-01-13 16:45:26.732872,2.9996144771575928,0.10963339358568192,44.96052551269531,-0.10411780327558517,0.06618563830852509,-0.0778685212135315,47.50400161743164,53.224998474121094,45.564998626708984,60.51900100708008,38.95600128173828,46.979000091552734,1768293926,724227871,X6-tool2,2.5869532916473106,0.208769153301306,44.80642601324733,-0.037626700089685314,-0.016017870673356957,0.04201263081134213,0.06660874933004379
2026-01-13 16:45:26.767248,2.999631881713867,0.10782265663146973,44.96120834350586,-0.09940353780984879,0.06307468563318253,-0.07421901822090149,47.50400161743164,53.23099899291992,45.56999969482422,60.51900100708008,38.95600128173828,46.979000091552734,1768293926,724227871,X6-tool2,2.5869532916473106,0.208769153301306,44.80642601324733,-0.037626700089685314,-0.016017870673356957,0.04201263081134213,0.06660874933004379
2026-01-13 16:45:26.801726,2.9996464252471924,0.10631376504898071,44.9617805480957,-0.09940353780984879,0.06307468563318253,-0.07421901822090149,47.50400161743164,53.236000061035156,45.564998626708984,60.51900100708008,38.95600128173828,46.979000091552734,1768293926,724227871,X6-tool2,2.5869532916473106,0.208769153301306,44.80642601324733,-0.037626700089685314,-0.016017870673356957,0.04201263081134213,0.06660874933004379
2026-01-13 16:45:26.836195,2.9996635913848877,0.10450317710638046,44.962467193603516,-0.09940353780984879,0.06307468563318253,-0.07421901822090149,47.50400161743164,53.242000579833984,45.56999969482422,60.51900100708008,38.95600128173828,46.979000091552734,1768293926,824163848,X6-tool2,2.607907724867992,0.22885783469908186,44.81412705258332,-0.03767350010612136,-0.01604665517959397,0.04181647828774853,0.06466865539550781
2026-01-13 16:45:26.870796,2.999695301055908,0.10118396580219269,44.963722229003906,-0.09625167399644852,0.06285543739795685,-0.06849463284015656,47.50400161743164,53.25299835205078,45.56999969482422,60.51900100708008,38.95600128173828,46.979000091552734,1768293926,824163848,X6-tool2,2.607907724867992,0.22885783469908186,44.81412705258332,-0.03767350010612136,-0.01604665517959397,0.04181647828774853,0.06466865539550781
2026-01-13 16:45:26.905328,2.9997270107269287,0.0978650376200676,44.9649772644043,-0.0907365158200264,0.06109120324254036,-0.07052118331193924,47.50400161743164,53.263999938964844,45.564998626708984,60.51900100708008,38.96099853515625,46.979000091552734,1768293926,824163848,X6-tool2,2.607907724867992,0.22885783469908186,44.81412705258332,-0.03767350010612136,-0.01604665517959397,0.04181647828774853,0.06466865539550781
2026-01-13 16:45:26.939823,2.999741554260254,0.09635652601718903,44.965545654296875,-0.0907365158200264,0.06109120324254036,-0.07052118331193924,47.50400161743164,53.26900100708008,45.56999969482422,60.51900100708008,38.96099853515625,46.979000091552734,1768293926,924358906,X6-tool2,2.5970884408136468,0.26607484597786535,44.87741808941967,-0.03640785793961071,-0.015880886477417838,0.041995959847991225,0.06268469244241714
2026-01-13 16:45:26.974283,2.9997904300689697,0.09122801572084427,44.96748352050781,-0.08602943271398544,0.0579763799905777,-0.06686390191316605,47.50400161743164,53.2859992980957,45.56999969482422,60.51900100708008,38.96099853515625,46.979000091552734,1768293926,924358906,X6-tool2,2.5970884408136468,0.26607484597786535,44.87741808941967,-0.03640785793961071,-0.015880886477417838,0.041995959847991225,0.06268469244241714
2026-01-13 16:45:27.008566,2.9998364448547363,0.08640178292989731,44.96930694580078,-0.07994154095649719,0.05394423007965088,-0.062126945704221725,47.50400161743164,53.301998138427734,45.564998626708984,60.51900100708008,38.96099853515625,46.979000091552734,1768293926,924358906,X6-tool2,2.5970884408136468,0.26607484597786535,44.87741808941967,-0.03640785793961071,-0.015880886477417838,0.041995959847991225,0.06268469244241714
2026-01-13 16:45:27.043066,2.9998679161071777,0.08308408409357071,44.97056198120117,-0.07551687955856323,0.051011551171541214,-0.05867818742990494,47.50400161743164,53.3129997253418,45.56999969482422,60.51900100708008,38.96099853515625,46.979000091552734,1768293927,24294674,X6-tool2,2.605088242624151,0.2362570751153233,44.920664118991525,-0.036877370729068326,-0.015768029516725655,0.04179264015302867,0.06283823400735855
2026-01-13 16:45:27.077761,2.999962329864502,0.07313267141580582,44.97431564331055,-0.06639866530895233,0.04495985805988312,-0.05155772715806961,47.50400161743164,53.34600067138672,45.56999969482422,60.51900100708008,38.96099853515625,46.979000091552734,1768293927,24294674,X6-tool2,2.605088242624151,0.2362570751153233,44.920664118991525,-0.036877370729068326,-0.015768029516725655,0.04179264015302867,0.06283823400735855
2026-01-13 16:45:27.112383,3.000042200088501,0.06469101458787918,44.97749710083008,-0.05867026373744011,0.039821807295084,-0.045508477836847305,47.50400161743164,53.374000549316406,45.56999969482422,60.51900100708008,38.96099853515625,46.979000091552734,1768293927,24294674,X6-tool2,2.605088242624151,0.2362570751153233,44.920664118991525,-0.036877370729068326,-0.015768029516725655,0.04179264015302867,0.06283823400735855
2026-01-13 16:45:27.146848,3.000136137008667,0.05474424734711647,44.98124313354492,-0.04957000911235809,0.03376510739326477,-0.038368191570043564,47.50400161743164,53.40700149536133,45.56999969482422,60.51900100708008,38.96099853515625,46.979000091552734,1768293927,124552424,X6-tool2,2.6229934656122422,0.23547861649104332,44.90236840289443,-0.03668999380840947,-0.01618368138994042,0.04185502672843993,0.061085063964128494
2026-01-13 16:45:27.181588,3.0001816749572754,0.04992247745394707,44.98305892944336,-0.045163001865148544,0.03082764707505703,-0.03490058705210686,47.50400161743164,53.42300033569336,45.56999969482422,60.51900100708008,38.96099853515625,46.979000091552734,1768293927,124552424,X6-tool2,2.6229934656122422,0.23547861649104332,44.90236840289443,-0.03668999380840947,-0.01618368138994042,0.04185502672843993,0.061085063964128494
2026-01-13 16:45:27.216778,3.0002920627593994,0.038171906024217606,44.98747634887695,-0.03442872315645218,0.0236635971814394,-0.02644115500152111,47.50400161743164,53.46200180053711,45.56999969482422,60.51900100708008,38.96099853515625,46.979000091552734,1768293927,124552424,X6-tool2,2.6229934656122422,0.23547861649104332,44.90236840289443,-0.03668999380840947,-0.01618368138994042,0.04185502672843993,0.061085063964128494
2026-01-13 16:45:27.251147,3.0004162788391113,0.02491910383105278,44.99245071411133,-0.022334683686494827,0.015575448051095009,-0.016880780458450317,47.50400161743164,53.50600051879883,45.56999969482422,60.51900100708008,38.96099853515625,46.979000091552734,1768293927,224085346,X6-tool2,2.581698366988125,0.24055818553260175,44.93061461204945,-0.036440924737482665,-0.015366433203085596,0.041654170593354266,0.06612619012594223
2026-01-13 16:45:27.285641,3.0004780292510986,0.018294397741556168,44.994937896728516,-0.016295932233333588,0.011530337855219841,-0.012090731412172318,47.50400161743164,53.52799987792969,45.56999969482422,60.51900100708008,38.96099853515625,46.979000091552734,1768293927,224085346,X6-tool2,2.581698366988125,0.24055818553260175,44.93061461204945,-0.036440924737482665,-0.015366433203085596,0.041654170593354266,0.06612619012594223
2026-01-13 16:45:27.320111,3.000570774078369,0.00835946574807167,44.9986572265625,-0.01026085577905178,0.007483473047614098,-0.0072974772192537785,47.50400161743164,53.56100082397461,45.56999969482422,60.51900100708008,38.96099853515625,46.979000091552734,1768293927,224085346,X6-tool2,2.581698366988125,0.24055818553260175,44.93061461204945,-0.036440924737482665,-0.015366433203085596,0.041654170593354266,0.06612619012594223
2026-01-13 16:45:27.354656,3.0006322860717773,0.0017375986790284514,45.001136779785156,-0.004158212803304195,0.005218788981437683,0.0008873767219483852,47.50400161743164,53.58300018310547,45.56999969482422,60.51900100708008,38.96099853515625,46.979000091552734,1768293927,324118107,X6-tool2,2.616515662558647,0.20146117863373772,44.8236946589864,-0.03737018509190209,-0.01639567489028512,0.041609168616046986,0.0573527030646801
2026-01-13 16:45:27.389144,3.0006463527679443,0.0002327876427443698,45.00170135498047,0.0001533684117021039,0.0004908128757961094,0.0009924990590661764,47.50400161743164,53.5880012512207,45.56999969482422,60.51900100708008,38.96099853515625,46.979000091552734,1768293927,324118107,X6-tool2,2.616515662558647,0.20146117863373772,44.8236946589864,-0.03737018509190209,-0.01639567489028512,0.041609168616046986,0.0573527030646801
2026-01-13 16:45:27.425141,2.9996848106384277,-0.00037867651553824544,45.00128936767578,0.0001533684117021039,0.0004908128757961094,0.0009924990590661764,47.50400161743164,53.5880012512207,45.564998626708984,60.513999938964844,38.96099853515625,46.979000091552734,1768293927,324118107,X6-tool2,2.616515662558647,0.20146117863373772,44.8236946589864,-0.03737018509190209,-0.01639567489028512,0.041609168616046986,0.0573527030646801
2026-01-13 16:45:27.460211,2.9996848106384277,-0.00037867651553824544,45.00128936767578,0.0001533684117021039,0.0004908128757961094,0.0009924990590661764,47.50400161743164,53.5880012512207,45.56999969482422,60.513999938964844,38.96099853515625,46.979000091552734,1768293927,424579586,X6-tool2,2.608247673367825,0.2789648307301926,44.884393915705694,-0.03539806261072744,-0.01611992936049237,0.04149411851744467,0.06362184137105942
2026-01-13 16:45:27.494616,2.9996848106384277,-0.00037867651553824544,45.00128936767578,0.0001533684117021039,0.0004908128757961094,0.0009924990590661764,47.50400161743164,53.5880012512207,45.56999969482422,60.513999938964844,38.96099853515625,46.979000091552734,1768293927,424579586,X6-tool2,2.608247673367825,0.2789648307301926,44.884393915705694,-0.03539806261072744,-0.01611992936049237,0.04149411851744467,0.06362184137105942
2026-01-13 16:45:27.529100,2.9996848106384277,-0.00037867651553824544,45.00128936767578,0.0001533684117021039,0.0004908128757961094,0.0009924990590661764,47.50400161743164,53.5880012512207,45.564998626708984,60.513999938964844,38.96099853515625,46.979000091552734,1768293927,524407459,X6-tool2,2.6000711739753366,0.22742840226241795,44.89514101841015,-0.03608804291986412,-0.01599554076404896,0.04162459539567526,0.059356689453125
2026-01-13 16:45:27.563610,2.9996848106384277,-0.00037867651553824544,45.00128936767578,0.0001533684117021039,0.0004908128757961094,0.0009924990590661764,47.50400161743164,53.5880012512207,45.564998626708984,60.513999938964844,38.96099853515625,46.979000091552734,1768293927,524407459,X6-tool2,2.6000711739753366,0.22742840226241795,44.89514101841015,-0.03608804291986412,-0.01599554076404896,0.04162459539567526,0.059356689453125
2026-01-13 16:45:27.598118,2.9996848106384277,-0.00037867651553824544,45.00128936767578,0.0001533684117021039,0.0004908128757961094,0.0009924990590661764,47.50400161743164,53.5880012512207,45.56999969482422,60.513999938964844,38.96099853515625,46.979000091552734,1768293927,524407459,X6-tool2,2.6000711739753366,0.22742840226241795,44.89514101841015,-0.03608804291986412,-0.01599554076404896,0.04162459539567526,0.059356689453125
2026-01-13 16:45:27.632703,2.9996848106384277,-0.00037867651553824544,45.00128936767578,0.0001533684117021039,0.0004908128757961094,0.0009924990590661764,47.50400161743164,53.5880012512207,45.56999969482422,60.513999938964844,38.96099853515625,46.979000091552734,1768293927,624148149,X6-tool2,2.597078992875034,0.22761550430382663,44.88760994843646,-0.03648292232546307,-0.015849106013791466,0.04165644329683722,0.060238201171159744
2026-01-13 16:45:27.667457,2.9996848106384277,-0.00037867651553824544,45.00128936767578,0.0001533684117021039,0.0004908128757961094,0.0009924990590661764,47.50400161743164,53.5880012512207,45.564998626708984,60.513999938964844,38.96099853515625,46.979000091552734,1768293927,624148149,X6-tool2,2.597078992875034,0.22761550430382663,44.88760994843646,-0.03648292232546307,-0.015849106013791466,0.04165644329683722,0.060238201171159744
2026-01-13 16:45:27.701913,2.9996848106384277,-0.00037867651553824544,45.00128936767578,0.0001533684117021039,0.0004908128757961094,0.0009924990590661764,47.50400161743164,53.5880012512207,45.56999969482422,60.513999938964844,38.96099853515625,46.979000091552734,1768293927,624148149,X6-tool2,2.597078992875034,0.22761550430382663,44.88760994843646,-0.03648292232546307,-0.015849106013791466,0.04165644329683722,0.060238201171159744
2026-01-13 16:45:27.736225,2.9996848106384277,-0.00037867651553824544,45.00128936767578,0.0001533684117021039,0.0004908128757961094,0.0009924990590661764,47.50400161743164,53.5880012512207,45.56999969482422,60.513999938964844,38.96099853515625,46.979000091552734,1768293927,724050865,X6-tool2,2.597286564005843,0.18786015314234397,44.902688649454156,-0.03685868197441974,-0.015950287553225282,0.041660620539790395,0.062267303466796875
2026-01-13 16:45:27.770713,2.9996848106384277,-0.00037867651553824544,45.00128936767578,0.0001533684117021039,0.0004908128757961094,0.0009924990590661764,47.50400161743164,53.5880012512207,45.56999969482422,60.513999938964844,38.96099853515625,46.979000091552734,1768293927,724050865,X6-tool2,2.597286564005843,0.18786015314234397,44.902688649454156,-0.03685868197441974,-0.015950287553225282,0.041660620539790395,0.062267303466796875
2026-01-13 16:45:27.805041,2.9996848106384277,-0.00037867651553824544,45.00128936767578,0.0001533684117021039,0.0004908128757961094,0.0009924990590661764,47.50400161743164,53.5880012512207,45.564998626708984,60.513999938964844,38.96099853515625,46.979000091552734,1768293927,724050865,X6-tool2,2.597286564005843,0.18786015314234397,44.902688649454156,-0.03685868197441974,-0.015950287553225282,0.041660620539790395,0.062267303466796875
2026-01-13 16:45:27.839493,2.9996848106384277,-0.00037867651553824544,45.00128936767578,0.0001533684117021039,0.0004908128757961094,0.0009924990590661764,47.50400161743164,53.5880012512207,45.56999969482422,60.513999938964844,38.96099853515625,46.979000091552734,1768293927,824068626,X6-tool2,2.6153633912629606,0.18659623155844493,44.84370587634245,-0.03727280693570397,-0.01643638471266352,0.04165797120731294,0.060272216796875
2026-01-13 16:45:27.873932,2.9996848106384277,-0.00037867651553824544,45.00128936767578,0.0001533684117021039,0.0004908128757961094,0.0009924990590661764,47.50400161743164,53.5880012512207,45.56999969482422,60.513999938964844,38.96099853515625,46.979000091552734,1768293927,824068626,X6-tool2,2.6153633912629606,0.18659623155844493,44.84370587634245,-0.03727280693570397,-0.01643638471266352,0.04165797120731294,0.060272216796875
2026-01-13 16:45:27.908342,2.9996848106384277,-0.00037867651553824544,45.00128936767578,0.0001533684117021039,0.0004908128757961094,0.0009924990590661764,47.50400161743164,53.5880012512207,45.564998626708984,60.513999938964844,38.96099853515625,46.979000091552734,1768293927,824068626,X6-tool2,2.6153633912629606,0.18659623155844493,44.84370587634245,-0.03727280693570397,-0.01643638471266352,0.04165797120731294,0.060272216796875
2026-01-13 16:45:27.942672,2.9996848106384277,-0.00037867651553824544,45.00128936767578,0.0001533684117021039,0.0004908128757961094,0.0009924990590661764,47.50400161743164,53.5880012512207,45.56999969482422,60.513999938964844,38.96099853515625,46.979000091552734,1768293927,924166040,X6-tool2,2.6222033161930227,0.2494542949762825,44.84412990942686,-0.035997451343586714,-0.016535313623913674,0.04154793175800816,0.06028715893626213
2026-01-13 16:45:27.977508,2.9996848106384277,-0.00037867651553824544,45.00128936767578,0.0001533684117021039,0.0004908128757961094,0.0009924990590661764,47.50400161743164,53.5880012512207,45.56999969482422,60.513999938964844,38.96099853515625,46.979000091552734,1768293927,924166040,X6-tool2,2.6222033161930227,0.2494542949762825,44.84412990942686,-0.035997451343586714,-0.016535313623913674,0.04154793175800816,0.06028715893626213
2026-01-13 16:45:28.011916,2.9996848106384277,-0.00037867651553824544,45.00128936767578,0.0001533684117021039,0.0004908128757961094,0.0009924990590661764,47.50400161743164,53.5880012512207,45.564998626708984,60.513999938964844,38.96099853515625,46.979000091552734,1768293927,924166040,X6-tool2,2.6222033161930227,0.2494542949762825,44.84412990942686,-0.035997451343586714,-0.016535313623913674,0.04154793175800816,0.06028715893626213
2026-01-13 16:45:28.046295,2.9996848106384277,-0.00037867651553824544,45.00128936767578,0.0001533684117021039,0.0004908128757961094,0.0009924990590661764,47.50400161743164,53.5880012512207,45.56999969482422,60.513999938964844,38.96099853515625,46.979000091552734,1768293928,24269184,X6-tool2,2.59768115196214,0.24751076055868645,44.936912840881256,-0.035662658830388536,-0.015925736093081982,0.04145850340920924,0.062320392578840256
2026-01-13 16:45:28.080790,2.9996848106384277,-0.00037867651553824544,45.00128936767578,0.0001533684117021039,0.0004908128757961094,0.0009924990590661764,47.50400161743164,53.5880012512207,45.56999969482422,60.513999938964844,38.96099853515625,46.979000091552734,1768293928,24269184,X6-tool2,2.59768115196214,0.24751076055868645,44.936912840881256,-0.035662658830388536,-0.015925736093081982,0.04145850340920924,0.062320392578840256
2026-01-13 16:45:28.115275,2.9996848106384277,-0.00037867651553824544,45.00128936767578,0.0001533684117021039,0.0004908128757961094,0.0009924990590661764,47.50400161743164,53.5880012512207,45.564998626708984,60.513999938964844,38.96099853515625,46.979000091552734,1768293928,24269184,X6-tool2,2.59768115196214,0.24751076055868645,44.936912840881256,-0.035662658830388536,-0.015925736093081982,0.04145850340920924,0.062320392578840256
2026-01-13 16:45:28.149752,2.9996848106384277,-0.00037867651553824544,45.00128936767578,0.0001533684117021039,0.0004908128757961094,0.0009924990590661764,47.50400161743164,53.5880012512207,45.56999969482422,60.513999938964844,38.96099853515625,46.979000091552734,1768293928,132103522,X6-tool2,2.6344987264553765,0.2446791100178421,44.8802869800045,-0.03590364948732864,-0.016848521524449635,0.041720727703816345,0.06444963067770004
2026-01-13 16:45:28.184293,2.9996848106384277,-0.00037867651553824544,45.00128936767578,0.0001533684117021039,0.0004908128757961094,0.0009924990590661764,47.50400161743164,53.5880012512207,45.56999969482422,60.513999938964844,38.96099853515625,46.979000091552734,1768293928,132103522,X6-tool2,2.6344987264553765,0.2446791100178421,44.8802869800045,-0.03590364948732864,-0.016848521524449635,0.041720727703816345,0.06444963067770004
2026-01-13 16:45:28.218667,2.9996848106384277,-0.00037867651553824544,45.00128936767578,0.0001533684117021039,0.0004908128757961094,0.0009924990590661764,47.50400161743164,53.5880012512207,45.564998626708984,60.513999938964844,38.96099853515625,46.979000091552734,1768293928,132103522,X6-tool2,2.6344987264553765,0.2446791100178421,44.8802869800045,-0.03590364948732864,-0.016848521524449635,0.041720727703816345,0.06444963067770004
2026-01-13 16:45:28.253260,2.9996848106384277,-0.00037867651553824544,45.00128936767578,0.0001533684117021039,0.0004908128757961094,0.0009924990590661764,47.50400161743164,53.5880012512207,45.56999969482422,60.513999938964844,38.96099853515625,46.979000091552734,1768293928,231615832,X6-tool2,2.647414662349251,0.19154531766965605,44.88399749897764,-0.03690639362154995,-0.016977980152170072,0.04181934881278047,0.05881531909108162
2026-01-13 16:45:28.287616,2.9996848106384277,-0.00037867651553824544,45.00128936767578,0.0001533684117021039,0.0004908128757961094,0.0009924990590661764,47.50400161743164,53.5880012512207,45.56999969482422,60.513999938964844,38.96099853515625,46.979000091552734,1768293928,231615832,X6-tool2,2.647414662349251,0.19154531766965605,44.88399749897764,-0.03690639362154995,-0.016977980152170072,0.04181934881278047,0.05881531909108162
2026-01-13 16:45:28.322056,2.9996848106384277,-0.00037867651553824544,45.00128936767578,0.0001533684117021039,0.0004908128757961094,0.0009924990590661764,47.50400161743164,53.5880012512207,45.564998626708984,60.513999938964844,38.96099853515625,46.979000091552734,1768293928,231615832,X6-tool2,2.647414662349251,0.19154531766965605,44.88399749897764,-0.03690639362154995,-0.016977980152170072,0.04181934881278047,0.05881531909108162
2026-01-13 16:45:28.356418,2.9996848106384277,-0.00037867651553824544,45.00128936767578,0.0001533684117021039,0.0004908128757961094,0.0009924990590661764,47.50400161743164,53.5880012512207,45.56999969482422,60.513999938964844,38.96099853515625,46.979000091552734,1768293928,330934386,X6-tool2,2.595004542324333,0.19538818620568213,44.84099629657109,-0.03688512526038404,-0.016153703854935003,0.041716471936712005,0.06388410180807114
2026-01-13 16:45:28.390963,2.9996848106384277,-0.00037867651553824544,45.00128936767578,0.0001533684117021039,0.0004908128757961094,0.0009924990590661764,47.50400161743164,53.5880012512207,45.56999969482422,60.513999938964844,38.96099853515625,46.979000091552734,1768293928,330934386,X6-tool2,2.595004542324333,0.19538818620568213,44.84099629657109,-0.03688512526038404,-0.016153703854935003,0.041716471936712005,0.06388410180807114
2026-01-13 16:45:28.425389,2.9996848106384277,-0.00037867651553824544,45.00128936767578,0.0001533684117021039,0.0004908128757961094,0.0009924990590661764,47.50400161743164,53.5880012512207,45.56999969482422,60.513999938964844,38.96099853515625,46.979000091552734,1768293928,330934386,X6-tool2,2.595004542324333,0.19538818620568213,44.84099629657109,-0.03688512526038404,-0.016153703854935003,0.041716471936712005,0.06388410180807114
2026-01-13 16:45:28.460020,2.9996848106384277,-0.00037867651553824544,45.00128936767578,0.0001533684117021039,0.0004908128757961094,0.0009924990590661764,47.50400161743164,53.5880012512207,45.56999969482422,60.513999938964844,38.96099853515625,46.979000091552734,1768293928,430583132,X6-tool2,2.605545158229902,0.23523587133012258,44.86615613975694,-0.03647510679442673,-0.016198685126712097,0.041483953153505636,0.0601806640625
2026-01-13 16:45:28.495292,2.9996848106384277,-0.00037867651553824544,45.00128936767578,0.0001533684117021039,0.0004908128757961094,0.0009924990590661764,47.50400161743164,53.5880012512207,45.56999969482422,60.513999938964844,38.96099853515625,46.979000091552734,1768293928,430583132,X6-tool2,2.605545158229902,0.23523587133012258,44.86615613975694,-0.03647510679442673,-0.016198685126712097,0.041483953153505636,0.0601806640625
2026-01-13 16:45:28.529879,2.9996848106384277,-0.00037867651553824544,45.00128936767578,0.0001533684117021039,0.0004908128757961094,0.0009924990590661764,47.50400161743164,53.5880012512207,45.56999969482422,60.513999938964844,38.96099853515625,46.979000091552734,1768293928,430583132,X6-tool2,2.605545158229902,0.23523587133012258,44.86615613975694,-0.03647510679442673,-0.016198685126712097,0.041483953153505636,0.0601806640625
2026-01-13 16:45:28.564654,2.9996848106384277,-0.00037867651553824544,45.00128936767578,0.0001533684117021039,0.0004908128757961094,0.0009924990590661764,47.50400161743164,53.5880012512207,45.564998626708984,60.513999938964844,38.96099853515625,46.979000091552734,1768293928,530171876,X6-tool2,2.625808859156387,0.204165213865196,44.88958051472133,-0.03641092864923452,-0.016643593938687442,0.041765476823135125,0.061084430664777756
2026-01-13 16:45:28.598967,2.9996848106384277,-0.00037867651553824544,45.00128936767578,0.0001533684117021039,0.0004908128757961094,0.0009924990590661764,47.50400161743164,53.5880012512207,45.56999969482422,60.513999938964844,38.96099853515625,46.979000091552734,1768293928,530171876,X6-tool2,2.625808859156387,0.204165213865196,44.88958051472133,-0.03641092864923452,-0.016643593938687442,0.041765476823135125,0.061084430664777756
2026-01-13 16:45:28.633360,3.006159782409668,0.05832010135054588,44.98955535888672,0.0153964227065444,-0.009558613412082195,-0.029994256794452667,47.40999984741211,53.42300033569336,45.65800094604492,60.569000244140625,38.96099853515625,46.994998931884766,1768293928,629178927,X6-tool2,2.6235244945993883,0.2286417308854412,44.90360333785452,-0.03675250039878464,-0.016108432388421294,0.04151040416132571,0.06174977496266365
2026-01-13 16:45:28.667658,3.010436773300171,0.16492757201194763,44.975914001464844,0.0379127636551857,-0.024509141221642494,-0.05003252997994423,47.222999572753906,53.143001556396484,45.79499816894531,60.67300033569336,38.96099853515625,47.06100082397461,1768293928,629178927,X6-tool2,2.6235244945993883,0.2286417308854412,44.90360333785452,-0.03675250039878464,-0.016108432388421294,0.04151040416132571,0.06174977496266365
2026-01-13 16:45:28.702172,3.0122368335723877,0.21420438587665558,44.968441009521484,0.061017222702503204,-0.04506012424826622,-0.0682658851146698,47.11899948120117,53.01100158691406,45.882999420166016,60.71699905395508,38.96099853515625,47.0890007019043,1768293928,629178927,X6-tool2,2.6235244945993883,0.2286417308854412,44.90360333785452,-0.03675250039878464,-0.016108432388421294,0.04151040416132571,0.06174977496266365
2026-01-13 16:45:28.736695,2.9939842224121094,0.34341534972190857,44.95743179321289,0.04093838483095169,-0.04362943395972252,-0.057477034628391266,46.90999984741211,52.68199920654297,45.97100067138672,60.79399871826172,38.97200012207031,47.231998443603516,1768293928,729034582,X6-tool2,2.5058061798126716,0.45398575152495063,44.860653362045454,-0.03763659900122069,-0.014772371731950578,0.04416223616712824,0.08018270879983902
2026-01-13 16:45:28.771478,2.9869384765625,0.4638514220714569,44.942779541015625,0.05663600564002991,-0.030347082763910294,-0.043110452592372894,46.65800094604492,52.36899948120117,46.058998107910156,60.88199996948242,38.98899841308594,47.33599853515625,1768293928,729034582,X6-tool2,2.5058061798126716,0.45398575152495063,44.860653362045454,-0.03763659900122069,-0.014772371731950578,0.04416223616712824,0.08018270879983902
2026-01-13 16:45:28.805950,2.9638912677764893,0.5304285883903503,44.94167709350586,0.04543253406882286,-0.05287462845444679,-0.026062795892357826,46.5260009765625,52.20899963378906,46.11399841308594,60.89799880981445,38.99399948120117,47.45100021362305,1768293928,729034582,X6-tool2,2.5058061798126716,0.45398575152495063,44.860653362045454,-0.03763659900122069,-0.014772371731950578,0.04416223616712824,0.08018270879983902
2026-01-13 16:45:28.840360,2.942861795425415,0.6618559956550598,44.914283752441406,0.0238998681306839,-0.040010083466768265,-0.06000446155667305,46.31100082397461,51.83599853515625,46.207000732421875,60.91999816894531,39.027000427246094,47.56100082397461,1768293928,828318834,X6-tool2,2.5720715613689635,0.6933156186063933,44.85572711185426,-0.04184863192766077,-0.016396991945993068,0.047813211424103164,0.0681600570678711
2026-01-13 16:45:28.874918,2.912325143814087,0.7932279109954834,44.89322280883789,-0.0026928740553557873,-0.0531802698969841,-0.07496614009141922,46.08599853515625,51.479000091552734,46.3120002746582,60.9370002746582,39.04899978637695,47.709999084472656,1768293928,828318834,X6-tool2,2.5720715613689635,0.6933156186063933,44.85572711185426,-0.04184863192766077,-0.016396991945993068,0.047813211424103164,0.0681600570678711
2026-01-13 16:45:28.909358,2.873939037322998,0.9049466252326965,44.88294219970703,-0.00492479931563139,-0.03933587670326233,-0.03732182830572128,45.805999755859375,51.19300079345703,46.349998474121094,60.94200134277344,39.09299850463867,47.8849983215332,1768293928,828318834,X6-tool2,2.5720715613689635,0.6933156186063933,44.85572711185426,-0.04184863192766077,-0.016396991945993068,0.047813211424103164,0.0681600570678711
