timestamp,out_1_header.stamp.sec,out_1_header.stamp.nanosec,out_1_header.frame_id,out_1_val,out_1_speed,out_2_header.stamp.sec,out_2_header.stamp.nanosec,out_2_header.frame_id,out_2_val,out_2_speed,out_3_header.stamp.sec,out_3_header.stamp.nanosec,out_3_header.frame_id,out_3_val,out_3_speed,out_4_header.stamp.sec,out_4_header.stamp.nanosec,out_4_header.frame_id,out_4_val,out_4_speed,out_5_header.stamp.sec,out_5_header.stamp.nanosec,out_5_header.frame_id,out_5_val,out_5_speed,out_6_header.stamp.sec,out_6_header.stamp.nanosec,out_6_header.frame_id,out_6_val,out_6_speed,aimooe_coord_header.stamp.sec,aimooe_coord_header.stamp.nanosec,aimooe_coord_header.frame_id,aimooe_coord_position.x,aimooe_coord_position.y,aimooe_coord_position.z,aimooe_coord_orientation.x,aimooe_coord_orientation.y,aimooe_coord_orientation.z,aimooe_coord_mean_error
2026-01-23 10:43:38.151687,1769136218,141819542,1,202434,0,1769136218,145155700,2,218842,-1,1769136218,148489157,3,199363,0,1769136218,131809750,4,207620,0,1769136218,135149197,5,186301,0,1769136218,138449693,6,196414,0,1769136218,140618890,X6-tool2,-0.11672907799338414,-0.42715404787704336,42.66717717509289,-0.06667844294182554,0.017264084565370538,-0.0908907709491188,0.024323781952261925
2026-01-23 10:43:38.189058,1769136218,181820820,1,202434,0,1769136218,185155848,2,218842,0,1769136218,188486715,3,199363,0,1769136218,171813028,4,207620,0,1769136218,175150256,5,186301,0,1769136218,178471953,6,196414,0,1769136218,140618890,X6-tool2,-0.11672907799338414,-0.42715404787704336,42.66717717509289,-0.06667844294182554,0.017264084565370538,-0.0908907709491188,0.024323781952261925
2026-01-23 10:43:38.225753,1769136218,221820699,1,202434,0,1769136218,225170886,2,218842,6,1769136218,208488549,3,199363,0,1769136218,211808426,4,207620,0,1769136218,215153373,5,186301,0,1769136218,218471881,6,196414,0,1769136218,140618890,X6-tool2,-0.11672907799338414,-0.42715404787704336,42.66717717509289,-0.06667844294182554,0.017264084565370538,-0.0908907709491188,0.024323781952261925
2026-01-23 10:43:38.262483,1769136218,261819886,1,202434,0,1769136218,245156310,2,218848,-15,1769136218,248489167,3,199363,0,1769136218,251806234,4,207620,0,1769136218,255151432,5,186301,0,1769136218,258470538,6,196414,0,1769136218,240742675,X6-tool2,-0.16227012056472156,-0.4550614585667387,42.62881643863213,-0.06624349120439171,0.017405778995966154,-0.09075938755293299,0.02643108367919922
2026-01-23 10:43:38.297816,1769136218,281819520,1,202434,0,1769136218,285132237,2,218842,-17,1769136218,288491826,3,199363,0,1769136218,291809882,4,207620,0,1769136218,295151510,5,186301,0,1769136218,278451312,6,196414,0,1769136218,240742675,X6-tool2,-0.16227012056472156,-0.4550614585667387,42.62881643863213,-0.06624349120439171,0.017405778995966154,-0.09075938755293299,0.02643108367919922
2026-01-23 10:43:38.333476,1769136218,321820288,1,202434,0,1769136218,325156476,2,218842,-11,1769136218,328489773,3,199363,0,1769136218,331810070,4,207620,0,1769136218,315152864,5,186301,0,1769136218,318447570,6,196414,0,1769136218,240742675,X6-tool2,-0.16227012056472156,-0.4550614585667387,42.62881643863213,-0.06624349120439171,0.017405778995966154,-0.09075938755293299,0.02643108367919922
2026-01-23 10:43:38.368561,1769136218,361822167,1,202434,0,1769136218,365133073,2,218842,-6,1769136218,348490827,3,199363,0,1769136218,351810034,4,207620,0,1769136218,355151432,5,186301,0,1769136218,358472439,6,196414,0,1769136218,340819387,X6-tool2,-0.21102431049477924,-0.47979620927626465,42.57953430063421,-0.06672737609914359,0.016747647280303764,-0.09066670805251678,0.02485148049890995
2026-01-23 10:43:38.404795,1769136218,401822615,1,202434,0,1769136218,385164078,2,218848,0,1769136218,388490495,3,199363,0,1769136218,391809612,4,207620,0,1769136218,395150380,5,186301,0,1769136218,398470707,6,196414,0,1769136218,340819387,X6-tool2,-0.21102431049477924,-0.47979620927626465,42.57953430063421,-0.06672737609914359,0.016747647280303764,-0.09066670805251678,0.02485148049890995
2026-01-23 10:43:38.440582,1769136218,421820339,1,202434,0,1769136218,425165396,2,218848,-1,1769136218,428494634,3,199363,0,1769136218,431810991,4,207620,0,1769136218,435126067,5,186301,0,1769136218,438476885,6,196414,0,1769136218,340819387,X6-tool2,-0.21102431049477924,-0.47979620927626465,42.57953430063421,-0.06672737609914359,0.016747647280303764,-0.09066670805251678,0.02485148049890995
2026-01-23 10:43:38.476003,1769136218,461818127,1,202434,0,1769136218,465130463,2,218848,-17,1769136218,468486282,3,199363,0,1769136218,471785807,4,207620,0,1769136218,455148042,5,186301,0,1769136218,458450778,6,196414,0,1769136218,440468025,X6-tool2,-0.18581276377870137,-0.43637758821744704,42.59300335957575,-0.06554491225170346,0.01683374497939532,-0.09100785904125056,0.027400335296988487
2026-01-23 10:43:38.511677,1769136218,498460307,1,202632,113,1769136218,501823235,2,219001,79,1769136218,505154232,3,199550,85,1769136218,508455949,4,208092,153,1769136218,491816583,5,186323,16,1769136218,495117989,6,196447,22,1769136218,440468025,X6-tool2,-0.18581276377870137,-0.43637758821744704,42.59300335957575,-0.06554491225170346,0.01683374497939532,-0.09100785904125056,0.027400335296988487
2026-01-23 10:43:38.546979,1769136218,538479825,1,203066,120,1769136218,541804832,2,219337,96,1769136218,545153150,3,199891,79,1769136218,528456403,4,208405,175,1769136218,531815871,5,186422,23,1769136218,535117217,6,196545,23,1769136218,540606580,X6-tool2,-0.1448201464528842,-0.45196913944424355,42.65020374622823,-0.06650123242509723,0.017137992792745183,-0.09093515946275461,0.02759774588048458
2026-01-23 10:43:38.581958,1769136218,578483634,1,203527,113,1769136218,561777985,2,219474,64,1769136218,565152024,3,200056,94,1769136218,568449770,4,209086,184,1769136218,571817479,5,186509,24,1769136218,575144416,6,196655,31,1769136218,540606580,X6-tool2,-0.1448201464528842,-0.45196913944424355,42.65020374622823,-0.06650123242509723,0.017137992792745183,-0.09093515946275461,0.02759774588048458
2026-01-23 10:43:38.618322,1769136218,598484858,1,203752,96,1769136218,601799174,2,219809,95,1769136218,605152002,3,200413,89,1769136218,608466679,4,209751,150,1769136218,611816167,5,186630,33,1769136218,615131423,6,196787,29,1769136218,540606580,X6-tool2,-0.1448201464528842,-0.45196913944424355,42.65020374622823,-0.06650123242509723,0.017137992792745183,-0.09093515946275461,0.02759774588048458
2026-01-23 10:43:38.654568,1769136218,638481786,1,204181,101,1769136218,641797502,2,220188,110,1769136218,645150441,3,200814,77,1769136218,648445206,4,210383,170,1769136218,651813595,5,186757,34,1769136218,635132188,6,196848,30,1769136218,640630201,X6-tool2,-0.19783112152193089,-0.4416735639402404,42.590851057713124,-0.06636568078018669,0.016628816444942445,-0.09139710211364083,0.026169776916503906
2026-01-23 10:43:38.690375,1769136218,678457343,1,204587,108,1769136218,681806931,2,220573,103,1769136218,685151918,3,201226,77,1769136218,688449765,4,211097,170,1769136218,671827949,5,186828,38,1769136218,675136006,6,196974,24,1769136218,640630201,X6-tool2,-0.19783112152193089,-0.4416735639402404,42.590851057713124,-0.06636568078018669,0.016628816444942445,-0.09139710211364083,0.026169776916503906
2026-01-23 10:43:38.725228,1769136218,718457971,1,205054,118,1769136218,721797079,2,220974,99,1769136218,705155272,3,201407,95,1769136218,708467399,4,211432,182,1769136218,711820357,5,186943,34,1769136218,715132014,6,197078,23,1769136218,640630201,X6-tool2,-0.19783112152193089,-0.4416735639402404,42.590851057713124,-0.06636568078018669,0.016628816444942445,-0.09139710211364083,0.026169776916503906
2026-01-23 10:43:38.760597,1769136218,758482120,1,205532,118,1769136218,741796683,2,221160,89,1769136218,745152990,3,201775,91,1769136218,748463387,4,212108,165,1769136218,751817405,5,187064,29,1769136218,755129472,6,197188,25,1769136218,740629111,X6-tool2,-0.17863058224023795,-0.45767984490666774,42.60614100338987,-0.06663308562164455,0.01704100437323898,-0.09173468527830733,0.025996843352913857
2026-01-23 10:43:38.795810,1769136218,778455993,1,205774,113,1769136218,781794450,2,221561,82,1769136218,785152679,3,202137,87,1769136218,788464666,4,212767,146,1769136218,791818533,5,187202,32,1769136218,795128130,6,197287,19,1769136218,740629111,X6-tool2,-0.17863058224023795,-0.45767984490666774,42.60614100338987,-0.06663308562164455,0.01704100437323898,-0.09173468527830733,0.025996843352913857
2026-01-23 10:43:38.831789,1769136218,818457091,1,206263,145,1769136218,821795628,2,221946,47,1769136218,825152227,3,202522,86,1769136218,828462513,4,213442,175,1769136218,811820017,5,187273,40,1769136218,815128994,6,197336,32,1769136218,740629111,X6-tool2,-0.17863058224023795,-0.45767984490666774,42.60614100338987,-0.06663308562164455,0.01704100437323898,-0.09173468527830733,0.025996843352913857
2026-01-23 10:43:38.867378,1769136218,858457429,1,206702,91,1769136218,861795787,2,222336,116,1769136218,865152325,3,202912,98,1769136218,848463507,4,213810,192,1769136218,851819485,5,187394,35,1769136218,855130902,6,197452,27,1769136218,840517047,X6-tool2,-0.04661573814228482,-0.35906329389210867,42.678095717031056,-0.06511193626384319,0.017018429611004634,-0.09428690350376835,0.022166887298226357
2026-01-23 10:43:38.902537,1769136218,898457597,1,207142,107,1769136218,901797675,2,222687,102,1769136218,885152199,3,203110,99,1769136218,888467515,4,214503,162,1769136218,891818313,5,187537,39,1769136218,895128640,6,197573,33,1769136218,840517047,X6-tool2,-0.04661573814228482,-0.35906329389210867,42.678095717031056,-0.06511193626384319,0.017018429611004634,-0.09428690350376835,0.022166887298226357
2026-01-23 10:43:38.937545,1769136218,918457311,1,207361,117,1769136218,921796689,2,222896,108,1769136218,925153457,3,203505,103,1769136218,928466883,4,215167,172,1769136218,931817362,5,187718,22,1769136218,935107367,6,197682,25,1769136218,840517047,X6-tool2,-0.04661573814228482,-0.35906329389210867,42.678095717031056,-0.06511193626384319,0.017018429611004634,-0.09428690350376835,0.022166887298226357
2026-01-23 10:43:38.972613,1769136218,958484060,1,207861,128,1769136218,961794127,2,223330,118,1769136218,965152225,3,203939,109,1769136218,968473022,4,215859,179,1769136218,971818299,5,187844,32,1769136218,955127612,6,197737,26,1769136218,940534339,X6-tool2,0.2811712326254573,-0.18638339458619152,42.91507703539411,-0.06353864545028313,0.01633166311807528,-0.0978068170904203,0.022475242614746094
2026-01-23 10:43:39.007977,1769136218,998481008,1,208356,116,1769136219,1794104,2,223770,109,1769136219,5152763,3,204351,87,1769136218,988469586,4,216205,172,1769136218,991818824,5,187916,32,1769136218,995129700,6,197858,30,1769136218,940534339,X6-tool2,0.2811712326254573,-0.18638339458619152,42.91507703539411,-0.06353864545028313,0.01633166311807528,-0.0978068170904203,0.022475242614746094
2026-01-23 10:43:39.043416,1769136219,38482616,1,208823,105,1769136219,41792103,2,224160,88,1769136219,25154447,3,204538,101,1769136219,28463543,4,216953,198,1769136219,31818432,5,188080,57,1769136219,35127298,6,197996,40,1769136219,40669043,X6-tool2,0.5355100066976491,0.03992707146075371,43.043319671433494,-0.062295485769031836,0.014515740839211517,-0.10251359143261468,0.027377447113394737
2026-01-23 10:43:39.078526,1769136219,58483180,1,209053,123,1769136219,61796067,2,224352,104,1769136219,65152185,3,204906,92,1769136219,68465641,4,217595,170,1769136219,71815259,5,188218,31,1769136219,75135566,6,198127,32,1769136219,40669043,X6-tool2,0.5355100066976491,0.03992707146075371,43.043319671433494,-0.062295485769031836,0.014515740839211517,-0.10251359143261468,0.027377447113394737
2026-01-23 10:43:39.114100,1769136219,98458087,1,209526,121,1769136219,101795834,2,224758,117,1769136219,105127332,3,205307,104,1769136219,108490400,4,218304,165,1769136219,111819647,5,188344,32,1769136219,95107639,6,198193,41,1769136219,40669043,X6-tool2,0.5355100066976491,0.03992707146075371,43.043319671433494,-0.062295485769031836,0.014515740839211517,-0.10251359143261468,0.027377447113394737
2026-01-23 10:43:39.149044,1769136219,138456275,1,209993,130,1769136219,141796852,2,225165,107,1769136219,145150940,3,205735,110,1769136219,148467267,4,219012,182,1769136219,131790690,5,188399,30,1769136219,135138348,6,198369,44,1769136219,140755986,X6-tool2,0.9377964404139538,0.1390833368350201,43.31946092753544,-0.056368345024402654,0.013105317423127543,-0.10949160112296824,0.020320257171988487
2026-01-23 10:43:39.184012,1769136219,178455962,1,210487,127,1769136219,181799430,2,225582,102,1769136219,165125983,3,205950,103,1769136219,168441920,4,219370,181,1769136219,171791418,5,188525,32,1769136219,175113985,6,198545,37,1769136219,140755986,X6-tool2,0.9377964404139538,0.1390833368350201,43.31946092753544,-0.056368345024402654,0.013105317423127543,-0.10949160112296824,0.020320257171988487
2026-01-23 10:43:39.219623,1769136219,218458150,1,210998,124,1769136219,201801164,2,225802,114,1769136219,205124961,3,206367,98,1769136219,208469929,4,220067,156,1769136219,211820457,5,188635,25,1769136219,215131783,6,198710,42,1769136219,140755986,X6-tool2,0.9377964404139538,0.1390833368350201,43.31946092753544,-0.056368345024402654,0.013105317423127543,-0.10949160112296824,0.020320257171988487
2026-01-23 10:43:39.255196,1769136219,238482935,1,211251,131,1769136219,241798892,2,226274,108,1769136219,245154600,3,206801,119,1769136219,248463017,4,220748,192,1769136219,251818615,5,188745,33,1769136219,235128457,6,198798,48,1769136219,240531168,X6-tool2,1.2239632401633747,0.1578645124719346,43.53216476507475,-0.05401857901473828,0.011044381427878083,-0.11581846378282853,0.02598349191248417
2026-01-23 10:43:39.291497,1769136219,278457892,1,211729,117,1769136219,281794920,2,226692,98,1769136219,285153428,3,207213,120,1769136219,288465034,4,221484,199,1769136219,271815778,5,188806,31,1769136219,275115684,6,198984,44,1769136219,240531168,X6-tool2,1.2239632401633747,0.1578645124719346,43.53216476507475,-0.05401857901473828,0.011044381427878083,-0.11581846378282853,0.02598349191248417
2026-01-23 10:43:39.327141,1769136219,318448920,1,212212,123,1769136219,321795977,2,227076,83,1769136219,325130635,3,207587,101,1769136219,308458438,4,221830,170,1769136219,311797225,5,188943,36,1769136219,315126913,6,199166,43,1769136219,240531168,X6-tool2,1.2239632401633747,0.1578645124719346,43.53216476507475,-0.05401857901473828,0.011044381427878083,-0.11581846378282853,0.02598349191248417
2026-01-23 10:43:39.362413,1769136219,358460618,1,212690,110,1769136219,361795165,2,227499,104,1769136219,345130199,3,207779,96,1769136219,348467226,4,222528,182,1769136219,351794293,5,189086,41,1769136219,355127680,6,199352,48,1769136219,340695952,X6-tool2,1.4614172423753264,0.25980314011997274,43.711733470688614,-0.04965284822952511,0.009048539352391317,-0.12209448288811033,0.024641672149300575
2026-01-23 10:43:39.397197,1769136219,378461172,1,212953,137,1769136219,381795239,2,227697,119,1769136219,385128456,3,208191,105,1769136219,388465694,4,223220,170,1769136219,391799781,5,189261,43,1769136219,395127868,6,199523,44,1769136219,340695952,X6-tool2,1.4614172423753264,0.25980314011997274,43.711733470688614,-0.04965284822952511,0.009048539352391317,-0.12209448288811033,0.024641672149300575
2026-01-23 10:43:39.432434,1769136219,418456430,1,213459,126,1769136219,421793767,2,228137,111,1769136219,425129715,3,208630,107,1769136219,428462241,4,223923,170,1769136219,431799599,5,189437,39,1769136219,415123852,6,199611,40,1769136219,340695952,X6-tool2,1.4614172423753264,0.25980314011997274,43.711733470688614,-0.04965284822952511,0.009048539352391317,-0.12209448288811033,0.024641672149300575
2026-01-23 10:43:39.467305,1769136219,458460617,1,213975,117,1769136219,461802915,2,228576,107,1769136219,465127672,3,209064,105,1769136219,448463906,4,224308,191,1769136219,451791643,5,189525,53,1769136219,455126590,6,199781,39,1769136219,440526246,X6-tool2,1.7636150651795326,0.25347139307876926,43.943283197148865,-0.046392528048573224,0.007449204293347708,-0.1284351724997955,0.020216306671500206
2026-01-23 10:43:39.502511,1769136219,498460185,1,214459,115,1769136219,501792923,2,229032,103,1769136219,485124876,3,209279,97,1769136219,488464904,4,225000,167,1769136219,491793391,5,189723,49,1769136219,495132898,6,199940,37,1769136219,440526246,X6-tool2,1.7636150651795326,0.25347139307876926,43.943283197148865,-0.046392528048573224,0.007449204293347708,-0.1284351724997955,0.020216306671500206
2026-01-23 10:43:39.537284,1769136219,518456479,1,214695,118,1769136219,521797557,2,229257,98,1769136219,525125024,3,209685,117,1769136219,528463081,4,225566,22,1769136219,531789539,5,189888,37,1769136219,535113306,6,200083,32,1769136219,440526246,X6-tool2,1.7636150651795326,0.25347139307876926,43.943283197148865,-0.046392528048573224,0.007449204293347708,-0.1284351724997955,0.020216306671500206
2026-01-23 10:43:39.572054,1769136219,558482928,1,215024,26,1769136219,561816005,2,229664,97,1769136219,565152343,3,210015,28,1769136219,568487130,4,225610,0,1769136219,551818473,5,189954,33,1769136219,555150731,6,200149,32,1769136219,540715533,X6-tool2,1.945430249753422,0.32863773794806156,44.101611973651174,-0.043508239451600816,0.0026772392349519282,-0.13275407520475266,0.019896507263183594
2026-01-23 10:43:39.607555,1769136219,598482276,1,215057,0,1769136219,601818443,2,229889,14,1769136219,605151180,3,210048,0,1769136219,588484364,4,225610,3,1769136219,591824582,5,190107,37,1769136219,595152288,6,200286,39,1769136219,540715533,X6-tool2,1.945430249753422,0.32863773794806156,44.101611973651174,-0.043508239451600816,0.0026772392349519282,-0.13275407520475266,0.019896507263183594
2026-01-23 10:43:39.643072,1769136219,638483524,1,215063,0,1769136219,641815711,2,229900,0,1769136219,625151954,3,210053,0,1769136219,628483512,4,225615,0,1769136219,631817959,5,190261,37,1769136219,635150386,6,200418,38,1769136219,640690121,X6-tool2,1.9904355642264653,0.37457057446953923,44.16422252943637,-0.04204809800289024,0.0003239611659359336,-0.13448862352168037,0.021516164764761925
2026-01-23 10:43:39.678174,1769136219,658481697,1,215063,0,1769136219,661816325,2,229905,0,1769136219,665150112,3,210053,0,1769136219,668486069,4,225615,0,1769136219,671812367,5,190366,17,1769136219,675154204,6,200572,40,1769136219,640690121,X6-tool2,1.9904355642264653,0.37457057446953923,44.16422252943637,-0.04204809800289024,0.0003239611659359336,-0.13448862352168037,0.021516164764761925
2026-01-23 10:43:39.713454,1769136219,698481555,1,215063,0,1769136219,701815673,2,229905,0,1769136219,705151670,3,210053,0,1769136219,708484768,4,225615,0,1769136219,711815494,5,190377,0,1769136219,695150178,6,200660,43,1769136219,640690121,X6-tool2,1.9904355642264653,0.37457057446953923,44.16422252943637,-0.04204809800289024,0.0003239611659359336,-0.13448862352168037,0.021516164764761925
2026-01-23 10:43:39.748342,1769136219,738456622,1,215063,0,1769136219,741814621,2,229905,0,1769136219,745151818,3,210053,0,1769136219,728486122,4,225615,0,1769136219,731817259,5,190377,0,1769136219,735128005,6,200814,35,1769136219,740581987,X6-tool2,2.0695572935286854,0.36447880386723913,44.274112653608924,-0.041758270921794134,2.4976257202570104e-05,-0.13468666055454231,0.019976934418082237
2026-01-23 10:43:39.783790,1769136219,778480091,1,215063,0,1769136219,781817918,2,229905,-1,1769136219,765150831,3,210053,0,1769136219,768485719,4,225615,0,1769136219,771814957,5,190377,0,1769136219,775154324,6,200869,10,1769136219,740581987,X6-tool2,2.0695572935286854,0.36447880386723913,44.274112653608924,-0.041758270921794134,2.4976257202570104e-05,-0.13468666055454231,0.019976934418082237
2026-01-23 10:43:39.819254,1769136219,818467228,1,215063,0,1769136219,801816992,2,229905,0,1769136219,805152790,3,210053,0,1769136219,808477697,4,225615,0,1769136219,811802654,5,190377,0,1769136219,815144622,6,200874,0,1769136219,740581987,X6-tool2,2.0695572935286854,0.36447880386723913,44.274112653608924,-0.041758270921794134,2.4976257202570104e-05,-0.13468666055454231,0.019976934418082237
2026-01-23 10:43:39.854418,1769136219,838466432,1,215063,0,1769136219,841802840,2,229905,-5,1769136219,845131966,3,210053,0,1769136219,848470044,4,225615,0,1769136219,851799152,5,190377,5,1769136219,835139535,6,200874,0,1769136219,848611709,X6-tool2,2.089082622892153,0.4093006399534647,44.29487644854773,-0.041986654490088725,-0.0006543582905541306,-0.13475050847734665,0.0229924526065588
2026-01-23 10:43:39.890340,1769136219,878466710,1,215057,0,1769136219,881802957,2,229905,0,1769136219,885135215,3,210053,0,1769136219,888466842,4,225615,0,1769136219,871799695,5,190377,0,1769136219,875115572,6,200874,0,1769136219,848611709,X6-tool2,2.089082622892153,0.4093006399534647,44.29487644854773,-0.041986654490088725,-0.0006543582905541306,-0.13475050847734665,0.0229924526065588
2026-01-23 10:43:39.925761,1769136219,918441287,1,215057,0,1769136219,921801445,2,229905,4,1769136219,925133232,3,210053,0,1769136219,908465216,4,225615,0,1769136219,911798213,5,190382,0,1769136219,915113430,6,200874,0,1769136219,848611709,X6-tool2,2.089082622892153,0.4093006399534647,44.29487644854773,-0.041986654490088725,-0.0006543582905541306,-0.13475050847734665,0.0229924526065588
2026-01-23 10:43:39.960598,1769136219,958465206,1,215057,0,1769136219,941778179,2,229905,0,1769136219,945110725,3,210053,0,1769136219,948450953,4,225615,0,1769136219,951798801,5,190382,2,1769136219,955133829,6,200874,0,1769136219,948045369,X6-tool2,2.027435895935885,0.41291286487405643,44.24570964749039,-0.04184442883811661,-0.0008289989209449358,-0.1347328377612968,0.021749496459960938
2026-01-23 10:43:39.995700,1769136219,978474610,1,215057,0,1769136219,981806347,2,229905,0,1769136219,985133405,3,210053,0,1769136219,988469062,4,225615,0,1769136219,991797559,5,190382,8,1769136219,995137086,6,200874,0,1769136219,948045369,X6-tool2,2.027435895935885,0.41291286487405643,44.24570964749039,-0.04184442883811661,-0.0008289989209449358,-0.1347328377612968,0.021749496459960938
2026-01-23 10:43:40.030712,1769136220,18443597,1,215057,0,1769136220,21778834,2,229905,0,1769136220,25107631,3,210053,0,1769136220,28467950,4,225615,0,1769136220,11777682,5,190382,0,1769136220,15108609,6,200874,0,1769136219,948045369,X6-tool2,2.027435895935885,0.41291286487405643,44.24570964749039,-0.04184442883811661,-0.0008289989209449358,-0.1347328377612968,0.021749496459960938
2026-01-23 10:43:40.065819,1769136220,58465175,1,215057,0,1769136220,61801303,2,229905,0,1769136220,65134940,3,210053,0,1769136220,48447692,4,225615,0,1769136220,51803521,5,190382,0,1769136220,55132088,6,200874,0,1769136220,47353884,X6-tool2,2.0164330402222284,0.4319752275712746,44.235368002981744,-0.04190865448988415,-0.0010046928782009943,-0.134948546915508,0.021507898345589638
2026-01-23 10:43:40.100856,1769136220,98471543,1,215057,0,1769136220,81805566,2,229905,0,1769136220,85134084,3,210053,0,1769136220,88467141,4,225615,0,1769136220,91798548,5,190382,0,1769136220,95134315,6,200874,0,1769136220,47353884,X6-tool2,2.0164330402222284,0.4319752275712746,44.235368002981744,-0.04190865448988415,-0.0010046928782009943,-0.134948546915508,0.021507898345589638
2026-01-23 10:43:40.136500,1769136220,118444786,1,215057,0,1769136220,121777663,2,229911,0,1769136220,125140151,3,210053,0,1769136220,128444397,4,225615,0,1769136220,131797726,5,190382,0,1769136220,135134823,6,200874,0,1769136220,47353884,X6-tool2,2.0164330402222284,0.4319752275712746,44.235368002981744,-0.04190865448988415,-0.0010046928782009943,-0.134948546915508,0.021507898345589638
2026-01-23 10:43:40.171539,1769136220,158445064,1,215057,0,1769136220,161776971,2,229911,4,1769136220,165130308,3,210053,0,1769136220,168465946,4,225615,0,1769136220,151796790,5,190382,0,1769136220,155110916,6,200874,0,1769136220,146828324,X6-tool2,2.0416222187392643,0.43072673924710236,44.25616831667761,-0.04204372424572182,-0.0012062715855222508,-0.134873746435098,0.025671005249023438
2026-01-23 10:43:40.207039,1769136220,198450291,1,215057,0,1769136220,201802359,2,229911,0,1769136220,205109985,3,210053,0,1769136220,188467470,4,225615,0,1769136220,191798277,5,190382,0,1769136220,195111144,6,200874,0,1769136220,146828324,X6-tool2,2.0416222187392643,0.43072673924710236,44.25616831667761,-0.04204372424572182,-0.0012062715855222508,-0.134873746435098,0.025671005249023438
2026-01-23 10:43:40.241811,1769136220,238467279,1,215057,0,1769136220,221808123,2,229911,1,1769136220,225131090,3,210053,0,1769136220,228467597,4,225615,0,1769136220,231802045,5,190382,0,1769136220,235133552,6,200874,0,1769136220,146828324,X6-tool2,2.0416222187392643,0.43072673924710236,44.25616831667761,-0.04204372424572182,-0.0012062715855222508,-0.134873746435098,0.025671005249023438
2026-01-23 10:43:40.276995,1769136220,258464493,1,215057,0,1769136220,261778169,2,229905,0,1769136220,265108197,3,210053,0,1769136220,268466255,4,225615,0,1769136220,271801792,5,190382,0,1769136220,275134619,6,200874,0,1769136220,246397868,X6-tool2,2.090220488305454,0.42181587512272184,44.292708137670026,-0.0419101775773803,-0.0010809639911856796,-0.13469733365617484,0.02249622344970703
2026-01-23 10:43:40.311801,1769136220,298474971,1,215057,0,1769136220,301805528,2,229911,0,1769136220,305138615,3,210053,0,1769136220,308467633,4,225615,0,1769136220,291804557,5,190382,0,1769136220,295133743,6,200874,0,1769136220,246397868,X6-tool2,2.090220488305454,0.42181587512272184,44.292708137670026,-0.0419101775773803,-0.0010809639911856796,-0.13469733365617484,0.02249622344970703
2026-01-23 10:43:40.347075,1769136220,338443827,1,215057,0,1769136220,341783265,2,229911,0,1769136220,345133623,3,210053,0,1769136220,328443035,4,225615,0,1769136220,331795154,5,190382,0,1769136220,335135301,6,200874,0,1769136220,345973243,X6-tool2,2.1096186190223483,0.41470761293951725,44.31454960308381,-0.04243687515893255,-0.0007475712386837018,-0.13486163400448362,0.0241521205753088
2026-01-23 10:43:40.382032,1769136220,378472416,1,215057,0,1769136220,361783219,2,229911,0,1769136220,365132257,3,210053,0,1769136220,368444963,4,225615,0,1769136220,371805481,5,190382,0,1769136220,375132749,6,200874,0,1769136220,345973243,X6-tool2,2.1096186190223483,0.41470761293951725,44.31454960308381,-0.04243687515893255,-0.0007475712386837018,-0.13486163400448362,0.0241521205753088
2026-01-23 10:43:40.417489,1769136220,398471940,1,215057,0,1769136220,401799727,2,229911,0,1769136220,405132304,3,210053,0,1769136220,408471271,4,225615,0,1769136220,411802369,5,190382,0,1769136220,415133866,6,200874,0,1769136220,345973243,X6-tool2,2.1096186190223483,0.41470761293951725,44.31454960308381,-0.04243687515893255,-0.0007475712386837018,-0.13486163400448362,0.0241521205753088
2026-01-23 10:43:40.452615,1769136220,438465327,1,215057,0,1769136220,441800145,2,229911,0,1769136220,445132932,3,210053,0,1769136220,448470830,4,225615,0,1769136220,451803237,5,190382,0,1769136220,435139380,6,200874,0,1769136220,445421982,X6-tool2,2.045703138382838,0.4218817666610632,44.25863794350874,-0.042675423529772584,-0.001199085609468607,-0.13467156714099923,0.02235190011560917
2026-01-23 10:43:40.487998,1769136220,478561188,1,215057,0,1769136220,481781772,2,229911,0,1769136220,485136720,3,210053,0,1769136220,468467693,4,225615,0,1769136220,471798460,5,190382,0,1769136220,475116447,6,200874,0,1769136220,445421982,X6-tool2,2.045703138382838,0.4218817666610632,44.25863794350874,-0.042675423529772584,-0.001199085609468607,-0.13467156714099923,0.02235190011560917
2026-01-23 10:43:40.523096,1769136220,518458402,1,215057,0,1769136220,521803920,2,229911,0,1769136220,505134553,3,210053,0,1769136220,508466530,4,225615,0,1769136220,511803788,5,190382,0,1769136220,515113035,6,200874,0,1769136220,445421982,X6-tool2,2.045703138382838,0.4218817666610632,44.25863794350874,-0.042675423529772584,-0.001199085609468607,-0.13467156714099923,0.02235190011560917
2026-01-23 10:43:40.558038,1769136220,538445685,1,215057,0,1769136220,541798734,2,229911,0,1769136220,545136171,3,210053,0,1769136220,548476099,4,225615,0,1769136220,551800846,5,190382,0,1769136220,555111372,6,200874,0,1769136220,544947314,X6-tool2,2.0482276285200083,0.37069330332892025,44.25517943123647,-0.04261790665577767,-0.0016368175015449558,-0.13460422601221575,0.025088945403695107
2026-01-23 10:43:40.593336,1769136220,578472584,1,215057,-5,1769136220,581753150,2,229911,0,1769136220,585132248,3,210053,0,1769136220,588467686,4,225615,0,1769136220,591799983,5,190382,0,1769136220,575153417,6,200874,0,1769136220,544947314,X6-tool2,2.0482276285200083,0.37069330332892025,44.25517943123647,-0.04261790665577767,-0.0016368175015449558,-0.13460422601221575,0.025088945403695107
2026-01-23 10:43:40.628423,1769136220,618461941,1,215057,0,1769136220,621800609,2,229911,5,1769136220,625127966,3,210053,0,1769136220,608469280,4,225615,0,1769136220,611797957,5,190382,0,1769136220,615135554,6,200874,0,1769136220,544947314,X6-tool2,2.0482276285200083,0.37069330332892025,44.25517943123647,-0.04261790665577767,-0.0016368175015449558,-0.13460422601221575,0.025088945403695107
2026-01-23 10:43:40.663984,1769136220,658446298,1,215057,0,1769136220,661803527,2,229911,0,1769136220,645130630,3,210053,0,1769136220,648467407,4,225615,0,1769136220,651797054,5,190382,0,1769136220,655131642,6,200874,0,1769136220,644342552,X6-tool2,2.027302536487717,0.41780850089960264,44.24088726103286,-0.04214128996486175,-0.001461288371077081,-0.134740155345252,0.023365339264273643
2026-01-23 10:43:40.699090,1769136220,698447106,1,215057,0,1769136220,681800541,2,229911,0,1769136220,685111067,3,210053,0,1769136220,688468705,4,225615,0,1769136220,691800212,5,190382,0,1769136220,695135050,6,200874,0,1769136220,644342552,X6-tool2,2.027302536487717,0.41780850089960264,44.24088726103286,-0.04214128996486175,-0.001461288371077081,-0.134740155345252,0.023365339264273643
2026-01-23 10:43:40.734094,1769136220,718442690,1,215057,0,1769136220,721801858,2,229911,0,1769136220,725070163,3,210053,0,1769136220,728451182,4,225615,0,1769136220,731799500,5,190382,0,1769136220,715137783,6,200874,0,1769136220,644342552,X6-tool2,2.027302536487717,0.41780850089960264,44.24088726103286,-0.04214128996486175,-0.001461288371077081,-0.134740155345252,0.023365339264273643
2026-01-23 10:43:40.769036,1769136220,758473228,1,215057,0,1769136220,761795976,2,229911,0,1769136220,765131213,3,210053,0,1769136220,768471760,4,225615,0,1769136220,751801494,5,190382,0,1769136220,755134681,6,200874,0,1769136220,743923827,X6-tool2,2.087414942113901,0.4415805871686643,44.31278491042907,-0.04238319285667517,-0.0008173824953654555,-0.1347135343309265,0.02448495291173458
2026-01-23 10:43:40.805008,1769136220,798456705,1,215057,0,1769136220,801803093,2,229911,0,1769136220,785126246,3,210053,0,1769136220,788471504,4,225615,0,1769136220,791796791,5,190382,0,1769136220,795136329,6,200874,0,1769136220,743923827,X6-tool2,2.087414942113901,0.4415805871686643,44.31278491042907,-0.04238319285667517,-0.0008173824953654555,-0.1347135343309265,0.02448495291173458
2026-01-23 10:43:40.840206,1769136220,838441043,1,215057,0,1769136220,821805887,2,229911,0,1769136220,825130894,3,210053,0,1769136220,828469802,4,225615,0,1769136220,831838660,5,190382,0,1769136220,835135096,6,200874,0,1769136220,743923827,X6-tool2,2.087414942113901,0.4415805871686643,44.31278491042907,-0.04238319285667517,-0.0008173824953654555,-0.1347135343309265,0.02448495291173458
2026-01-23 10:43:40.875195,1769136220,858458127,1,215057,0,1769136220,861781614,2,229911,0,1769136220,865126932,3,210053,0,1769136220,868450609,4,225615,0,1769136220,871791906,5,190382,0,1769136220,855117400,6,200874,0,1769136220,843197060,X6-tool2,2.0009257541750816,0.3948980913634689,44.21808165048124,-0.042272759919048546,-0.0013985894681635327,-0.13483078042867444,0.02291584014892578
2026-01-23 10:43:40.910128,1769136220,898463895,1,215057,0,1769136220,901806512,2,229911,0,1769136220,905129299,3,210053,0,1769136220,908473437,4,225615,0,1769136220,891800400,5,190382,-10,1769136220,895143828,6,200874,0,1769136220,843197060,X6-tool2,2.0009257541750816,0.3948980913634689,44.21808165048124,-0.042272759919048546,-0.0013985894681635327,-0.13483078042867444,0.02291584014892578
2026-01-23 10:43:40.944923,1769136220,938458132,1,215057,0,1769136220,941799770,2,229911,0,1769136220,925108943,3,210053,0,1769136220,928446390,4,225615,0,1769136220,931775957,5,190382,0,1769136220,935113014,6,200874,0,1769136220,942819026,X6-tool2,2.082240338865986,0.3945688345628112,44.273782188745336,-0.04193451814844023,-0.0015800183053435442,-0.13485204896242411,0.02283255197107792
2026-01-23 10:43:40.980401,1769136220,978476690,1,215057,0,1769136220,961807054,2,229911,0,1769136220,965128121,3,210053,0,1769136220,968474249,4,225615,0,1769136220,971794935,5,190382,0,1769136220,975053440,6,200874,0,1769136220,942819026,X6-tool2,2.082240338865986,0.3945688345628112,44.273782188745336,-0.04193451814844023,-0.0015800183053435442,-0.13485204896242411,0.02283255197107792
2026-01-23 10:43:41.015623,1769136220,998506985,1,215057,0,1769136221,1809862,2,229911,0,1769136221,5131778,3,210053,0,1769136221,8474736,4,225615,0,1769136221,11779992,5,190382,0,1769136221,15113970,6,200874,0,1769136220,942819026,X6-tool2,2.082240338865986,0.3945688345628112,44.273782188745336,-0.04193451814844023,-0.0015800183053435442,-0.13485204896242411,0.02283255197107792
2026-01-23 10:43:41.050610,1769136221,38449221,1,215057,0,1769136221,41779308,2,229911,0,1769136221,45086314,3,210053,0,1769136221,48481384,4,225615,0,1769136221,31782646,5,190382,0,1769136221,35124404,6,200874,0,1769136221,42271575,X6-tool2,2.125914344081182,0.4291402482848891,44.331601257924795,-0.042453448105863746,-0.0012357367909051722,-0.13481020302947658,0.021648406982421875
2026-01-23 10:43:41.085792,1769136221,78502240,1,215057,0,1769136221,81793036,2,229911,0,1769136221,85175555,3,210053,0,1769136221,68472177,4,225615,0,1769136221,71798024,5,190382,0,1769136221,75139842,6,200874,0,1769136221,42271575,X6-tool2,2.125914344081182,0.4291402482848891,44.331601257924795,-0.042453448105863746,-0.0012357367909051722,-0.13481020302947658,0.021648406982421875
2026-01-23 10:43:41.120890,1769136221,118460626,1,215057,0,1769136221,101794140,2,229911,0,1769136221,105199819,3,210053,0,1769136221,108473725,4,225615,0,1769136221,111796291,5,190382,0,1769136221,115143769,6,200874,0,1769136221,42271575,X6-tool2,2.125914344081182,0.4291402482848891,44.331601257924795,-0.042453448105863746,-0.0012357367909051722,-0.13481020302947658,0.021648406982421875
2026-01-23 10:43:41.156374,1769136221,138438719,1,215057,0,1769136221,141787647,2,229911,0,1769136221,145132724,3,210053,0,1769136221,148447891,4,225615,0,1769136221,151808589,5,190382,0,1769136221,155132577,6,200874,0,1769136221,141808337,X6-tool2,2.0788584590872374,0.4203994548907507,44.29440491080157,-0.0424161826137225,-0.0015501454560358156,-0.13471962392679346,0.020418167114257812
2026-01-23 10:43:41.191329,1769136221,178461167,1,215057,0,1769136221,181799344,2,229911,0,1769136221,185133592,3,210053,0,1769136221,188472539,4,225615,0,1769136221,171798572,5,190382,0,1769136221,175137460,6,200874,0,1769136221,141808337,X6-tool2,2.0788584590872374,0.4203994548907507,44.29440491080157,-0.0424161826137225,-0.0015501454560358156,-0.13471962392679346,0.020418167114257812
2026-01-23 10:43:41.226842,1769136221,218468445,1,215057,0,1769136221,221810482,2,229911,0,1769136221,225126039,3,210053,0,1769136221,208467103,4,225615,0,1769136221,211782459,5,190382,0,1769136221,215134917,6,200874,0,1769136221,141808337,X6-tool2,2.0788584590872374,0.4203994548907507,44.29440491080157,-0.0424161826137225,-0.0015501454560358156,-0.13471962392679346,0.020418167114257812
2026-01-23 10:43:41.261943,1769136221,258440011,1,215057,0,1769136221,241812346,2,229911,0,1769136221,245130093,3,210053,0,1769136221,248469861,4,225615,0,1769136221,251794637,5,190382,0,1769136221,255138085,6,200874,0,1769136221,241076210,X6-tool2,2.061928857170003,0.43951419012911236,44.28433417136665,-0.042417837134200165,-0.0009867045913983827,-0.13480179633374303,0.022208213806152344
2026-01-23 10:43:41.297141,1769136221,278443745,1,215057,0,1769136221,281801233,2,229911,0,1769136221,285130610,3,210053,0,1769136221,288468657,4,225615,0,1769136221,291798395,5,190382,0,1769136221,295083940,6,200874,0,1769136221,241076210,X6-tool2,2.061928857170003,0.43951419012911236,44.28433417136665,-0.042417837134200165,-0.0009867045913983827,-0.13480179633374303,0.022208213806152344
2026-01-23 10:43:41.332099,1769136221,318465603,1,215057,0,1769136221,321794480,2,229911,0,1769136221,325117167,3,210053,0,1769136221,328461345,4,225615,0,1769136221,311797138,5,190382,0,1769136221,315133586,6,200874,0,1769136221,241076210,X6-tool2,2.061928857170003,0.43951419012911236,44.28433417136665,-0.042417837134200165,-0.0009867045913983827,-0.13480179633374303,0.022208213806152344
2026-01-23 10:43:41.367325,1769136221,358443050,1,215057,0,1769136221,361795018,2,229911,0,1769136221,365112285,3,210053,0,1769136221,348460219,4,225615,0,1769136221,351798746,5,190382,0,1769136221,355124403,6,200874,0,1769136221,340824400,X6-tool2,2.074197412967868,0.42853228446044167,44.312411279748055,-0.04190532985504488,-0.0010464283427549946,-0.13472796187985306,0.022007307037711143
2026-01-23 10:43:41.402407,1769136221,398465788,1,215057,0,1769136221,401904889,2,229911,0,1769136221,385110988,3,210053,0,1769136221,388442355,4,225615,0,1769136221,391805284,5,190382,0,1769136221,395131370,6,200874,0,1769136221,340824400,X6-tool2,2.074197412967868,0.42853228446044167,44.312411279748055,-0.04190532985504488,-0.0010464283427549946,-0.13472796187985306,0.022007307037711143
2026-01-23 10:43:41.437523,1769136221,418483152,1,215057,0,1769136221,421796569,2,229911,0,1769136221,425132336,3,210053,0,1769136221,428460583,4,225615,0,1769136221,431772820,5,190382,0,1769136221,435105277,6,200874,0,1769136221,340824400,X6-tool2,2.074197412967868,0.42853228446044167,44.312411279748055,-0.04190532985504488,-0.0010464283427549946,-0.13472796187985306,0.022007307037711143
2026-01-23 10:43:41.472461,1769136221,458463299,1,215057,0,1769136221,461792756,2,229911,0,1769136221,465126944,3,210053,0,1769136221,468467871,4,225615,0,1769136221,471816529,5,190382,0,1769136221,455127632,6,200874,0,1769136221,440575380,X6-tool2,2.1163472821948437,0.4102092405525806,44.32996282840879,-0.042330435369340585,-0.001095099268739355,-0.13466955087589944,0.020847002044320107
2026-01-23 10:43:41.507444,1769136221,498461666,1,215057,0,1769136221,501792663,2,229911,0,1769136221,505136261,3,210053,0,1769136221,488459154,4,225615,0,1769136221,491806222,5,190382,0,1769136221,495133939,6,200874,0,1769136221,440575380,X6-tool2,2.1163472821948437,0.4102092405525806,44.32996282840879,-0.042330435369340585,-0.001095099268739355,-0.13466955087589944,0.020847002044320107
2026-01-23 10:43:41.542333,1769136221,538437003,1,215057,0,1769136221,541794831,2,229911,0,1769136221,525109474,3,210053,0,1769136221,528462101,4,225615,0,1769136221,531790199,5,190382,0,1769136221,535126236,6,200874,0,1769136221,540679352,X6-tool2,2.08834369927978,0.4005278514554964,44.282815563913715,-0.04178273551769423,-0.0015459730019632633,-0.1346353195332091,0.025046667084097862
2026-01-23 10:43:41.577152,1769136221,558439696,1,215057,0,1769136221,561792274,2,229911,0,1769136221,565107121,3,210053,0,1769136221,568397367,4,225615,0,1769136221,571776346,5,190382,0,1769136221,575111833,6,200874,0,1769136221,540679352,X6-tool2,2.08834369927978,0.4005278514554964,44.282815563913715,-0.04178273551769423,-0.0015459730019632633,-0.1346353195332091,0.025046667084097862
2026-01-23 10:43:41.612328,1769136221,598463945,1,215057,0,1769136221,601796972,2,229911,0,1769136221,605116889,3,210053,0,1769136221,608459387,4,225615,0,1769136221,611801824,5,190382,0,1769136221,595126977,6,200874,0,1769136221,540679352,X6-tool2,2.08834369927978,0.4005278514554964,44.282815563913715,-0.04178273551769423,-0.0015459730019632633,-0.1346353195332091,0.025046667084097862
2026-01-23 10:43:41.647493,1769136221,638466072,1,215057,0,1769136221,641796980,2,229911,0,1769136221,645116446,3,210053,0,1769136221,628461760,4,225615,0,1769136221,631795468,5,190382,0,1769136221,635129385,6,200874,0,1769136221,640690541,X6-tool2,2.114449225697954,0.4218960767746376,44.34056815079479,-0.04250629072715342,-0.0007246399966218306,-0.13477652203605153,0.024983087554574013
2026-01-23 10:43:41.682312,1769136221,678467130,1,215057,0,1769136221,681776756,2,229911,0,1769136221,665129790,3,210053,0,1769136221,668447077,4,225615,0,1769136221,671794295,5,190382,0,1769136221,675125992,6,200874,0,1769136221,640690541,X6-tool2,2.114449225697954,0.4218960767746376,44.34056815079479,-0.04250629072715342,-0.0007246399966218306,-0.13477652203605153,0.024983087554574013
2026-01-23 10:43:41.717398,1769136221,698459633,1,215057,0,1769136221,701773530,2,229911,0,1769136221,705113737,3,210053,0,1769136221,708397783,4,225615,0,1769136221,711799532,5,190382,0,1769136221,715116199,6,200874,0,1769136221,640690541,X6-tool2,2.114449225697954,0.4218960767746376,44.34056815079479,-0.04250629072715342,-0.0007246399966218306,-0.13477652203605153,0.024983087554574013
2026-01-23 10:43:41.752311,1769136221,738459710,1,215057,0,1769136221,741802188,2,229911,0,1769136221,745125505,3,210053,0,1769136221,748443402,4,225615,0,1769136221,751793439,5,190382,0,1769136221,735124753,6,200874,0,1769136221,740694989,X6-tool2,2.099022853347562,0.4221237498147373,44.2967491499679,-0.042221410864105746,-0.0013502211896831645,-0.134681465438004,0.018780073150992393
2026-01-23 10:43:41.787412,1769136221,778461998,1,215057,0,1769136221,781817826,2,229911,0,1769136221,785107772,3,210053,0,1769136221,768442185,4,225615,0,1769136221,771773733,5,190382,0,1769136221,775108320,6,200874,0,1769136221,740694989,X6-tool2,2.099022853347562,0.4221237498147373,44.2967491499679,-0.042221410864105746,-0.0013502211896831645,-0.134681465438004,0.018780073150992393
2026-01-23 10:43:41.822311,1769136221,818449265,1,215057,0,1769136221,821797413,2,229911,0,1769136221,805130946,3,210053,0,1769136221,808447623,4,225615,0,1769136221,811802041,5,190382,0,1769136221,815110187,6,200874,0,1769136221,740694989,X6-tool2,2.099022853347562,0.4221237498147373,44.2967491499679,-0.042221410864105746,-0.0013502211896831645,-0.134681465438004,0.018780073150992393
2026-01-23 10:43:41.857211,1769136221,838460479,1,215057,0,1769136221,841773885,2,229911,0,1769136221,845125883,3,210053,0,1769136221,848469371,4,225615,0,1769136221,851793008,5,190382,0,1769136221,855127315,6,200874,0,1769136221,840577954,X6-tool2,2.097739886907603,0.40094782944858043,44.307652894099995,-0.04215876358163022,-0.0013375584964376182,-0.13477828931284622,0.024130821228027344
2026-01-23 10:43:41.892798,1769136221,878459146,1,215057,0,1769136221,881797074,2,229911,0,1769136221,885125511,3,210053,0,1769136221,888469029,4,225615,0,1769136221,891785845,5,190382,0,1769136221,875111449,6,200874,0,1769136221,840577954,X6-tool2,2.097739886907603,0.40094782944858043,44.307652894099995,-0.04215876358163022,-0.0013375584964376182,-0.13477828931284622,0.024130821228027344
2026-01-23 10:43:41.928127,1769136221,918455414,1,215057,0,1769136221,921794921,2,229911,0,1769136221,925110878,3,210053,0,1769136221,908471302,4,225615,0,1769136221,911790249,5,190382,0,1769136221,915131506,6,200874,0,1769136221,840577954,X6-tool2,2.097739886907603,0.40094782944858043,44.307652894099995,-0.04215876358163022,-0.0013375584964376182,-0.13477828931284622,0.024130821228027344
2026-01-23 10:43:41.963396,1769136221,958442881,1,215057,0,1769136221,961808189,2,229911,0,1769136221,945109741,3,210059,10,1769136221,948467770,4,225615,0,1769136221,951815847,5,190382,0,1769136221,955130024,6,200874,0,1769136221,940550651,X6-tool2,2.1140011236731318,0.4587996613946084,44.312284319980314,-0.04203755280116527,-0.001401629316210208,-0.1346222353503786,0.023619333282113075
2026-01-23 10:43:41.998543,1769136221,978459125,1,215008,-31,1769136221,981797422,2,229834,-36,1769136221,985124409,3,210108,27,1769136221,988469117,4,225654,21,1769136221,991791274,5,190382,0,1769136221,995131292,6,200934,20,1769136221,940550651,X6-tool2,2.1140011236731318,0.4587996613946084,44.312284319980314,-0.04203755280116527,-0.001401629316210208,-0.1346222353503786,0.023619333282113075
2026-01-23 10:43:42.033782,1769136222,18459382,1,214832,-47,1769136222,21780669,2,229581,-61,1769136222,25124627,3,210223,29,1769136222,28447823,4,225769,37,1769136222,31787481,5,190388,0,1769136222,15108294,6,200978,21,1769136221,940550651,X6-tool2,2.1140011236731318,0.4587996613946084,44.312284319980314,-0.04203755280116527,-0.001401629316210208,-0.1346222353503786,0.023619333282113075
2026-01-23 10:43:42.068599,1769136222,58513651,1,214667,-45,1769136222,61810717,2,229301,-71,1769136222,65181026,3,210306,16,1769136222,48482088,4,225818,24,1769136222,51849067,5,190393,0,1769136222,55150113,6,201094,27,1769136222,40585461,X6-tool2,2.096553760343293,0.38630577763492374,44.31606142348504,-0.04198118619113984,-0.0013528577381572721,-0.1346566624007903,0.023166021332144737
2026-01-23 10:43:42.103980,1769136222,98513238,1,214470,-59,1769136222,101797174,2,229010,-70,1769136222,85180179,3,210344,20,1769136222,88484976,4,225912,28,1769136222,91846764,5,190404,0,1769136222,95130439,6,201198,26,1769136222,40585461,X6-tool2,2.096553760343293,0.38630577763492374,44.31606142348504,-0.04198118619113984,-0.0013528577381572721,-0.1346566624007903,0.023166021332144737
2026-01-23 10:43:42.139302,1769136222,138439193,1,214217,-68,1769136222,121778207,2,228867,-86,1769136222,125132965,3,210427,31,1769136222,128445641,4,226000,13,1769136222,131795059,5,190443,10,1769136222,135108616,6,201357,43,1769136222,40585461,X6-tool2,2.096553760343293,0.38630577763492374,44.31606142348504,-0.04198118619113984,-0.0013528577381572721,-0.1346566624007903,0.023166021332144737
2026-01-23 10:43:42.174096,1769136222,158463637,1,214085,-62,1769136222,161779734,2,228560,-88,1769136222,165128181,3,210531,20,1769136222,168444729,4,226038,12,1769136222,171790746,5,190497,13,1769136222,155118689,6,201440,45,1769136222,140550767,X6-tool2,2.0966360959478005,0.34638290418488366,44.30821223460047,-0.04246252148340121,-0.0011206969455259022,-0.13474973874310103,0.024723371490836143
2026-01-23 10:43:42.209062,1769136222,198441854,1,213876,-51,1769136222,201795762,2,228252,-88,1769136222,205129609,3,210652,29,1769136222,208465466,4,226055,0,1769136222,191794780,5,190525,17,1769136222,195129797,6,201588,38,1769136222,140550767,X6-tool2,2.0966360959478005,0.34638290418488366,44.30821223460047,-0.04246252148340121,-0.0011206969455259022,-0.13474973874310103,0.024723371490836143
2026-01-23 10:43:42.244296,1769136222,238487902,1,213651,-52,1769136222,241793879,2,227895,-52,1769136222,225125583,3,210707,22,1769136222,228459130,4,226066,0,1769136222,231794607,5,190585,24,1769136222,235126084,6,201709,38,1769136222,240415670,X6-tool2,2.102740647646196,0.4277320422592788,44.313120954314584,-0.04211583179737546,-0.0011861344923440925,-0.13487300111647132,0.02209695242345333
2026-01-23 10:43:42.279993,1769136222,278484220,1,213376,-83,1769136222,261799323,2,227758,-77,1769136222,265133690,3,210784,17,1769136222,268464407,4,226077,0,1769136222,271791454,5,190651,18,1769136222,275133602,6,201879,55,1769136222,240415670,X6-tool2,2.102740647646196,0.4277320422592788,44.313120954314584,-0.04211583179737546,-0.0011861344923440925,-0.13487300111647132,0.02209695242345333
2026-01-23 10:43:42.315024,1769136222,298484553,1,213256,-46,1769136222,301796300,2,227428,-66,1769136222,305132087,3,210872,23,1769136222,308466954,4,226077,0,1769136222,311795481,5,190706,10,1769136222,295118095,6,201978,44,1769136222,240415670,X6-tool2,2.102740647646196,0.4277320422592788,44.313120954314584,-0.04211583179737546,-0.0011861344923440925,-0.13487300111647132,0.02209695242345333
2026-01-23 10:43:42.350605,1769136222,338459379,1,213003,-68,1769136222,341794547,2,227049,-109,1769136222,345131074,3,210965,19,1769136222,348464351,4,226077,0,1769136222,331801565,5,190723,2,1769136222,335125862,6,202143,43,1769136222,340368406,X6-tool2,2.1083121150610356,0.4271430734947754,44.322259571600604,-0.042620606094754265,-0.0014285886890531238,-0.13474248685434273,0.02274322509765625
2026-01-23 10:43:42.385346,1769136222,378488338,1,212761,-68,1769136222,381795344,2,226802,-59,1769136222,365130668,3,211014,25,1769136222,368462435,4,226071,-10,1769136222,371791042,5,190767,3,1769136222,375125949,6,202324,43,1769136222,340368406,X6-tool2,2.1083121150610356,0.4271430734947754,44.322259571600604,-0.042620606094754265,-0.0014285886890531238,-0.13474248685434273,0.02274322509765625
2026-01-23 10:43:42.420748,1769136222,418458394,1,212481,-67,1769136222,401793798,2,226659,-71,1769136222,405114264,3,211119,25,1769136222,408462882,4,226060,0,1769136222,411774749,5,190805,10,1769136222,415126567,6,202495,43,1769136222,340368406,X6-tool2,2.1083121150610356,0.4271430734947754,44.322259571600604,-0.042620606094754265,-0.0014285886890531238,-0.13474248685434273,0.02274322509765625
2026-01-23 10:43:42.455836,1769136222,438486628,1,212333,-81,1769136222,441774564,2,226412,-56,1769136222,445135042,3,211212,19,1769136222,448463499,4,226049,-9,1769136222,451794927,5,190893,21,1769136222,455128684,6,202676,44,1769136222,440435247,X6-tool2,2.0762716412802775,0.4860932422205729,44.32604919999433,-0.042497639111854085,-0.0016024712909427923,-0.13416022825092755,0.018274307250976562
2026-01-23 10:43:42.490747,1769136222,478484745,1,212058,-62,1769136222,481792942,2,226181,-54,1769136222,485117819,3,211295,23,1769136222,488466637,4,226022,-10,1769136222,471793670,5,190942,21,1769136222,475133938,6,202797,63,1769136222,440435247,X6-tool2,2.0762716412802775,0.4860932422205729,44.32604919999433,-0.042497639111854085,-0.0016024712909427923,-0.13416022825092755,0.018274307250976562
2026-01-23 10:43:42.526203,1769136222,518463192,1,211740,-79,1769136222,521777828,2,225901,-74,1769136222,525114926,3,211366,10,1769136222,508464960,4,226000,-10,1769136222,511791107,5,191047,31,1769136222,515111824,6,203000,54,1769136222,440435247,X6-tool2,2.0762716412802775,0.4860932422205729,44.32604919999433,-0.042497639111854085,-0.0016024712909427923,-0.13416022825092755,0.018274307250976562
2026-01-23 10:43:42.561031,1769136222,558487190,1,211459,-73,1769136222,541774412,2,225769,-64,1769136222,545119110,3,211410,20,1769136222,548472187,4,225939,-15,1769136222,551793344,5,191140,17,1769136222,555130652,6,203231,55,1769136222,540392753,X6-tool2,2.0318216454076357,0.5047127666021665,44.28471388334005,-0.042313647966076985,-0.0027428573691887946,-0.1320475827816423,0.02135244943201542
2026-01-23 10:43:42.596365,1769136222,578483643,1,211322,-69,1769136222,581774569,2,225423,-81,1769136222,585130717,3,211481,18,1769136222,588447204,4,225813,-45,1769136222,591793082,5,191217,16,1769136222,595110718,6,203500,76,1769136222,540392753,X6-tool2,2.0318216454076357,0.5047127666021665,44.28471388334005,-0.042313647966076985,-0.0027428573691887946,-0.1320475827816423,0.02135244943201542
2026-01-23 10:43:42.631786,1769136222,618485990,1,211042,-64,1769136222,621824798,2,225198,-65,1769136222,625119714,3,211547,11,1769136222,628469021,4,225714,-30,1769136222,611792915,5,191261,23,1769136222,615138303,6,203632,68,1769136222,540392753,X6-tool2,2.0318216454076357,0.5047127666021665,44.28471388334005,-0.042313647966076985,-0.0027428573691887946,-0.1320475827816423,0.02135244943201542
2026-01-23 10:43:42.667425,1769136222,658484988,1,210778,-68,1769136222,661820635,2,224868,-76,1769136222,665134622,3,211597,15,1769136222,648477985,4,225626,-43,1769136222,651795232,5,191365,31,1769136222,655136020,6,203884,59,1769136222,640450334,X6-tool2,2.0445797422408543,0.603180615687375,44.402880326131424,-0.04194827143896979,-0.0020906796038109056,-0.12766345775362922,0.020643552765250206
2026-01-23 10:43:42.702933,1769136222,698486275,1,210536,-71,1769136222,701822302,2,224643,-62,1769136222,685121234,3,211619,6,1769136222,688468812,4,225516,-26,1769136222,691793779,5,191470,31,1769136222,695110066,6,204148,62,1769136222,640450334,X6-tool2,2.0445797422408543,0.603180615687375,44.402880326131424,-0.04194827143896979,-0.0020906796038109056,-0.12766345775362922,0.020643552765250206
2026-01-23 10:43:42.737939,1769136222,718482708,1,210361,-95,1769136222,721798665,2,224484,-62,1769136222,725131652,3,211668,16,1769136222,728447279,4,225390,-38,1769136222,731792067,5,191580,21,1769136222,735115023,6,204412,71,1769136222,640450334,X6-tool2,2.0445797422408543,0.603180615687375,44.402880326131424,-0.04194827143896979,-0.0020906796038109056,-0.12766345775362922,0.020643552765250206
2026-01-23 10:43:42.773971,1769136222,758484365,1,210081,-71,1769136222,761820633,2,224264,-59,1769136222,765132939,3,211734,15,1769136222,768468617,4,225203,-58,1769136222,771802344,5,191689,29,1769136222,755121457,6,204554,68,1769136222,740429831,X6-tool2,1.9302455577960882,0.6581585194772647,44.390746409620185,-0.041607784208304584,-0.0013629815060147233,-0.12319261507890927,0.0250701904296875
2026-01-23 10:43:42.809033,1769136222,798484193,1,209784,-79,1769136222,801797389,2,223995,-56,1769136222,805131227,3,211783,10,1769136222,808448633,4,225038,-43,1769136222,791793487,5,191755,36,1769136222,795134885,6,204780,66,1769136222,740429831,X6-tool2,1.9302455577960882,0.6581585194772647,44.390746409620185,-0.041607784208304584,-0.0013629815060147233,-0.12319261507890927,0.0250701904296875
2026-01-23 10:43:42.843810,1769136222,838487260,1,209476,-82,1769136222,841819117,2,223813,-42,1769136222,825125490,3,211805,10,1769136222,828447577,4,224940,-53,1769136222,831793694,5,191909,49,1769136222,835131612,6,205054,69,1769136222,840420438,X6-tool2,1.879930637650422,0.806591300701339,44.47601507990642,-0.04115954608558607,-0.0001641567877504134,-0.11778432141413737,0.019815444946289062
2026-01-23 10:43:42.879048,1769136222,878484777,1,209207,-59,1769136222,861835661,2,223726,-40,1769136222,865133247,3,211844,10,1769136222,868470765,4,224753,-42,1769136222,871799972,5,192068,41,1769136222,875137569,6,205291,54,1769136222,840420438,X6-tool2,1.879930637650422,0.806591300701339,44.47601507990642,-0.04115954608558607,-0.0001641567877504134,-0.11778432141413737,0.019815444946289062
2026-01-23 10:43:42.914153,1769136222,898484141,1,209097,-61,1769136222,901819068,2,223528,-58,1769136222,905132925,3,211877,4,1769136222,908467831,4,224637,-20,1769136222,911796659,5,192250,37,1769136222,895129933,6,205422,65,1769136222,840420438,X6-tool2,1.879930637650422,0.806591300701339,44.47601507990642,-0.04115954608558607,-0.0001641567877504134,-0.11778432141413737,0.019815444946289062
2026-01-23 10:43:42.949982,1769136222,938483748,1,208795,-82,1769136222,941817565,2,223330,-47,1769136222,945132231,3,211915,10,1769136222,948469179,4,224478,-37,1769136222,931803323,5,192316,32,1769136222,935129450,6,205686,63,1769136222,940423536,X6-tool2,1.819357511174588,0.9431768074223995,44.53484044617278,-0.03904698666696773,0.00017075684303153728,-0.11274508999312831,0.024487176910042763
2026-01-23 10:43:42.984780,1769136222,978484695,1,208559,-53,1769136222,981819312,2,223127,-48,1769136222,965128875,3,211926,0,1769136222,968467993,4,224374,-56,1769136222,971799480,5,192398,10,1769136222,975136497,6,205977,76,1769136222,940423536,X6-tool2,1.819357511174588,0.9431768074223995,44.53484044617278,-0.03904698666696773,0.00017075684303153728,-0.11274508999312831,0.024487176910042763
2026-01-23 10:43:43.020299,1769136223,18460711,1,208328,-46,1769136223,1792925,2,223022,-52,1769136223,5132202,3,211943,7,1769136223,8469690,4,224203,-38,1769136223,11852109,5,192530,33,1769136223,15135454,6,206290,78,1769136222,940423536,X6-tool2,1.819357511174588,0.9431768074223995,44.53484044617278,-0.03904698666696773,0.00017075684303153728,-0.11274508999312831,0.024487176910042763
2026-01-23 10:43:43.055367,1769136223,38488265,1,208224,-62,1769136223,41819983,2,222814,-48,1769136223,45112058,3,211959,0,1769136223,48464297,4,223995,-44,1769136223,51799394,5,192662,34,1769136223,35129907,6,206455,94,1769136223,40376162,X6-tool2,1.6526089959711288,1.0977211643930502,44.58328791712833,-0.03734072137413164,0.0011331065287018811,-0.10729693225206545,0.02416006661951542
2026-01-23 10:43:43.090715,1769136223,78462432,1,207999,-62,1769136223,81819050,2,222599,-78,1769136223,85132226,3,211976,2,1769136223,88463763,4,223748,-70,1769136223,71806897,5,192722,32,1769136223,75136685,6,206757,71,1769136223,40376162,X6-tool2,1.6526089959711288,1.0977211643930502,44.58328791712833,-0.03734072137413164,0.0011331065287018811,-0.10729693225206545,0.02416006661951542
2026-01-23 10:43:43.125734,1769136223,118486179,1,207768,-45,1769136223,121819167,2,222396,-40,1769136223,125111753,3,211976,4,1769136223,108463917,4,223627,-62,1769136223,111796584,5,192843,26,1769136223,115129221,6,207037,75,1769136223,40376162,X6-tool2,1.6526089959711288,1.0977211643930502,44.58328791712833,-0.03734072137413164,0.0011331065287018811,-0.10729693225206545,0.02416006661951542
2026-01-23 10:43:43.160787,1769136223,158485586,1,207548,-70,1769136223,141820560,2,222325,-34,1769136223,145110756,3,211981,5,1769136223,148463784,4,223363,-53,1769136223,151799881,5,192925,17,1769136223,155129828,6,207301,70,1769136223,140402440,X6-tool2,1.575778759774299,1.1564281672558772,44.66754136115825,-0.037011912787714055,0.0010689195362053635,-0.10259619147341542,0.02135244943201542
2026-01-23 10:43:43.196213,1769136223,178485170,1,207433,-51,1769136223,181818917,2,222215,-37,1769136223,185126714,3,211981,0,1769136223,188467121,4,223116,-56,1769136223,191801738,5,193041,31,1769136223,195126805,6,207587,60,1769136223,140402440,X6-tool2,1.575778759774299,1.1564281672558772,44.66754136115825,-0.037011912787714055,0.0010689195362053635,-0.10259619147341542,0.02135244943201542
2026-01-23 10:43:43.231032,1769136223,218461516,1,207147,-74,1769136223,221820254,2,222034,-56,1769136223,225134801,3,212009,10,1769136223,228464098,4,222896,-53,1769136223,211799912,5,193118,40,1769136223,215128079,6,207691,50,1769136223,140402440,X6-tool2,1.575778759774299,1.1564281672558772,44.66754136115825,-0.037011912787714055,0.0010689195362053635,-0.10259619147341542,0.02135244943201542
2026-01-23 10:43:43.266627,1769136223,258488124,1,206955,-48,1769136223,261817401,2,221885,-27,1769136223,265112467,3,212003,0,1769136223,248474191,4,222781,-57,1769136223,251816719,5,193260,32,1769136223,255130306,6,207949,76,1769136223,240824973,X6-tool2,1.3871830326879848,1.3049042253737662,44.685555503747985,-0.03587217810081902,0.0024632643743708973,-0.09816041483488246,0.02148946188390255
2026-01-23 10:43:43.301402,1769136223,298485451,1,206757,-53,1769136223,281791524,2,221858,-14,1769136223,285120931,3,212003,0,1769136223,288462578,4,222523,-64,1769136223,291801406,5,193370,29,1769136223,295128563,6,208224,66,1769136223,240824973,X6-tool2,1.3871830326879848,1.3049042253737662,44.685555503747985,-0.03587217810081902,0.0024632643743708973,-0.09816041483488246,0.02148946188390255
2026-01-23 10:43:43.336938,1769136223,318494274,1,206653,-47,1769136223,321817821,2,221754,-26,1769136223,325112647,3,211992,0,1769136223,328463605,4,222231,-75,1769136223,331797772,5,193519,35,1769136223,335129269,6,208521,80,1769136223,240824973,X6-tool2,1.3871830326879848,1.3049042253737662,44.685555503747985,-0.03587217810081902,0.0024632643743708973,-0.09816041483488246,0.02148946188390255
2026-01-23 10:43:43.371717,1769136223,358485201,1,206499,-49,1769136223,361819018,2,221616,-32,1769136223,365130755,3,211987,0,1769136223,368462762,4,221957,-66,1769136223,351799716,5,193607,45,1769136223,355100212,6,208658,67,1769136223,340361294,X6-tool2,1.277576494196489,1.3809166884431001,44.75227480239114,-0.034079771809311855,0.002840541075734761,-0.0941565202895209,0.02089659310877323
2026-01-23 10:43:43.407440,1769136223,398483548,1,206340,-39,1769136223,401794274,2,221501,-27,1769136223,405125431,3,211970,0,1769136223,388468526,4,221830,-59,1769136223,391793292,5,193733,28,1769136223,395128820,6,208965,80,1769136223,340361294,X6-tool2,1.277576494196489,1.3809166884431001,44.75227480239114,-0.034079771809311855,0.002840541075734761,-0.0941565202895209,0.02089659310877323
