timestamp,out_1_header.stamp.sec,out_1_header.stamp.nanosec,out_1_header.frame_id,out_1_val,out_1_speed,out_2_header.stamp.sec,out_2_header.stamp.nanosec,out_2_header.frame_id,out_2_val,out_2_speed,out_3_header.stamp.sec,out_3_header.stamp.nanosec,out_3_header.frame_id,out_3_val,out_3_speed,out_4_header.stamp.sec,out_4_header.stamp.nanosec,out_4_header.frame_id,out_4_val,out_4_speed,out_5_header.stamp.sec,out_5_header.stamp.nanosec,out_5_header.frame_id,out_5_val,out_5_speed,out_6_header.stamp.sec,out_6_header.stamp.nanosec,out_6_header.frame_id,out_6_val,out_6_speed,x6position_pose_rp[0],x6position_pose_rp[1],x6position_pose_rp[2],x6position_pose_rp[3],x6position_pose_rp[4],x6position_pose_rp[5],x6position_joints[0],x6position_joints[1],x6position_joints[2],x6position_joints[3],x6position_joints[4],x6position_joints[5],aimooe_coord_header.stamp.sec,aimooe_coord_header.stamp.nanosec,aimooe_coord_header.frame_id,aimooe_coord_position.x,aimooe_coord_position.y,aimooe_coord_position.z,aimooe_coord_orientation.x,aimooe_coord_orientation.y,aimooe_coord_orientation.z,aimooe_coord_mean_error
2025-12-23 16:53:10.285914,1766479990,277360405,1,154506,0,1766479990,274005588,2,133841,53,1766479990,270665472,3,141064,1,1766479990,267319896,4,175375,0,1766479990,284023036,5,187701,0,1766479990,280781943,6,157011,0,4.9986042976379395,4.999683380126953,45.00127029418945,0.001257816213183105,0.0013235128717496991,0.001587159582413733,47.84700012207031,44.65299987792969,55.3849983215332,74.93099975585938,40.584999084472656,50.29999923706055,1766479990,276944169,X6-tool2,4.993189101577762,3.6321445702504893,43.514833866040746,-0.0473089563765532,0.1135946110310049,-0.2840553741827765,0.0648965835571289
2025-12-23 16:53:10.321553,1766479990,317329612,1,154506,0,1766479990,313975095,2,133841,52,1766479990,310640740,3,141064,18,1766479990,307306844,4,175375,0,1766479990,303995199,5,187701,0,1766479990,320655237,6,157011,0,4.9986042976379395,4.999683380126953,45.00127029418945,0.001257816213183105,0.0013235128717496991,0.001587159582413733,47.84700012207031,44.65299987792969,55.3849983215332,74.93099975585938,40.584999084472656,50.29999923706055,1766479990,276944169,X6-tool2,4.993189101577762,3.6321445702504893,43.514833866040746,-0.0473089563765532,0.1135946110310049,-0.2840553741827765,0.0648965835571289
2025-12-23 16:53:10.357204,1766479990,337515243,1,154506,0,1766479990,354023325,2,133835,47,1766479990,350647508,3,141064,0,1766479990,347304322,4,175375,0,1766479990,343984427,5,187701,0,1766479990,340761615,6,157011,0,4.9986042976379395,4.999683380126953,45.00127029418945,0.001257816213183105,0.0013235128717496991,0.001587159582413733,47.84700012207031,44.65299987792969,55.3849983215332,74.93099975585938,40.584999084472656,50.29999923706055,1766479990,276944169,X6-tool2,4.993189101577762,3.6321445702504893,43.514833866040746,-0.0473089563765532,0.1135946110310049,-0.2840553741827765,0.0648965835571289
2025-12-23 16:53:10.392930,1766479990,377366956,1,154506,0,1766479990,374001379,2,133835,40,1766479990,390659246,3,141064,-1,1766479990,387353372,4,175375,0,1766479990,384084949,5,187701,0,1766479990,380729723,6,157011,0,4.999554634094238,5.000319480895996,45.001468658447266,0.001257816213183105,0.0013235128717496991,0.001587159582413733,47.84700012207031,44.65299987792969,55.3849983215332,74.93699645996094,40.584999084472656,50.29999923706055,1766479990,377385796,X6-tool2,4.984480583468041,3.660260612889022,43.53437407968966,-0.0464677806834962,0.11395743532122483,-0.28395974662004475,0.062399547547101974
2025-12-23 16:53:10.428502,1766479990,417394465,1,154506,0,1766479990,413973856,2,133835,9,1766479990,410664621,3,141064,-5,1766479990,427529567,4,175375,0,1766479990,424078217,5,187701,0,1766479990,420872106,6,157011,0,4.999554634094238,5.000319480895996,45.001468658447266,0.001257816213183105,0.0013235128717496991,0.001587159582413733,47.84700012207031,44.65299987792969,55.3849983215332,74.93699645996094,40.584999084472656,50.29999923706055,1766479990,377385796,X6-tool2,4.984480583468041,3.660260612889022,43.53437407968966,-0.0464677806834962,0.11395743532122483,-0.28395974662004475,0.062399547547101974
2025-12-23 16:53:10.463950,1766479990,457360402,1,154506,0,1766479990,454099969,2,133835,8,1766479990,450947150,3,141064,-5,1766479990,447329814,4,175375,0,1766479990,444021579,5,187701,0,1766479990,460656576,6,157011,0,4.999554634094238,5.000319480895996,45.001468658447266,0.001257816213183105,0.0013235128717496991,0.001587159582413733,47.84700012207031,44.65299987792969,55.3849983215332,74.93699645996094,40.584999084472656,50.29999923706055,1766479990,377385796,X6-tool2,4.984480583468041,3.660260612889022,43.53437407968966,-0.0464677806834962,0.11395743532122483,-0.28395974662004475,0.062399547547101974
2025-12-23 16:53:10.499578,1766479990,497366750,1,154506,0,1766479990,494020254,2,133830,-9,1766479990,490647237,3,141064,-10,1766479990,487327462,4,175375,0,1766479990,483989036,5,187701,0,1766479990,480714253,6,157011,0,5.000346660614014,5.00084924697876,45.00163269042969,0.001257816213183105,0.0013235128717496991,0.001587159582413733,47.84700012207031,44.65299987792969,55.3849983215332,74.94200134277344,40.584999084472656,50.29999923706055,1766479990,476076958,X6-tool2,4.987121356482429,3.671870601219347,43.534118437098726,-0.04604587782626084,0.11352657290495234,-0.28398181822900964,0.06940396875143051
2025-12-23 16:53:10.534614,1766479990,517444347,1,154506,0,1766479990,533996252,2,133830,-18,1766479990,530649075,3,141064,0,1766479990,527321410,4,175375,0,1766479990,524063077,5,187701,0,1766479990,520885347,6,157017,0,5.001368999481201,5.000105857849121,45.00088119506836,0.001257816213183105,0.0013235128717496991,0.001587159582413733,47.84700012207031,44.65299987792969,55.3849983215332,74.94200134277344,40.584999084472656,50.29399871826172,1766479990,476076958,X6-tool2,4.987121356482429,3.671870601219347,43.534118437098726,-0.04604587782626084,0.11352657290495234,-0.28398181822900964,0.06940396875143051
2025-12-23 16:53:10.569675,1766479990,557337762,1,154506,0,1766479990,554016156,2,133830,-25,1766479990,550719182,3,141064,0,1766479990,567416362,4,175375,0,1766479990,564079956,5,187701,0,1766479990,560891166,6,157017,0,5.001368999481201,5.000105857849121,45.00088119506836,0.001257816213183105,0.0013235128717496991,0.001587159582413733,47.84700012207031,44.65299987792969,55.3849983215332,74.94200134277344,40.584999084472656,50.29399871826172,1766479990,476076958,X6-tool2,4.987121356482429,3.671870601219347,43.534118437098726,-0.04604587782626084,0.11352657290495234,-0.28398181822900964,0.06940396875143051
2025-12-23 16:53:10.605645,1766479990,597317649,1,154506,0,1766479990,594012185,2,133830,-41,1766479990,590673499,3,141064,0,1766479990,587340383,4,175375,0,1766479990,604084045,5,187701,0,1766479990,600646355,6,157017,0,5.001368999481201,5.000105857849121,45.00088119506836,0.001257816213183105,0.0013235128717496991,0.001587159582413733,47.84700012207031,44.65299987792969,55.3849983215332,74.94200134277344,40.584999084472656,50.29399871826172,1766479990,575385863,X6-tool2,4.954073765104396,3.6273825121316317,43.47899340454877,-0.045872959181801794,0.11315303074246089,-0.28397943971122386,0.06555906683206558
2025-12-23 16:53:10.640861,1766479990,637379210,1,154506,0,1766479990,634006833,2,133835,-55,1766479990,630704278,3,141064,0,1766479990,627336811,4,175375,0,1766479990,624022366,5,187701,0,1766479990,620709471,6,157017,0,5.001368999481201,5.000105857849121,45.00088119506836,0.001257816213183105,0.0013235128717496991,0.001587159582413733,47.84700012207031,44.65299987792969,55.3849983215332,74.94200134277344,40.584999084472656,50.29399871826172,1766479990,575385863,X6-tool2,4.954073765104396,3.6273825121316317,43.47899340454877,-0.045872959181801794,0.11315303074246089,-0.28397943971122386,0.06555906683206558
2025-12-23 16:53:10.676470,1766479990,657360123,1,154506,0,1766479990,673997981,2,133835,-56,1766479990,670709487,3,141064,8,1766479990,667364801,4,175375,0,1766479990,663993504,5,187701,0,1766479990,660699809,6,157017,0,5.000577449798584,4.999575614929199,45.00071716308594,0.001257816213183105,0.0013235128717496991,0.001587159582413733,47.84700012207031,44.65299987792969,55.3849983215332,74.93699645996094,40.584999084472656,50.29399871826172,1766479990,674896965,X6-tool2,4.9300456558616315,3.643539405212421,43.433634785908886,-0.04644376492570487,0.11244351601160607,-0.28410865922803197,0.0584716796875
2025-12-23 16:53:10.712032,1766479990,697327741,1,154506,0,1766479990,694056977,2,133835,-52,1766479990,710800579,3,141064,5,1766479990,707469953,4,175375,0,1766479990,704087486,5,187701,0,1766479990,700676567,6,157017,0,5.000577449798584,4.999575614929199,45.00071716308594,0.001257816213183105,0.0013235128717496991,0.001587159582413733,47.84700012207031,44.65299987792969,55.3849983215332,74.93699645996094,40.584999084472656,50.29399871826172,1766479990,674896965,X6-tool2,4.9300456558616315,3.643539405212421,43.433634785908886,-0.04644376492570487,0.11244351601160607,-0.28410865922803197,0.0584716796875
2025-12-23 16:53:10.747596,1766479990,737376611,1,154506,0,1766479990,734032865,2,133835,-31,1766479990,730821894,3,141064,1,1766479990,727310111,4,175375,0,1766479990,744013411,5,187701,0,1766479990,740698986,6,157017,0,5.000577449798584,4.999575614929199,45.00071716308594,0.001257816213183105,0.0013235128717496991,0.001587159582413733,47.84700012207031,44.65299987792969,55.3849983215332,74.93699645996094,40.584999084472656,50.29399871826172,1766479990,674896965,X6-tool2,4.9300456558616315,3.643539405212421,43.433634785908886,-0.04644376492570487,0.11244351601160607,-0.28410865922803197,0.0584716796875
2025-12-23 16:53:10.783525,1766479990,777349538,1,154506,0,1766479990,773996082,2,133841,0,1766479990,770674036,3,141064,0,1766479990,767329760,4,175375,0,1766479990,764022245,5,187701,0,1766479990,780661503,6,157017,0,4.999626636505127,4.9989399909973145,45.000518798828125,0.00093990279128775,0.0009585574152879417,-0.004598240368068218,47.84700012207031,44.65299987792969,55.3849983215332,74.93099975585938,40.584999084472656,50.29399871826172,1766479990,774701499,X6-tool2,4.951193729331983,3.7080863809435414,43.491881720219936,-0.04622188783420641,0.1129185883077876,-0.28409615391182996,0.0653676986694336
2025-12-23 16:53:10.818965,1766479990,817528273,1,154506,0,1766479990,813983469,2,133841,3,1766479990,810665305,3,141064,-3,1766479990,807317948,4,175375,0,1766479990,804075306,5,187701,0,1766479990,800824193,6,157017,0,4.999626636505127,4.9989399909973145,45.000518798828125,0.00093990279128775,0.0009585574152879417,-0.004598240368068218,47.84700012207031,44.65299987792969,55.3849983215332,74.93099975585938,40.584999084472656,50.29399871826172,1766479990,774701499,X6-tool2,4.951193729331983,3.7080863809435414,43.491881720219936,-0.04622188783420641,0.1129185883077876,-0.28409615391182996,0.0653676986694336
2025-12-23 16:53:10.854045,1766479990,837277478,1,154506,0,1766479990,833970903,2,133841,16,1766479990,850673753,3,141064,-12,1766479990,847322746,4,175375,0,1766479990,844007752,5,187701,0,1766479990,840697647,6,157017,0,4.999626636505127,4.9989399909973145,45.000518798828125,0.00093990279128775,0.0009585574152879417,-0.004598240368068218,47.84700012207031,44.65299987792969,55.3849983215332,74.93099975585938,40.584999084472656,50.29399871826172,1766479990,774701499,X6-tool2,4.951193729331983,3.7080863809435414,43.491881720219936,-0.04622188783420641,0.1129185883077876,-0.28409615391182996,0.0653676986694336
2025-12-23 16:53:10.889431,1766479990,877311627,1,154506,0,1766479990,873992272,2,133841,37,1766479990,870678558,3,141064,0,1766479990,887319435,4,175375,0,1766479990,883976269,5,187701,0,1766479990,880660934,6,157017,0,4.999626636505127,4.9989399909973145,45.000518798828125,0.00093990279128775,0.0009585574152879417,-0.004598240368068218,47.84700012207031,44.65299987792969,55.3849983215332,74.93099975585938,40.584999084472656,50.29399871826172,1766479990,874734931,X6-tool2,4.956307356886477,3.6954079578052985,43.52199757082288,-0.04541791599860731,0.1133180054992674,-0.28412494689194756,0.06652704626321793
2025-12-23 16:53:10.924564,1766479990,917329416,1,154506,0,1766479990,913998901,2,133841,27,1766479990,910678315,3,141064,0,1766479990,907334030,4,175375,0,1766479990,923971647,5,187701,0,1766479990,920662342,6,157017,0,4.999626636505127,4.9989399909973145,45.000518798828125,0.00093990279128775,0.0009585574152879417,-0.004598240368068218,47.84700012207031,44.65299987792969,55.3849983215332,74.93099975585938,40.584999084472656,50.29399871826172,1766479990,874734931,X6-tool2,4.956307356886477,3.6954079578052985,43.52199757082288,-0.04541791599860731,0.1133180054992674,-0.28412494689194756,0.06652704626321793
2025-12-23 16:53:10.959655,1766479990,957333475,1,154506,0,1766479990,953971968,2,133841,34,1766479990,950648803,3,141064,0,1766479990,947307047,4,175375,0,1766479990,943978431,5,187701,0,1766479990,940663336,6,157017,0,4.999626636505127,4.9989399909973145,45.000518798828125,0.00093990279128775,0.0009585574152879417,-0.004598240368068218,47.84700012207031,44.65299987792969,55.3849983215332,74.93099975585938,40.584999084472656,50.29399871826172,1766479990,874734931,X6-tool2,4.956307356886477,3.6954079578052985,43.52199757082288,-0.04541791599860731,0.1133180054992674,-0.28412494689194756,0.06652704626321793
2025-12-23 16:53:10.994784,1766479990,977337609,1,154446,-34,1766479990,993973547,2,134319,266,1766479990,990640061,3,141136,30,1766479990,987307725,4,175419,22,1766479990,983977970,5,188047,206,1766479990,980640734,6,156852,-79,4.999626636505127,4.9989399909973145,45.000518798828125,0.00093990279128775,0.0009585574152879417,-0.004598240368068218,47.84700012207031,44.65299987792969,55.3849983215332,74.93099975585938,40.584999084472656,50.29399871826172,1766479990,974868106,X6-tool2,4.894601850491918,3.6627211565814672,43.48053623208635,-0.04595586375529483,0.11354698326555349,-0.2842774798818539,0.059012413024902344
2025-12-23 16:53:11.030215,1766479991,17331927,1,154336,-26,1766479991,13978161,2,134879,312,1766479991,10653175,3,141207,27,1766479991,27329245,4,175567,46,1766479991,23973668,5,188893,220,1766479991,20642342,6,156484,-84,4.866249084472656,5.026727676391602,45.01011276245117,0.07045486569404602,0.01601821556687355,0.09040605276823044,47.10499954223633,44.54899978637695,55.3129997253418,74.4530029296875,40.70000076293945,50.645999908447266,1766479990,974868106,X6-tool2,4.894601850491918,3.6627211565814672,43.48053623208635,-0.04595586375529483,0.11354698326555349,-0.2842774798818539,0.059012413024902344
2025-12-23 16:53:11.065658,1766479991,57324896,1,154188,-39,1766479991,53971109,2,136049,259,1766479991,50669164,3,141345,35,1766479991,47303697,4,175644,33,1766479991,63987147,5,189783,228,1766479991,60642451,6,156039,-114,4.601448059082031,4.9962992668151855,44.986602783203125,0.04823896661400795,-0.04072549566626549,0.02291656658053398,46.231998443603516,44.38399887084961,55.16999816894531,73.23400115966797,40.82600021362305,51.04100036621094,1766479990,974868106,X6-tool2,4.894601850491918,3.6627211565814672,43.48053623208635,-0.04595586375529483,0.11354698326555349,-0.2842774798818539,0.059012413024902344
2025-12-23 16:53:11.100640,1766479991,97322374,1,154017,-48,1766479991,93983828,2,137126,266,1766479991,90660022,3,141553,68,1766479991,87327917,4,175858,57,1766479991,84007711,5,190261,239,1766479991,80664555,6,155814,-110,4.346302509307861,5.00188684463501,44.963966369628906,0.06022864207625389,-0.05756239593029022,0.0257605891674757,45.2869987487793,44.16999816894531,55.016998291015625,72.17900085449219,40.97999954223633,51.49700164794922,1766479991,74716031,X6-tool2,4.9681515741243505,3.7474225425249656,43.60957659968978,-0.04469596475690226,0.110424773417624,-0.28570794695048324,0.0798635482788086
2025-12-23 16:53:11.136176,1766479991,117324818,1,153929,-40,1766479991,134007097,2,138131,267,1766479991,130656481,3,141718,38,1766479991,127306475,4,176034,54,1766479991,123969998,5,191102,229,1766479991,120646173,6,155330,-127,4.083569526672363,4.996471881866455,44.949012756347656,0.06114456057548523,-0.04055251553654671,0.025280874222517014,44.44599914550781,43.99399948120117,54.8129997253418,71.15699768066406,41.1619987487793,51.98099899291992,1766479991,74716031,X6-tool2,4.9681515741243505,3.7474225425249656,43.60957659968978,-0.04469596475690226,0.110424773417624,-0.28570794695048324,0.0798635482788086
2025-12-23 16:53:11.171535,1766479991,157345377,1,153743,-51,1766479991,153976850,2,138697,279,1766479991,170656779,3,141883,42,1766479991,167307893,4,176243,43,1766479991,163973097,5,191865,189,1766479991,160647822,6,154748,-145,3.94285249710083,5.008115768432617,44.93757629394531,0.04466825723648071,-0.04964938014745712,0.03656448796391487,44.02299880981445,43.86800003051758,54.73099899291992,70.64099884033203,41.249000549316406,52.26100158691406,1766479991,74716031,X6-tool2,4.9681515741243505,3.7474225425249656,43.60957659968978,-0.04469596475690226,0.110424773417624,-0.28570794695048324,0.0798635482788086
2025-12-23 16:53:11.206545,1766479991,197307294,1,153567,-51,1766479991,193991899,2,139603,227,1766479991,190661384,3,141965,34,1766479991,187303527,4,176336,43,1766479991,203971895,5,192673,204,1766479991,200659171,6,154243,-135,3.6599838733673096,5.002462387084961,44.9239501953125,0.017231952399015427,-0.07275690138339996,0.037283606827259064,43.2760009765625,43.69200134277344,54.566001892089844,69.625,41.42499923706055,52.80500030517578,1766479991,175400648,X6-tool2,4.788952906582339,3.866325677284367,43.683509152920266,-0.045317282803329556,0.10288216276814864,-0.2865192698443222,0.07579072564840317
2025-12-23 16:53:11.242050,1766479991,237333323,1,153309,-62,1766479991,233999188,2,140510,219,1766479991,230645791,3,142152,38,1766479991,227310455,4,176539,33,1766479991,223975960,5,193002,164,1766479991,240668819,6,153699,-137,3.389028549194336,5.010958194732666,44.90486145019531,0.008079935796558857,-0.029813315719366074,0.03010418266057968,42.54600143432617,43.48899841308594,54.36800003051758,68.69599914550781,41.650001525878906,53.34299850463867,1766479991,175400648,X6-tool2,4.788952906582339,3.866325677284367,43.683509152920266,-0.045317282803329556,0.10288216276814864,-0.2865192698443222,0.07579072564840317
2025-12-23 16:53:11.277139,1766479991,257330798,1,153182,-69,1766479991,273986905,2,141482,223,1766479991,270644779,3,142333,48,1766479991,267324694,4,176726,43,1766479991,263988939,5,193760,189,1766479991,260666673,6,153435,-127,3.118523359298706,5.0129714012146,44.8857421875,0.049432553350925446,0.021114341914653778,0.0001841033372329548,41.78799819946289,43.301998138427734,54.220001220703125,67.79499816894531,41.909000396728516,53.875999450683594,1766479991,274737003,X6-tool2,4.467602465054667,4.021770193252612,43.81971399321687,-0.04672187783367133,0.09681635670755877,-0.2868301524086975,0.07377306371927261
2025-12-23 16:53:11.312850,1766479991,297309755,1,152990,-51,1766479991,293975299,2,141866,194,1766479991,310662468,3,142471,30,1766479991,307331372,4,176858,47,1766479991,303977136,5,194458,138,1766479991,300648381,6,152924,-130,2.9697275161743164,4.992668151855469,44.878631591796875,0.09582488238811493,0.01768450066447258,0.02101794071495533,41.347999572753906,43.24700164794922,54.11600112915039,67.29000091552734,42.00199890136719,54.13999938964844,1766479991,274737003,X6-tool2,4.467602465054667,4.021770193252612,43.81971399321687,-0.04672187783367133,0.09681635670755877,-0.2868301524086975,0.07377306371927261
2025-12-23 16:53:11.347993,1766479991,337331544,1,152792,-45,1766479991,333991088,2,142696,215,1766479991,330649602,3,142526,34,1766479991,347310680,4,177138,87,1766479991,343980255,5,195079,168,1766479991,340641189,6,152391,-142,2.72151780128479,5.001941204071045,44.857505798339844,0.07335115969181061,0.0353788360953331,0.0064191659912467,40.810001373291016,43.060001373291016,53.97800064086914,66.51000213623047,42.20500183105469,54.64500045776367,1766479991,274737003,X6-tool2,4.467602465054667,4.021770193252612,43.81971399321687,-0.04672187783367133,0.09681635670755877,-0.2868301524086975,0.07377306371927261
2025-12-23 16:53:11.383008,1766479991,377331232,1,152584,-50,1766479991,373976726,2,143465,214,1766479991,370647670,3,142619,26,1766479991,367319175,4,177209,35,1766479991,363981279,5,195342,137,1766479991,380656148,6,151831,-139,2.4557008743286133,5.026423454284668,44.82724380493164,0.0556834377348423,0.030356165021657944,0.00676551042124629,40.20600128173828,42.819000244140625,53.8849983215332,65.7030029296875,42.41400146484375,55.20000076293945,1766479991,375130789,X6-tool2,3.967731626677895,4.145958316844682,43.853232233777796,-0.044801467577978156,0.0864525037445823,-0.28400262342907145,0.06919511407613754
2025-12-23 16:53:11.418222,1766479991,417306450,1,152397,-49,1766479991,413998865,2,144245,190,1766479991,410639148,3,142795,50,1766479991,407310983,4,177396,51,1766479991,403976877,5,195886,125,1766479991,400648162,6,151540,-139,2.180608034133911,5.0313544273376465,44.80452346801758,0.032540787011384964,0.00803366955369711,0.024632887914776802,39.6619987487793,42.63199996948242,53.75899887084961,64.88999938964844,42.59000015258789,55.770999908447266,1766479991,375130789,X6-tool2,3.967731626677895,4.145958316844682,43.853232233777796,-0.044801467577978156,0.0864525037445823,-0.28400262342907145,0.06919511407613754
2025-12-23 16:53:11.453283,1766479991,437315454,1,152292,-51,1766479991,433975938,2,144602,172,1766479991,450636987,3,142866,19,1766479991,447304941,4,177572,35,1766479991,443984526,5,196320,100,1766479991,440638950,6,150980,-129,2.0509610176086426,5.0355544090271,44.7963981628418,0.0030574046541005373,0.0271624643355608,0.0347215011715889,39.452999114990234,42.54899978637695,53.65399932861328,64.5270004272461,42.694000244140625,56.05699920654297,1766479991,375130789,X6-tool2,3.967731626677895,4.145958316844682,43.853232233777796,-0.044801467577978156,0.0864525037445823,-0.28400262342907145,0.06919511407613754
2025-12-23 16:53:11.488888,1766479991,477331673,1,152111,-47,1766479991,473982487,2,145426,240,1766479991,470642821,3,142921,25,1766479991,487320130,4,177731,42,1766479991,483988974,5,196787,95,1766479991,480637488,6,150425,-131,1.7901581525802612,5.041333198547363,44.773860931396484,-0.00762423500418663,0.005159929394721985,0.03942551463842392,38.970001220703125,42.374000549316406,53.58300018310547,63.79100036621094,42.88600158691406,56.61199951171875,1766479991,474816128,X6-tool2,3.2371434532086165,4.310918195825333,43.83998844891845,-0.035848540980475366,0.0768932357530814,-0.2802540674905125,0.08802858740091324
2025-12-23 16:53:11.524137,1766479991,517338262,1,151853,-68,1766479991,513977735,2,146107,165,1766479991,510664080,3,142965,10,1766479991,507305203,4,177819,39,1766479991,503981268,5,197012,121,1766479991,520645577,6,149870,-125,1.5168185234069824,5.034174919128418,44.74652862548828,-0.024416828528046608,-0.01947585493326187,0.01008207630366087,38.5359992980957,42.20899963378906,53.51100158691406,63.01100158691406,43.095001220703125,57.1609992980957,1766479991,474816128,X6-tool2,3.2371434532086165,4.310918195825333,43.83998844891845,-0.035848540980475366,0.0768932357530814,-0.2802540674905125,0.08802858740091324
2025-12-23 16:53:11.559707,1766479991,557323640,1,151639,-51,1766479991,554000024,2,146827,183,1766479991,550642228,3,143020,0,1766479991,547309722,4,177995,31,1766479991,543992037,5,197452,107,1766479991,540652971,6,149579,-143,1.2478258609771729,5.036912441253662,44.71914291381836,-0.0172976516187191,-0.004133215174078941,-0.021974246948957443,38.09600067138672,42.03300094604492,53.439998626708984,62.279998779296875,43.347999572753906,57.731998443603516,1766479991,474816128,X6-tool2,3.2371434532086165,4.310918195825333,43.83998844891845,-0.035848540980475366,0.0768932357530814,-0.2802540674905125,0.08802858740091324
2025-12-23 16:53:11.595070,1766479991,577328664,1,151540,-50,1766479991,593998633,2,147458,149,1766479991,590652847,3,143108,28,1766479991,587306410,4,178088,19,1766479991,583973724,5,197847,107,1766479991,580658079,6,148958,-148,1.114837646484375,5.032437324523926,44.71548080444336,-0.01546388678252697,-0.02122962661087513,-0.01109234243631363,37.90399932861328,41.98400115966797,53.42900085449219,61.94499969482422,43.45199966430664,58.040000915527344,1766479991,575311598,X6-tool2,2.637636333175778,4.4150963799034795,43.80609383032161,-0.030543087302352487,0.07121710085112438,-0.2759879971963129,0.08113130182027817
2025-12-23 16:53:11.630429,1766479991,617328982,1,151304,-61,1766479991,614023218,2,147783,168,1766479991,610655870,3,143124,11,1766479991,627349650,4,178204,23,1766479991,623991534,5,198221,95,1766479991,620667268,6,148315,-151,0.8529031872749329,5.031839370727539,44.70912551879883,-0.014359507709741592,-0.01812586933374405,0.04276061803102493,37.51900100708008,41.87900161743164,53.340999603271484,61.31399917602539,43.66600036621094,58.676998138427734,1766479991,575311598,X6-tool2,2.637636333175778,4.4150963799034795,43.80609383032161,-0.030543087302352487,0.07121710085112438,-0.2759879971963129,0.08113130182027817
2025-12-23 16:53:11.666133,1766479991,657328591,1,151051,-70,1766479991,653992665,2,148513,192,1766479991,650658139,3,143196,25,1766479991,647307993,4,178259,27,1766479991,663997112,5,198556,77,1766479991,660669747,6,147689,-150,0.5800265669822693,5.023958683013916,44.69533920288086,0.005889509338885546,-0.02092507854104042,0.058574359863996506,37.13999938964844,41.76900100708008,53.297000885009766,60.643001556396484,43.90800094604492,59.308998107910156,1766479991,575311598,X6-tool2,2.637636333175778,4.4150963799034795,43.80609383032161,-0.030543087302352487,0.07121710085112438,-0.2759879971963129,0.08113130182027817
2025-12-23 16:53:11.701222,1766479991,697325649,1,150793,-81,1766479991,694013144,2,149134,139,1766479991,690664988,3,143207,0,1766479991,687330802,4,178363,33,1766479991,683975766,5,198710,78,1766479991,680668201,6,147387,-144,0.30119433999061584,5.0064697265625,44.67588806152344,0.006663791835308075,-0.026748523116111755,0.03423488512635231,36.8380012512207,41.665000915527344,53.25299835205078,59.94599914550781,44.16600036621094,59.92399978637695,1766479991,674830950,X6-tool2,1.9761866546485884,4.559260404404848,43.82929892191133,-0.022712244196927314,0.06823551969074551,-0.270566991436146,0.07139746099710464
2025-12-23 16:53:11.736550,1766479991,717334944,1,150661,-69,1766479991,734001792,2,149738,148,1766479991,730643325,3,143234,0,1766479991,727340371,4,178467,22,1766479991,723976944,5,199012,82,1766479991,720647258,6,146744,-166,0.029994428157806396,4.998603820800781,44.65998458862305,0.018206441774964333,-0.017238883301615715,0.036024633795022964,36.5359992980957,41.56100082397461,53.21500015258789,59.30799865722656,44.43000030517578,60.56700134277344,1766479991,674830950,X6-tool2,1.9761866546485884,4.559260404404848,43.82929892191133,-0.022712244196927314,0.06823551969074551,-0.270566991436146,0.07139746099710464
2025-12-23 16:53:11.772006,1766479991,757322012,1,150364,-78,1766479991,754013637,2,150024,129,1766479991,770682075,3,143240,0,1766479991,767342429,4,178583,28,1766479991,763974072,5,199254,71,1766479991,760681258,6,146074,-166,-0.09615659713745117,5.001048564910889,44.65541076660156,0.012789112515747547,-0.004823359195142984,0.028155630454421043,36.42599868774414,41.51100158691406,53.21500015258789,59.034000396728516,44.573001861572266,60.895999908447266,1766479991,674830950,X6-tool2,1.9761866546485884,4.559260404404848,43.82929892191133,-0.022712244196927314,0.06823551969074551,-0.270566991436146,0.07139746099710464
2025-12-23 16:53:11.807152,1766479991,797316249,1,150079,-59,1766479991,794012944,2,150601,133,1766479991,790645258,3,143234,0,1766479991,787327303,4,178687,48,1766479991,803992871,5,199506,59,1766479991,800665705,6,145432,-159,-0.36149683594703674,5.016551494598389,44.62715530395508,0.010072669014334679,0.026936760172247887,0.001543249236419797,36.152000427246094,41.340999603271484,53.20899963378906,58.435001373291016,44.86899948120117,61.55500030517578,1766479991,775415583,X6-tool2,1.315769777442044,4.561755680472444,43.86399801784775,-0.01694010473159935,0.06494641403541365,-0.26745142432662705,0.06308142095804214
2025-12-23 16:53:11.842572,1766479991,837302077,1,149843,-48,1766479991,834024093,2,151188,153,1766479991,830648996,3,143234,4,1766479991,827322991,4,178786,25,1766479991,823976645,5,199644,76,1766479991,840664154,6,144789,-158,-0.616327166557312,5.015861988067627,44.61170959472656,0.029156817123293877,0.042871154844760895,0.008175019174814224,35.90399932861328,41.242000579833984,53.21500015258789,57.880001068115234,45.138999938964844,62.20399856567383,1766479991,775415583,X6-tool2,1.315769777442044,4.561755680472444,43.86399801784775,-0.01694010473159935,0.06494641403541365,-0.26745142432662705,0.06308142095804214
2025-12-23 16:53:11.877840,1766479991,877311786,1,149584,-58,1766479991,874014981,2,151776,145,1766479991,870646084,3,143223,-5,1766479991,867305178,4,178896,15,1766479991,863984983,5,199874,53,1766479991,860640037,6,144443,-165,-0.8848175406455994,5.011781215667725,44.58909606933594,0.024201668798923492,0.03415338695049286,0.028653429821133614,35.67399978637695,41.13199996948242,53.20899963378906,57.2869987487793,45.380001068115234,62.86800003051758,1766479991,874761730,X6-tool2,0.660941536199574,4.649925405825079,43.86152061980917,-0.01194805203507942,0.06283784189963809,-0.2639472835627503,0.062341053038835526
2025-12-23 16:53:11.913123,1766479991,897330971,1,149458,-68,1766479991,894007705,2,152051,128,1766479991,910670514,3,143201,-5,1766479991,907315777,4,179011,43,1766479991,903984802,5,200089,54,1766479991,900665226,6,143734,-186,-1.0217052698135376,5.008604526519775,44.580528259277344,0.024470727890729904,0.02648170106112957,0.04066433757543564,35.569000244140625,41.0880012512207,53.22600173950195,56.99599838256836,45.50699996948242,63.220001220703125,1766479991,874761730,X6-tool2,0.660941536199574,4.649925405825079,43.86152061980917,-0.01194805203507942,0.06283784189963809,-0.2639472835627503,0.062341053038835526
2025-12-23 16:53:11.948521,1766479991,937306208,1,149194,-60,1766479991,933982883,2,152567,114,1766479991,930651087,3,143185,-12,1766479991,947307755,4,179121,25,1766479991,943988930,5,200237,32,1766479991,940649474,6,143020,-164,-1.283940076828003,5.020107269287109,44.55916213989258,0.0061377412639558315,0.036122728139162064,0.061262764036655426,35.37699890136719,40.96200180053711,53.24800109863281,56.4630012512207,45.77000045776367,63.933998107910156,1766479991,874761730,X6-tool2,0.660941536199574,4.649925405825079,43.86152061980917,-0.01194805203507942,0.06283784189963809,-0.2639472835627503,0.062341053038835526
2025-12-23 16:53:11.983519,1766479991,977322947,1,148925,-80,1766479991,973988451,2,153122,144,1766479991,970684787,3,143113,-21,1766479991,967307169,4,179171,30,1766479991,963976793,5,200303,27,1766479991,980644622,6,142333,-178,-1.5436333417892456,5.022066116333008,44.53705596923828,-0.03064240887761116,0.02232612855732441,0.06597808748483658,35.244998931884766,40.856998443603516,53.29199981689453,55.93000030517578,46.018001556396484,64.6259994506836,1766479991,975158826,X6-tool2,0.0019870441156250762,4.687227403544639,43.74985706114251,-0.006047138258552515,0.05820557465360426,-0.2612514380719933,0.06740633398294449
2025-12-23 16:53:12.019116,1766479992,17310685,1,148618,-70,1766479992,13974809,2,153633,119,1766479992,10659554,3,143020,-27,1766479992,7331749,4,179280,20,1766479992,3972042,5,200418,29,1766479992,639506,6,141971,-192,-1.8106749057769775,5.023418426513672,44.511558532714844,-0.04886425659060478,0.025824595242738724,0.03059871308505535,35.130001068115234,40.74800109863281,53.374000549316406,55.38600158691406,46.32500076293945,65.33999633789062,1766479991,975158826,X6-tool2,0.0019870441156250762,4.687227403544639,43.74985706114251,-0.006047138258552515,0.05820557465360426,-0.2612514380719933,0.06740633398294449
2025-12-23 16:53:12.054241,1766479992,37326560,1,148480,-74,1766479992,33994034,2,153896,132,1766479992,50638652,3,142927,-12,1766479992,47303296,4,179341,18,1766479992,43978010,5,200528,24,1766479992,40638624,6,141213,-200,-1.941513180732727,5.023468494415283,44.50538635253906,-0.04886425659060478,0.025824595242738724,0.03059871308505535,35.07500076293945,40.71500015258789,53.42900085449219,55.138999938964844,46.472999572753906,65.71900177001953,1766479991,975158826,X6-tool2,0.0019870441156250762,4.687227403544639,43.74985706114251,-0.006047138258552515,0.05820557465360426,-0.2612514380719933,0.06740633398294449
2025-12-23 16:53:12.090339,1766479992,77307297,1,148167,-83,1766479992,74009253,2,154429,148,1766479992,70644056,3,142888,-20,1766479992,87316365,4,179418,21,1766479992,83989550,5,200621,12,1766479992,81407162,6,140449,-189,-2.2137041091918945,5.017416954040527,44.48772430419922,-0.061598435044288635,0.019473962485790253,0.040120694786310196,34.97100067138672,40.64899826049805,53.52199935913086,54.61199951171875,46.76499938964844,66.48300170898438,1766479992,75072133,X6-tool2,-0.5542651411974785,4.690829125000866,43.6790740312042,-0.0024561117864167078,0.05195345865900172,-0.2596460943485678,0.06847000122070312
2025-12-23 16:53:12.126048,1766479992,117326327,1,147827,-75,1766479992,113997511,2,154896,112,1766479992,110662165,3,142767,-29,1766479992,107314479,4,179467,26,1766479992,124004668,5,200704,12,1766479992,120667042,6,139702,-199,-2.4791736602783203,5.015355110168457,44.46244430541992,-0.046797219663858414,0.04176819324493408,0.014467793516814709,34.86600112915039,40.56100082397461,53.62099838256836,54.095001220703125,47.099998474121094,67.2239990234375,1766479992,75072133,X6-tool2,-0.5542651411974785,4.690829125000866,43.6790740312042,-0.0024561117864167078,0.05195345865900172,-0.2596460943485678,0.06847000122070312
2025-12-23 16:53:12.161341,1766479992,157317634,1,147519,-84,1766479992,153978368,2,155325,125,1766479992,150680004,3,142614,-44,1766479992,147308307,4,179555,21,1766479992,143975291,5,200737,25,1766479992,160655500,6,138895,-220,-2.7251672744750977,5.029234886169434,44.445621490478516,-0.0705365538597107,0.06492472440004349,0.0011621576268225908,34.81100082397461,40.472999572753906,53.74800109863281,53.66699981689453,47.417999267578125,68.00399780273438,1766479992,75072133,X6-tool2,-0.5542651411974785,4.690829125000866,43.6790740312042,-0.0024561117864167078,0.05195345865900172,-0.2596460943485678,0.06847000122070312
2025-12-23 16:53:12.196320,1766479992,177333369,1,147338,-97,1766479992,194138913,2,155841,129,1766479992,190646191,3,142449,-44,1766479992,187328016,4,179615,12,1766479992,184029472,5,200814,19,1766479992,180699266,6,138450,-217,-2.996272325515747,5.0326247215271,44.430320739746094,-0.06268753856420517,0.07936926186084747,0.01463809609413147,34.73400115966797,40.41299819946289,53.9119987487793,53.19499969482422,47.75299835205078,68.86100006103516,1766479992,174698740,X6-tool2,-1.2789396141973084,4.833890862402405,43.65604150822848,0.002419401523866841,0.04825720215353927,-0.2593349280288031,0.07234128564596176
2025-12-23 16:53:12.231725,1766479992,217335337,1,147008,-71,1766479992,213971981,2,156105,128,1766479992,230821746,3,142245,-43,1766479992,227533102,4,179665,14,1766479992,223997878,5,200874,27,1766479992,220643682,6,137604,-214,-3.1400346755981445,5.028528690338135,44.41869354248047,-0.06179218739271164,0.07899103313684464,0.007793472148478031,34.71200180053711,40.3849983215332,54.0,52.930999755859375,47.92900085449219,69.29000091552734,1766479992,174698740,X6-tool2,-1.2789396141973084,4.833890862402405,43.65604150822848,0.002419401523866841,0.04825720215353927,-0.2593349280288031,0.07234128564596176
2025-12-23 16:53:12.267097,1766479992,257352746,1,146673,-77,1766479992,253978099,2,156588,123,1766479992,250677284,3,142141,-59,1766479992,247330829,4,179681,4,1766479992,264021898,5,200901,10,1766479992,260684372,6,136719,-238,-3.4257566928863525,5.016995429992676,44.39773941040039,-0.05173212289810181,0.063397616147995,0.023956455290317535,34.66299819946289,40.34700012207031,54.20399856567383,52.415000915527344,48.25299835205078,70.15799713134766,1766479992,174698740,X6-tool2,-1.2789396141973084,4.833890862402405,43.65604150822848,0.002419401523866841,0.04825720215353927,-0.2593349280288031,0.07234128564596176
2025-12-23 16:53:12.302841,1766479992,297334464,1,146360,-76,1766479992,294004208,2,157055,112,1766479992,290669143,3,141910,-69,1766479992,287429430,4,179714,8,1766479992,283993811,5,200923,13,1766479992,300706301,6,135797,-246,-3.700275182723999,5.012377738952637,44.38087844848633,-0.045738380402326584,0.06090955436229706,0.0573783814907074,34.625,40.31399917602539,54.4119987487793,51.948001861572266,48.571998596191406,71.0530014038086,1766479992,274886368,X6-tool2,-1.9883037055260224,4.807261313316596,43.55853612052717,0.006676777596090619,0.04039623644024937,-0.2576897203429925,0.05356566235423088
2025-12-23 16:53:12.338700,1766479992,337353863,1,146030,-90,1766479992,334076750,2,157495,94,1766479992,330863868,3,141586,-75,1766479992,327588765,4,179742,3,1766479992,324180526,5,200923,0,1766479992,320839040,6,135341,-221,-3.9737191200256348,5.0079827308654785,44.36362838745117,-0.051084257662296295,0.04025951772928238,0.072121761739254,34.625,40.2859992980957,54.698001861572266,51.492000579833984,48.895999908447266,71.97000122070312,1766479992,274886368,X6-tool2,-1.9883037055260224,4.807261313316596,43.55853612052717,0.006676777596090619,0.04039623644024937,-0.2576897203429925,0.05356566235423088
2025-12-23 16:53:12.373657,1766479992,357360847,1,145854,-103,1766479992,354005701,2,157687,92,1766479992,370699681,3,141246,-68,1766479992,367352034,4,179764,1,1766479992,364022729,5,200918,0,1766479992,360694483,6,134451,-219,-4.10234260559082,5.006077289581299,44.35382080078125,-0.04335153475403786,0.030829457566142082,0.06936235725879669,34.625,40.27000045776367,54.862998962402344,51.277000427246094,49.06100082397461,72.40399932861328,1766479992,274886368,X6-tool2,-1.9883037055260224,4.807261313316596,43.55853612052717,0.006676777596090619,0.04039623644024937,-0.2576897203429925,0.05356566235423088
2025-12-23 16:53:12.410208,1766479992,397331205,1,145464,-106,1766479992,393991529,2,158071,91,1766479992,390646402,3,141103,-81,1766479992,407440416,4,179797,17,1766479992,404085820,5,200912,0,1766479992,400656470,6,133495,-240,-4.35168981552124,5.0080718994140625,44.3421516418457,-0.012278222478926182,0.04299388825893402,0.06483937054872513,34.630001068115234,40.25299835205078,55.202999114990234,50.893001556396484,49.42900085449219,73.3219985961914,1766479992,375029084,X6-tool2,-2.5852133114673035,4.92604547234471,43.417472290255915,0.009863253085892854,0.03195638292286046,-0.25604646339557674,0.06154441833496094
2025-12-23 16:53:12.445717,1766479992,437463408,1,145063,-99,1766479992,434003858,2,158511,121,1766479992,430684152,3,140729,-85,1766479992,427494372,4,179802,8,1766479992,444022496,5,200891,-5,1766479992,440692560,6,132457,-249,-4.617351531982422,5.0156073570251465,44.32814025878906,0.01034162100404501,0.07716440409421921,0.0643598809838295,34.64699935913086,40.22600173950195,55.53300094604492,50.49700164794922,49.834999084472656,74.3489990234375,1766479992,375029084,X6-tool2,-2.5852133114673035,4.92604547234471,43.417472290255915,0.009863253085892854,0.03195638292286046,-0.25604646339557674,0.06154441833496094
2025-12-23 16:53:12.480804,1766479992,477331822,1,144838,0,1766479992,474001176,2,158989,98,1766479992,470668060,3,140295,-113,1766479992,467377386,4,179835,10,1766479992,464121153,5,200874,-9,1766479992,460695254,6,131957,-248,-4.903127193450928,5.007694721221924,44.298316955566406,0.042086001485586166,0.07371599972248077,0.0514531135559082,34.67399978637695,40.19300079345703,55.92300033569336,50.02000045776367,50.23099899291992,75.35399627685547,1766479992,474881939,X6-tool2,-3.3248930993085604,5.113887994799923,43.370478510473085,0.013514364592532186,0.026839033483308548,-0.2546871266396833,0.06940937042236328
2025-12-23 16:53:12.516845,1766479992,497538164,1,144827,-3,1766479992,514026555,2,159011,0,1766479992,510831805,3,140317,4,1766479992,507484299,4,179901,21,1766479992,504220856,5,200880,0,1766479992,500879090,6,131885,-13,-4.991910457611084,4.986831188201904,44.25658416748047,0.0577491857111454,-0.01876910589635372,0.005536941345781088,34.667999267578125,40.12699890136719,56.143001556396484,49.766998291015625,50.263999938964844,75.4260025024414,1766479992,474881939,X6-tool2,-3.3248930993085604,5.113887994799923,43.370478510473085,0.013514364592532186,0.026839033483308548,-0.2546871266396833,0.06940937042236328
2025-12-23 16:53:12.552636,1766479992,537330524,1,144822,0,1766479992,534012479,2,159016,0,1766479992,550699228,3,140966,315,1766479992,547366262,4,179780,-92,1766479992,544016906,5,200803,-48,1766479992,540693911,6,132220,197,-4.996840476989746,4.997386455535889,44.24996566772461,0.03662087768316269,-0.013664272613823414,-0.004233828280121088,34.667999267578125,40.0880012512207,56.13199996948242,49.76100158691406,50.26900100708008,75.45899963378906,1766479992,474881939,X6-tool2,-3.3248930993085604,5.113887994799923,43.370478510473085,0.013514364592532186,0.026839033483308548,-0.2546871266396833,0.06940937042236328
2025-12-23 16:53:12.588187,1766479992,577332502,1,144888,10,1766479992,573994737,2,159478,104,1766479992,570653291,3,141630,344,1766479992,587438713,4,179451,-93,1766479992,584136179,5,200632,-48,1766479992,580662498,6,133121,211,-4.974878311157227,4.834918975830078,44.24506378173828,0.10961577296257019,-0.03534896671772003,-0.08003940433263779,34.821998596191406,40.39099884033203,55.483001708984375,49.525001525878906,50.236000061035156,74.65699768066406,1766479992,574576449,X6-tool2,-3.5975986222137792,5.108030101867945,43.31024018717201,0.016554407678589973,0.02370567027194041,-0.25315660692715775,0.07209587097167969
2025-12-23 16:53:12.623282,1766479992,617366332,1,144981,20,1766479992,614011195,2,159906,107,1766479992,610673099,3,142971,302,1766479992,607347114,4,179236,-99,1766479992,604023759,5,200539,-40,1766479992,620751959,6,134099,245,-4.991093158721924,4.60019588470459,44.220611572265625,0.1381506621837616,0.017720136791467667,-0.06108814477920532,35.00899887084961,40.79199981689453,54.0989990234375,49.08000183105469,50.143001556396484,73.68399810791016,1766479992,574576449,X6-tool2,-3.5975986222137792,5.108030101867945,43.31024018717201,0.016554407678589973,0.02370567027194041,-0.25315660692715775,0.07209587097167969
2025-12-23 16:53:12.659287,1766479992,657316548,1,145162,53,1766479992,654005793,2,160345,113,1766479992,650690368,3,144267,333,1766479992,647344292,4,178709,-149,1766479992,644114781,5,200308,-48,1766479992,640765194,6,134610,251,-4.993724346160889,4.3330607414245605,44.21513366699219,0.19487349689006805,0.029299838468432426,-0.0349891223013401,35.2400016784668,41.319000244140625,52.858001708984375,48.652000427246094,50.03900146484375,72.70099639892578,1766479992,574576449,X6-tool2,-3.5975986222137792,5.108030101867945,43.31024018717201,0.016554407678589973,0.02370567027194041,-0.25315660692715775,0.07209587097167969
2025-12-23 16:53:12.694737,1766479992,677484869,1,145195,21,1766479992,693991351,2,160823,126,1766479992,690698477,3,145503,310,1766479992,687473015,4,178182,-115,1766479992,684134629,5,200072,-62,1766479992,680736481,6,135637,201,-4.982711315155029,4.190815448760986,44.20591354370117,0.2113698571920395,0.023839078843593597,-0.008162605576217175,35.349998474121094,41.58300018310547,52.18199920654297,48.426998138427734,49.92900085449219,72.13500213623047,1766479992,674794998,X6-tool2,-3.814173398876301,5.0186980885753245,43.19731936096118,0.022542202213580446,0.02286909390295928,-0.251239883594677,0.0701039656996727
2025-12-23 16:53:12.731232,1766479992,717336781,1,145360,43,1766479992,713997375,2,161060,111,1766479992,730717176,3,146662,279,1766479992,727413812,4,177742,-108,1766479992,723987743,5,199677,-116,1766479992,720693668,6,136577,251,-4.9959259033203125,3.9252350330352783,44.18242263793945,0.20099122822284698,0.030961401760578156,-0.021149149164557457,35.630001068115234,42.07099914550781,50.94599914550781,47.94900131225586,49.834999084472656,71.22899627685547,1766479992,674794998,X6-tool2,-3.814173398876301,5.0186980885753245,43.19731936096118,0.022542202213580446,0.02286909390295928,-0.251239883594677,0.0701039656996727
2025-12-23 16:53:12.766524,1766479992,757346170,1,145415,18,1766479992,753979573,2,161510,114,1766479992,750668929,3,147222,300,1766479992,747311712,4,177495,-114,1766479992,764173258,5,199440,-75,1766479992,760686786,6,137379,205,-4.992867946624756,3.6702475547790527,44.15559005737305,0.12079272419214249,0.015738900750875473,-0.07471424341201782,35.96500015258789,42.53300094604492,49.7869987487793,47.50400161743164,49.7140007019043,70.34400177001953,1766479992,674794998,X6-tool2,-3.814173398876301,5.0186980885753245,43.19731936096118,0.022542202213580446,0.02286909390295928,-0.251239883594677,0.0701039656996727
2025-12-23 16:53:12.802471,1766479992,797371910,1,145536,15,1766479992,794003203,2,161999,66,1766479992,790683718,3,148255,255,1766479992,787319651,4,176841,-189,1766479992,783978314,5,199226,-71,1766479992,800672084,6,138192,174,-4.999914169311523,3.360851287841797,44.15019226074219,0.10336394608020782,-0.03530806675553322,-0.06418272107839584,36.321998596191406,43.1870002746582,48.676998138427734,47.02000045776367,49.5880012512207,69.47699737548828,1766479992,774835040,X6-tool2,-4.190754134861445,4.747974976563661,43.10613435137908,0.027658924422268305,0.021699718555249405,-0.24480459662767198,0.0720977783203125
2025-12-23 16:53:12.837621,1766479992,817358513,1,145580,24,1766479992,834030512,2,162405,85,1766479992,830690486,3,149277,268,1766479992,827329099,4,176336,-134,1766479992,823999174,5,198973,-72,1766479992,820693179,6,138560,164,-5.013032913208008,3.1020946502685547,44.12709426879883,0.11290330439805984,-0.041471950709819794,-0.05231618508696556,36.57500076293945,43.69200134277344,47.68299865722656,46.56399917602539,49.51100158691406,68.7509994506836,1766479992,774835040,X6-tool2,-4.190754134861445,4.747974976563661,43.10613435137908,0.027658924422268305,0.021699718555249405,-0.24480459662767198,0.0720977783203125
2025-12-23 16:53:12.873510,1766479992,857341151,1,145673,12,1766479992,854017056,2,162592,97,1766479992,870674454,3,150271,221,1766479992,867346758,4,175781,-140,1766479992,863987472,5,198699,-62,1766479992,860682807,6,139279,175,-5.0045318603515625,2.9687564373016357,44.121856689453125,0.09230413287878036,-0.04758916050195694,-0.0431884340941906,36.72800064086914,43.97200012207031,47.172000885009766,46.367000579833984,49.44499969482422,68.36699676513672,1766479992,774835040,X6-tool2,-4.190754134861445,4.747974976563661,43.10613435137908,0.027658924422268305,0.021699718555249405,-0.24480459662767198,0.0720977783203125
2025-12-23 16:53:12.909044,1766479992,897314468,1,145756,20,1766479992,894014914,2,163037,113,1766479992,890667988,3,150743,222,1766479992,907320325,4,175193,-143,1766479992,903983830,5,198408,-78,1766479992,900681735,6,140070,219,-4.9960408210754395,2.703514575958252,44.111202239990234,0.1167178675532341,-0.023213054984807968,-0.000622428604401648,36.97600173950195,44.53799819946289,46.178001403808594,45.965999603271484,49.37900161743164,67.65799713134766,1766479992,874849161,X6-tool2,-4.582324417298444,4.200695878695149,42.925308392117714,0.03224929690621808,0.027985459050783056,-0.2393854437422107,0.06581243127584457
2025-12-23 16:53:12.944747,1766479992,937305816,1,145778,0,1766479992,934016152,2,163499,102,1766479992,930642215,3,151661,248,1766479992,927319400,4,174935,-132,1766479992,943972798,5,198133,-72,1766479992,940683514,6,140735,157,-4.992728233337402,2.4267797470092773,44.083778381347656,0.12343457341194153,-0.03908216208219528,-0.026647822931408882,37.27199935913086,45.09299850463867,45.26599884033203,45.50400161743164,49.33000183105469,66.91699981689453,1766479992,874849161,X6-tool2,-4.582324417298444,4.200695878695149,42.925308392117714,0.03224929690621808,0.027985459050783056,-0.2393854437422107,0.06581243127584457
2025-12-23 16:53:12.980213,1766479992,977327845,1,145800,0,1766479992,974013770,2,163949,108,1766479992,970664954,3,152633,257,1766479992,967318208,4,174320,-170,1766479992,963984573,5,197957,-90,1766479992,960654487,6,141081,172,-4.9942946434021,2.1396262645721436,44.063880920410156,0.10825356096029282,-0.037486884742975235,-0.01800324022769928,37.590999603271484,45.70800018310547,44.30500030517578,45.042999267578125,49.29100036621094,66.2300033569336,1766479992,974704986,X6-tool2,-4.735679588695724,3.72014807144077,42.77252386295223,0.038910676670745256,0.03980520468911009,-0.2350503821630614,0.06687704473733902
2025-12-23 16:53:13.016351,1766479992,997351351,1,145800,0,1766479993,14015749,2,164383,125,1766479993,10687643,3,153402,186,1766479993,7321846,4,173694,-153,1766479993,3980911,5,197661,-77,1766479993,682266,6,141647,136,-5.004466533660889,1.866959810256958,44.05406188964844,0.10541024804115295,-0.02501095086336136,0.021889911964535713,37.887001037597656,46.33399963378906,43.430999755859375,44.619998931884766,49.29100036621094,65.66400146484375,1766479992,974704986,X6-tool2,-4.735679588695724,3.72014807144077,42.77252386295223,0.038910676670745256,0.03980520468911009,-0.2350503821630614,0.06687704473733902
2025-12-23 16:53:13.051457,1766479993,37336248,1,145805,0,1766479993,34017714,2,164608,107,1766479993,50688572,3,154171,201,1766479993,47318184,4,173117,-144,1766479993,43977778,5,197364,-64,1766479993,40682824,6,142262,147,-5.004482269287109,1.7298133373260498,44.03840637207031,0.1041942685842514,-0.04285171255469322,0.005946159362792969,38.04100036621094,46.619998931884766,43.047000885009766,44.388999938964844,49.279998779296875,65.33999633789062,1766479992,974704986,X6-tool2,-4.735679588695724,3.72014807144077,42.77252386295223,0.038910676670745256,0.03980520468911009,-0.2350503821630614,0.06687704473733902
2025-12-23 16:53:13.087041,1766479993,77316206,1,145805,0,1766479993,74010901,2,165037,94,1766479993,70659575,3,154583,194,1766479993,67343580,4,172820,-145,1766479993,83978617,5,197056,-74,1766479993,80684393,6,142883,150,-5.012279987335205,1.4570097923278809,44.00970458984375,0.11332384496927261,-0.061865102499723434,0.0005265235085971653,38.332000732421875,47.20800018310547,42.27799987792969,43.928001403808594,49.2859992980957,64.74700164794922,1766479993,75065681,X6-tool2,-4.823409700611238,3.085514987678674,42.70472834991474,0.0405741439895559,0.05220761214164109,-0.22882135161596365,0.06131267547607422
2025-12-23 16:53:13.122650,1766479993,117309834,1,145794,0,1766479993,114012190,2,165427,86,1766479993,110669933,3,155347,167,1766479993,107321627,4,172172,-155,1766479993,103998702,5,196908,-79,1766479993,120652400,6,143421,131,-4.994480609893799,1.181918978691101,43.997623443603516,0.09917434304952621,-0.035287439823150635,0.02709624357521534,38.63999938964844,47.85599899291992,41.45399856567383,43.542999267578125,49.297000885009766,64.15399932861328,1766479993,75065681,X6-tool2,-4.823409700611238,3.085514987678674,42.70472834991474,0.0405741439895559,0.05220761214164109,-0.22882135161596365,0.06131267547607422
2025-12-23 16:53:13.158361,1766479993,157325393,1,145772,-10,1766479993,153986197,2,165839,108,1766479993,150651271,3,156061,178,1766479993,147320915,4,171524,-164,1766479993,144004141,5,196556,-91,1766479993,140658034,6,143690,129,-4.985442161560059,0.9131763577461243,43.98554992675781,0.04655599594116211,-0.054376762360334396,0.023864395916461945,38.992000579833984,48.50400161743164,40.750999450683594,43.159000396728516,49.301998138427734,63.62099838256836,1766479993,75065681,X6-tool2,-4.823409700611238,3.085514987678674,42.70472834991474,0.0405741439895559,0.05220761214164109,-0.22882135161596365,0.06131267547607422
2025-12-23 16:53:13.193456,1766479993,177305896,1,145761,-10,1766479993,174014762,2,166053,105,1766479993,190692781,3,156693,156,1766479993,187318364,4,170854,-165,1766479993,183985728,5,196232,-81,1766479993,180682564,6,144157,118,-4.996928691864014,0.7759363651275635,43.975406646728516,0.0367194265127182,-0.06343609094619751,0.04631352052092552,39.14500045776367,48.83399963378906,40.38800048828125,42.93299865722656,49.319000244140625,63.38999938964844,1766479993,174689558,X6-tool2,-4.833694574427211,2.433254343378936,42.737418220283175,0.04250365459055482,0.06381101917578519,-0.2226179961651823,0.07147598266601562
2025-12-23 16:53:13.229687,1766479993,217349826,1,145712,-15,1766479993,214017731,2,166481,106,1766479993,210645483,3,157022,184,1766479993,227347013,4,170211,-157,1766479993,223977786,5,195903,-88,1766479993,220686622,6,144673,120,-4.998228073120117,0.4975321590900421,43.95407485961914,0.018254578113555908,-0.10922818630933762,0.04350424185395241,39.47999954223633,49.50400161743164,39.75600051879883,42.505001068115234,49.34600067138672,62.874000549316406,1766479993,174689558,X6-tool2,-4.833694574427211,2.433254343378936,42.737418220283175,0.04250365459055482,0.06381101917578519,-0.2226179961651823,0.07147598266601562
2025-12-23 16:53:13.265382,1766479993,257349095,1,145574,-43,1766479993,254017849,2,166904,100,1766479993,250663843,3,157676,170,1766479993,247311606,4,169887,-165,1766479993,263973645,5,195606,-78,1766479993,260643199,6,145184,128,-4.9992451667785645,0.23035135865211487,43.92707824707031,0.003921492025256157,-0.10772903263568878,0.037222474813461304,39.79399871826172,50.14099884033203,39.09700012207031,42.082000732421875,49.433998107910156,62.37900161743164,1766479993,174689558,X6-tool2,-4.833694574427211,2.433254343378936,42.737418220283175,0.04250365459055482,0.06381101917578519,-0.2226179961651823,0.07147598266601562
2025-12-23 16:53:13.301108,1766479993,297320842,1,145393,-29,1766479993,293976396,2,167294,106,1766479993,290663771,3,158258,118,1766479993,287312185,4,169178,-172,1766479993,283994499,5,195463,-79,1766479993,300644017,6,145629,110,-4.997818946838379,-0.04905986785888672,43.908023834228516,0.054722003638744354,-0.07300350069999695,0.049394529312849045,40.084999084472656,50.849998474121094,38.45500183105469,41.66999816894531,49.63199996948242,61.9010009765625,1766479993,274641887,X6-tool2,-4.823637288672363,1.7074000933917537,42.70104193859068,0.04227436820580617,0.07249340873215496,-0.21647815525388714,0.054294586181640625
2025-12-23 16:53:13.336990,1766479993,317322346,1,145316,-28,1766479993,334002135,2,167662,88,1766479993,330683830,3,158807,141,1766479993,327310693,4,168481,-170,1766479993,324017349,5,195167,-67,1766479993,320645011,6,145854,105,-4.995328903198242,-0.317547082901001,43.889892578125,0.0900469496846199,-0.09522887319326401,0.05472221598029137,40.38100051879883,51.547000885009766,37.9379997253418,41.279998779296875,49.775001525878906,61.457000732421875,1766479993,274641887,X6-tool2,-4.823637288672363,1.7074000933917537,42.70104193859068,0.04227436820580617,0.07249340873215496,-0.21647815525388714,0.054294586181640625
2025-12-23 16:53:13.372558,1766479993,357347195,1,145146,-38,1766479993,353977628,2,167860,106,1766479993,370729510,3,159340,135,1766479993,367342322,4,167756,-185,1766479993,364021537,5,194854,-90,1766479993,360644620,6,146261,94,-4.98524808883667,-0.451375275850296,43.88528060913086,0.09790778905153275,-0.07615157216787338,0.07033080607652664,40.529998779296875,51.90999984741211,37.641998291015625,41.11000061035156,49.862998962402344,61.23099899291992,1766479993,274641887,X6-tool2,-4.823637288672363,1.7074000933917537,42.70104193859068,0.04227436820580617,0.07249340873215496,-0.21647815525388714,0.054294586181640625
2025-12-23 16:53:13.407800,1766479993,397332353,1,144943,-56,1766479993,394007348,2,168212,94,1766479993,390722844,3,159615,141,1766479993,407325750,4,167091,-175,1766479993,403996684,5,194458,-98,1766479993,400662819,6,146667,100,-4.991274356842041,-0.7048154473304749,43.8704719543457,0.04678914323449135,-0.07654023915529251,0.06408019363880157,40.88100051879883,52.60200119018555,37.10900115966797,40.742000579833984,50.03300094604492,60.862998962402344,1766479993,374742801,X6-tool2,-4.789215383766523,1.064208361273333,42.70337633889519,0.04539144119490628,0.08074387103319776,-0.21015735016764528,0.04689788818359375
2025-12-23 16:53:13.443234,1766479993,437357922,1,144734,-54,1766479993,434060638,2,168585,89,1766479993,430796065,3,160109,120,1766479993,427493831,4,166723,-184,1766479993,424161305,5,194293,-76,1766479993,440668407,6,147047,104,-4.988246917724609,-0.9642385840415955,43.85011672973633,-0.003945749253034592,-0.0658339262008667,0.022279512137174606,41.255001068115234,53.30500030517578,36.59199905395508,40.36800003051758,50.25299835205078,60.46200180053711,1766479993,374742801,X6-tool2,-4.789215383766523,1.064208361273333,42.70337633889519,0.04539144119490628,0.08074387103319776,-0.21015735016764528,0.04689788818359375
2025-12-23 16:53:13.479276,1766479993,477357401,1,144498,-64,1766479993,474021485,2,168986,102,1766479993,470660398,3,160598,109,1766479993,467332053,4,165943,-191,1766479993,463995056,5,193980,-78,1766479993,460669502,6,147261,125,-4.980836868286133,-1.2411867380142212,43.83258056640625,0.013849047012627125,-0.07064823806285858,0.04714764654636383,41.56800079345703,54.084999084472656,36.09299850463867,39.98899841308594,50.46699905395508,60.04999923706055,1766479993,474925549,X6-tool2,-4.704572701370487,0.4502591262720819,42.730988085566665,0.0528979004352443,0.08535784153285592,-0.20399967348421313,0.07772699743509293
2025-12-23 16:53:13.514786,1766479993,497307993,1,144344,-84,1766479993,514011523,2,169415,110,1766479993,510637336,3,161043,100,1766479993,507306300,4,165146,-202,1766479993,503973304,5,193645,-86,1766479993,500662809,6,147651,90,-4.980373859405518,-1.3829652070999146,43.82117462158203,0.018366673961281776,-0.07742156088352203,0.04850561171770096,41.737998962402344,54.486000061035156,35.85100173950195,39.7859992980957,50.59299850463867,59.84700012207031,1766479993,474925549,X6-tool2,-4.704572701370487,0.4502591262720819,42.730988085566665,0.0528979004352443,0.08535784153285592,-0.20399967348421313,0.07772699743509293
2025-12-23 16:53:13.550405,1766479993,537326502,1,144031,-63,1766479993,534011907,2,169612,98,1766479993,530658980,3,161241,102,1766479993,547313569,4,164377,-181,1766479993,543970803,5,193293,-81,1766479993,540640097,6,148019,91,-4.990483283996582,-1.662465214729309,43.79189682006836,0.050653502345085144,-0.09087952971458435,0.027240514755249023,42.073001861572266,55.277000427246094,35.40599822998047,39.356998443603516,50.92300033569336,59.46799850463867,1766479993,474925549,X6-tool2,-4.704572701370487,0.4502591262720819,42.730988085566665,0.0528979004352443,0.08535784153285592,-0.20399967348421313,0.07772699743509293
2025-12-23 16:53:13.586158,1766479993,577327950,1,143723,-86,1766479993,573998775,2,169969,81,1766479993,570659769,3,161669,118,1766479993,567343384,4,163987,-196,1766479993,583979001,5,192942,-97,1766479993,580642475,6,148359,91,-4.993911266326904,-1.9226930141448975,43.76801681518555,0.02947031334042549,-0.11195781826972961,-0.004251986276358366,42.43000030517578,56.04100036621094,35.005001068115234,38.97800064086914,51.20899963378906,59.12200164794922,1766479993,575251712,X6-tool2,-4.7150130496490235,-0.49286771223837444,42.74332811129618,0.0600742346684101,0.09204708199262707,-0.19900715344942094,0.052700359374284744
2025-12-23 16:53:13.621291,1766479993,617304288,1,143388,-90,1766479993,613990853,2,170277,84,1766479993,610648057,3,162136,109,1766479993,607321572,4,163109,-199,1766479993,603967785,5,192794,-74,1766479993,620666345,6,148656,63,-4.98881721496582,-2.195364236831665,43.7611083984375,0.015395518392324448,-0.08370523899793625,0.06166377291083336,42.75400161743164,56.91899871826172,34.52199935913086,38.643001556396484,51.53300094604492,58.79800033569336,1766479993,575251712,X6-tool2,-4.7150130496490235,-0.49286771223837444,42.74332811129618,0.0600742346684101,0.09204708199262707,-0.19900715344942094,0.052700359374284744
