timestamp,out_1_header.stamp.sec,out_1_header.stamp.nanosec,out_1_header.frame_id,out_1_val,out_1_speed,out_2_header.stamp.sec,out_2_header.stamp.nanosec,out_2_header.frame_id,out_2_val,out_2_speed,out_3_header.stamp.sec,out_3_header.stamp.nanosec,out_3_header.frame_id,out_3_val,out_3_speed,out_4_header.stamp.sec,out_4_header.stamp.nanosec,out_4_header.frame_id,out_4_val,out_4_speed,out_5_header.stamp.sec,out_5_header.stamp.nanosec,out_5_header.frame_id,out_5_val,out_5_speed,out_6_header.stamp.sec,out_6_header.stamp.nanosec,out_6_header.frame_id,out_6_val,out_6_speed,x6position_pose_rp[0],x6position_pose_rp[1],x6position_pose_rp[2],x6position_pose_rp[3],x6position_pose_rp[4],x6position_pose_rp[5],x6position_joints[0],x6position_joints[1],x6position_joints[2],x6position_joints[3],x6position_joints[4],x6position_joints[5],aimooe_coord_header.stamp.sec,aimooe_coord_header.stamp.nanosec,aimooe_coord_header.frame_id,aimooe_coord_position.x,aimooe_coord_position.y,aimooe_coord_position.z,aimooe_coord_orientation.x,aimooe_coord_orientation.y,aimooe_coord_orientation.z,aimooe_coord_mean_error
2026-02-03 21:28:32.730850,1770125312,724570482,1,234739,38,1770125312,727906423,2,244589,-38,1770125312,711271747,3,219858,0,1770125312,714551188,4,240694,86,1770125312,717903289,5,210965,-139,1770125312,721257941,6,210075,-183,2.4779725074768066,-0.0994749665260315,45.28083038330078,0.21798783540725708,-0.08693676441907883,0.20694047212600708,46.79750061035156,54.435001373291016,45.56650161743164,59.80649948120117,40.112998962402344,48.66600036621094,1770125312,683130647,X6-tool2,2.0964497819283734,-0.7420025795751056,45.68202910210849,0.006277144330569723,-0.03440917276014011,-0.062494307462266294,0.045520465821027756
2026-02-03 21:28:32.766783,1770125312,764598006,1,234882,37,1770125312,747895310,2,244501,-48,1770125312,751272361,3,219858,0,1770125312,754574132,4,241062,62,1770125312,757902423,5,210460,-127,1770125312,761257035,6,209377,-160,2.595728874206543,-0.10170193761587143,45.2360954284668,0.2309110313653946,-0.08314057439565659,0.21756239235401154,46.86349868774414,54.34700012207031,45.56650161743164,59.990501403808594,39.86050033569336,48.308998107910156,1770125312,683130647,X6-tool2,2.0964497819283734,-0.7420025795751056,45.68202910210849,0.006277144330569723,-0.03440917276014011,-0.062494307462266294,0.045520465821027756
2026-02-03 21:28:32.802641,1770125312,784590493,1,234943,33,1770125312,787907014,2,244347,-32,1770125312,791237115,3,219858,0,1770125312,794589917,4,241408,85,1770125312,797900778,5,209954,-126,1770125312,801266629,6,208669,-178,2.651991128921509,-0.1037105992436409,45.213844299316406,0.2309110313653946,-0.08314057439565659,0.21756239235401154,46.902000427246094,54.30550003051758,45.56650161743164,60.07550048828125,39.73649978637695,48.135501861572266,1770125312,782627442,X6-tool2,2.324599661282572,-0.795304550076975,45.53286484620636,0.004765370903530341,-0.034824229135300866,-0.06060933656730752,0.0344696044921875
2026-02-03 21:28:32.837919,1770125312,824582907,1,235069,32,1770125312,827903999,2,244199,-35,1770125312,831244960,3,219858,0,1770125312,834567851,4,241771,96,1770125312,817917315,5,209669,-144,1770125312,821258056,6,208301,-177,2.7671127319335938,-0.11069194972515106,45.169307708740234,0.24779461324214935,-0.09579643607139587,0.24367201328277588,46.962501525878906,54.23149871826172,45.56650161743164,60.25149917602539,39.46500015258789,47.78150177001953,1770125312,782627442,X6-tool2,2.324599661282572,-0.795304550076975,45.53286484620636,0.004765370903530341,-0.034824229135300866,-0.06060933656730752,0.0344696044921875
2026-02-03 21:28:32.874110,1770125312,864574452,1,235201,29,1770125312,867909123,2,244050,-40,1770125312,871241574,3,219858,0,1770125312,854589418,4,241957,95,1770125312,857911429,5,209136,-130,1770125312,861261331,6,207565,-181,2.886626958847046,-0.11885583400726318,45.12350082397461,0.26454490423202515,-0.10055175423622131,0.26388096809387207,47.03099822998047,54.15999984741211,45.56650161743164,60.4379997253418,39.19850158691406,47.41600036621094,1770125312,782627442,X6-tool2,2.324599661282572,-0.795304550076975,45.53286484620636,0.004765370903530341,-0.034824229135300866,-0.06060933656730752,0.0344696044921875
2026-02-03 21:28:32.910180,1770125312,904590996,1,235338,34,1770125312,907907737,2,243885,-38,1770125312,891261671,3,219858,0,1770125312,894566952,4,242106,0,1770125312,897902784,5,208707,-38,1770125312,901255685,6,207092,-26,2.982422351837158,-0.1361478865146637,45.06768035888672,0.28050947189331055,-0.10558122396469116,0.22679485380649567,47.09700012207031,54.07749938964844,45.56650161743164,60.51250076293945,38.98400115966797,47.058998107910156,1770125312,882275768,X6-tool2,2.4863671679661383,-0.9770379690117839,45.38764112185647,0.0013522608239452977,-0.034423841897647266,-0.058188490238274514,0.036065418273210526
2026-02-03 21:28:32.946495,1770125312,944558080,1,235453,32,1770125312,927882984,2,243798,-46,1770125312,931253336,3,219858,0,1770125312,934570887,4,242111,0,1770125312,937890768,5,208663,0,1770125312,941225899,6,207059,0,3.000882148742676,-0.12262262403964996,45.046958923339844,0.251557856798172,-0.08261064440011978,0.17666128277778625,47.160499572753906,53.99549865722656,45.56650161743164,60.51499938964844,38.96200180053711,46.97949981689453,1770125312,882275768,X6-tool2,2.4863671679661383,-0.9770379690117839,45.38764112185647,0.0013522608239452977,-0.034423841897647266,-0.058188490238274514,0.036065418273210526
2026-02-03 21:28:32.981969,1770125312,964583817,1,235525,39,1770125312,967904809,2,243605,-75,1770125312,971245220,3,219858,0,1770125312,974567351,4,242111,0,1770125312,977912922,5,208658,-12,1770125312,981257423,6,207059,0,3.0014564990997314,-0.1106000766158104,45.04191207885742,0.23004667460918427,-0.07355247437953949,0.15958711504936218,47.1875,53.95399856567383,45.56650161743164,60.51499938964844,38.96200180053711,46.97650146484375,1770125312,882275768,X6-tool2,2.4863671679661383,-0.9770379690117839,45.38764112185647,0.0013522608239452977,-0.034423841897647266,-0.058188490238274514,0.036065418273210526
2026-02-03 21:28:33.017884,1770125313,4571792,1,235668,37,1770125313,7885583,2,243391,-42,1770125313,11237754,3,219858,0,1770125313,14572925,4,242111,0,1770125312,997911369,5,208658,0,1770125313,1230281,6,207059,0,3.001150369644165,-0.07682620733976364,45.02939987182617,0.16929428279399872,-0.05236045643687248,0.11754938215017319,47.25899887084961,53.84149932861328,45.56650161743164,60.51499938964844,38.95949935913086,46.97650146484375,1770125312,981433794,X6-tool2,2.6675203835497316,-0.9258308959058985,45.37894887288741,0.0003893316354643629,-0.0361260839213288,-0.057917051397701536,0.04921722412109375
2026-02-03 21:28:33.054432,1770125313,44577226,1,235816,25,1770125313,47906507,2,243226,-44,1770125313,51239648,3,219858,0,1770125313,34551382,4,242111,0,1770125313,37884524,5,208658,0,1770125313,41257165,6,207059,0,3.000901460647583,-0.049634870141744614,45.01929473876953,0.11287025362253189,-0.03361433744430542,0.07830318063497543,47.33599853515625,53.750999450683594,45.56650161743164,60.51499938964844,38.95949935913086,46.97650146484375,1770125312,981433794,X6-tool2,2.6675203835497316,-0.9258308959058985,45.37894887288741,0.0003893316354643629,-0.0361260839213288,-0.057917051397701536,0.04921722412109375
2026-02-03 21:28:33.091367,1770125313,84573590,1,235959,42,1770125313,87906652,2,243023,-58,1770125313,71237175,3,219858,0,1770125313,74568407,4,242111,0,1770125313,77908348,5,208658,0,1770125313,81256749,6,207059,0,3.000657320022583,-0.023175908252596855,45.009429931640625,0.06167576462030411,-0.015614249743521214,0.042563505470752716,47.402000427246094,53.66299819946289,45.56650161743164,60.51499938964844,38.95949935913086,46.97650146484375,1770125313,81043399,X6-tool2,2.745990688615943,-0.8634281637857419,45.376464901767655,-0.0021307835793476027,-0.037200595603278604,-0.058794985424375605,0.044735271483659744
2026-02-03 21:28:33.127374,1770125313,124572935,1,236080,10,1770125313,107907729,2,242979,-14,1770125313,111240790,3,219858,0,1770125313,114567761,4,242111,0,1770125313,117908912,5,208658,0,1770125313,121257853,6,207054,0,3.0004422664642334,-9.253321877622511e-06,45.00077438354492,0.006736480165272951,0.0008304560906253755,0.005385685712099075,47.484500885009766,53.58599853515625,45.56650161743164,60.51499938964844,38.95949935913086,46.97650146484375,1770125313,81043399,X6-tool2,2.745990688615943,-0.8634281637857419,45.376464901767655,-0.0021307835793476027,-0.037200595603278604,-0.058794985424375605,0.044735271483659744
2026-02-03 21:28:33.163460,1770125313,144570732,1,236085,0,1770125313,147910433,2,242963,0,1770125313,151241354,3,219858,0,1770125313,154568795,4,242111,0,1770125313,157910097,5,208658,0,1770125313,161256558,6,207054,0,3.000990390777588,0.002043741289526224,44.9995002746582,-0.0007391700055450201,0.002895006677135825,-0.0006445305189117789,47.503501892089844,53.577999114990234,45.56650161743164,60.51499938964844,38.95949935913086,46.9739990234375,1770125313,81043399,X6-tool2,2.745990688615943,-0.8634281637857419,45.376464901767655,-0.0021307835793476027,-0.037200595603278604,-0.058794985424375605,0.044735271483659744
2026-02-03 21:28:33.198818,1770125313,184572376,1,236085,0,1770125313,187905127,2,242963,0,1770125313,191239038,3,219858,0,1770125313,194567970,4,242111,0,1770125313,197886491,5,208658,0,1770125313,181254475,6,207054,0,3.000990390777588,0.002043741289526224,44.9995002746582,-0.0007391700055450201,0.002895006677135825,-0.0006445305189117789,47.503501892089844,53.577999114990234,45.56650161743164,60.51499938964844,38.95949935913086,46.9739990234375,1770125313,181160125,X6-tool2,2.7751946229245354,-0.8326488671090015,45.436588682466294,-0.002130455270390053,-0.03755057963063613,-0.05957058892543178,0.04094664379954338
2026-02-03 21:28:33.234361,1770125313,224573241,1,236085,0,1770125313,227887982,2,242963,0,1770125313,231239273,3,219858,0,1770125313,214547677,4,242111,0,1770125313,217882418,5,208658,0,1770125313,221236859,6,207054,0,3.000990390777588,0.002043741289526224,44.9995002746582,-0.0007391700055450201,0.002895006677135825,-0.0006445305189117789,47.503501892089844,53.577999114990234,45.56650161743164,60.51499938964844,38.95949935913086,46.9739990234375,1770125313,181160125,X6-tool2,2.7751946229245354,-0.8326488671090015,45.436588682466294,-0.002130455270390053,-0.03755057963063613,-0.05957058892543178,0.04094664379954338
2026-02-03 21:28:33.270030,1770125313,264569585,1,236085,0,1770125313,267903706,2,242963,0,1770125313,251239020,3,219858,0,1770125313,254574931,4,242111,0,1770125313,257883762,5,208658,19,1770125313,261235883,6,207054,0,3.000990390777588,0.002043741289526224,44.9995002746582,-0.0007391700055450201,0.002895006677135825,-0.0006445305189117789,47.503501892089844,53.577999114990234,45.56650161743164,60.51499938964844,38.95949935913086,46.9739990234375,1770125313,181160125,X6-tool2,2.7751946229245354,-0.8326488671090015,45.436588682466294,-0.002130455270390053,-0.03755057963063613,-0.05957058892543178,0.04094664379954338
2026-02-03 21:28:33.305744,1770125313,304574109,1,236085,0,1770125313,287878053,2,242963,0,1770125313,291215884,3,219858,0,1770125313,294544266,4,242106,0,1770125313,297886197,5,208658,2,1770125313,301226398,6,207054,0,3.000509738922119,0.0017379376804456115,44.99929428100586,-0.0007391700055450201,0.002895006677135825,-0.0006445305189117789,47.503501892089844,53.577999114990234,45.56650161743164,60.51250076293945,38.95949935913086,46.9739990234375,1770125313,280766630,X6-tool2,2.785589908100153,-0.8753589497829911,45.3763582666154,-0.00272099687549972,-0.039085960487221454,-0.05935147469079398,0.04524548724293709
2026-02-03 21:28:33.340729,1770125313,324575326,1,236085,0,1770125313,327925537,2,242963,0,1770125313,331258379,3,219858,0,1770125313,334590510,4,242106,0,1770125313,337886071,5,208658,0,1770125313,321258395,6,207054,0,3.000509738922119,0.0017379376804456115,44.99929428100586,-0.0007391700055450201,0.002895006677135825,-0.0006445305189117789,47.503501892089844,53.577999114990234,45.56650161743164,60.51250076293945,38.95650100708008,46.9739990234375,1770125313,280766630,X6-tool2,2.785589908100153,-0.8753589497829911,45.3763582666154,-0.00272099687549972,-0.039085960487221454,-0.05935147469079398,0.04524548724293709
2026-02-03 21:28:33.376900,1770125313,364576020,1,236085,0,1770125313,367925842,2,242968,0,1770125313,371244873,3,219858,0,1770125313,374589794,4,242106,0,1770125313,357887038,5,208652,17,1770125313,361232179,6,207054,0,3.000516653060913,0.0009855085518211126,44.999576568603516,-0.0007391700055450201,0.002895006677135825,-0.0006445305189117789,47.503501892089844,53.580501556396484,45.56650161743164,60.51250076293945,38.95650100708008,46.9739990234375,1770125313,280766630,X6-tool2,2.785589908100153,-0.8753589497829911,45.3763582666154,-0.00272099687549972,-0.039085960487221454,-0.05935147469079398,0.04524548724293709
2026-02-03 21:28:33.413875,1770125313,404573635,1,236085,0,1770125313,407925466,2,242968,0,1770125313,411240167,3,219858,0,1770125313,394590361,4,242106,0,1770125313,397887882,5,208658,8,1770125313,401258894,6,207054,0,3.000516653060913,0.0009855085518211126,44.999576568603516,-0.0007391700055450201,0.002895006677135825,-0.0006445305189117789,47.503501892089844,53.580501556396484,45.56650161743164,60.51250076293945,38.95949935913086,46.9739990234375,1770125313,381037556,X6-tool2,2.7163363257545976,-0.9683256260602499,45.320981406607864,-0.002806756254280926,-0.03876885377389012,-0.059537272384440884,0.04140281677246094
2026-02-03 21:28:33.450215,1770125313,444573699,1,236085,0,1770125313,447928970,2,242968,0,1770125313,431240504,3,219858,0,1770125313,434591245,4,242106,0,1770125313,437906697,5,208652,-12,1770125313,441256038,6,207054,0,3.000516653060913,0.0009855085518211126,44.999576568603516,-0.0007391700055450201,0.002895006677135825,-0.0006445305189117789,47.503501892089844,53.580501556396484,45.56650161743164,60.51250076293945,38.95650100708008,46.9739990234375,1770125313,381037556,X6-tool2,2.7163363257545976,-0.9683256260602499,45.320981406607864,-0.002806756254280926,-0.03876885377389012,-0.059537272384440884,0.04140281677246094
2026-02-03 21:28:33.486289,1770125313,484596473,1,236085,0,1770125313,467926857,2,242968,0,1770125313,471242279,3,219858,0,1770125313,474591350,4,242106,0,1770125313,477907331,5,208652,0,1770125313,481254992,6,207054,0,3.000516653060913,0.0009855085518211126,44.999576568603516,-0.0007391700055450201,0.002895006677135825,-0.0006445305189117789,47.503501892089844,53.580501556396484,45.56650161743164,60.51250076293945,38.95650100708008,46.9739990234375,1770125313,480750972,X6-tool2,2.824082523586839,-0.7965988938991234,45.41191658405437,-0.0035912578454719707,-0.038687133510239564,-0.059578009423725944,0.04284095764160156
2026-02-03 21:28:33.524017,1770125313,504574590,1,236080,0,1770125313,507906222,2,242968,0,1770125313,511240283,3,219858,0,1770125313,514570514,4,242106,0,1770125313,517908215,5,208658,22,1770125313,521253016,6,207054,0,3.000516653060913,0.0009855085518211126,44.999576568603516,-0.0007391700055450201,0.002895006677135825,-0.0006445305189117789,47.500999450683594,53.580501556396484,45.56650161743164,60.51250076293945,38.95949935913086,46.9739990234375,1770125313,480750972,X6-tool2,2.824082523586839,-0.7965988938991234,45.41191658405437,-0.0035912578454719707,-0.038687133510239564,-0.059578009423725944,0.04284095764160156
2026-02-03 21:28:33.560281,1770125313,544564345,1,236080,0,1770125313,547904536,2,242968,0,1770125313,551220697,3,219858,0,1770125313,554565648,4,242106,0,1770125313,557884670,5,208652,-32,1770125313,541237914,6,207054,0,3.000516653060913,0.0009855085518211126,44.999576568603516,-0.0007391700055450201,0.002895006677135825,-0.0006445305189117789,47.500999450683594,53.580501556396484,45.56650161743164,60.51250076293945,38.95650100708008,46.9739990234375,1770125313,480750972,X6-tool2,2.824082523586839,-0.7965988938991234,45.41191658405437,-0.0035912578454719707,-0.038687133510239564,-0.059578009423725944,0.04284095764160156
2026-02-03 21:28:33.596953,1770125313,584549869,1,236080,0,1770125313,587929330,2,242968,0,1770125313,591218381,3,219858,0,1770125313,594572493,4,242106,0,1770125313,577881947,5,208658,5,1770125313,581212058,6,207054,0,3.000516653060913,0.0009855085518211126,44.999576568603516,-0.0007391700055450201,0.002895006677135825,-0.0006445305189117789,47.500999450683594,53.580501556396484,45.56650161743164,60.51250076293945,38.95949935913086,46.9739990234375,1770125313,580925988,X6-tool2,2.728540018548589,-0.9694311002468982,45.35135755652033,-0.0034330372403334744,-0.03903479117649173,-0.05940352656822262,0.040696460753679276
2026-02-03 21:28:33.632602,1770125313,624573853,1,236080,0,1770125313,627906955,2,242968,0,1770125313,631238406,3,219858,0,1770125313,614566710,4,242106,-4,1770125313,617906321,5,208652,-6,1770125313,621237792,6,207054,0,3.000516653060913,0.0009855085518211126,44.999576568603516,-0.0007391700055450201,0.002895006677135825,-0.0006445305189117789,47.500999450683594,53.580501556396484,45.56650161743164,60.51250076293945,38.95650100708008,46.9739990234375,1770125313,580925988,X6-tool2,2.728540018548589,-0.9694311002468982,45.35135755652033,-0.0034330372403334744,-0.03903479117649173,-0.05940352656822262,0.040696460753679276
2026-02-03 21:28:33.667692,1770125313,664572928,1,236080,0,1770125313,647906492,2,242968,0,1770125313,651238863,3,219858,0,1770125313,654568314,4,242106,0,1770125313,657883825,5,208658,21,1770125313,661235817,6,207054,0,3.000516653060913,0.0009855085518211126,44.999576568603516,-0.0007391700055450201,0.002895006677135825,-0.0006445305189117789,47.500999450683594,53.580501556396484,45.56650161743164,60.51250076293945,38.95949935913086,46.9739990234375,1770125313,580925988,X6-tool2,2.728540018548589,-0.9694311002468982,45.35135755652033,-0.0034330372403334744,-0.03903479117649173,-0.05940352656822262,0.040696460753679276
2026-02-03 21:28:33.703660,1770125313,684576395,1,236080,-1,1770125313,687930856,2,242968,0,1770125313,691239567,3,219858,0,1770125313,694570998,4,242106,0,1770125313,697905320,5,208652,-16,1770125313,701216271,6,207054,0,3.000516653060913,0.0009855085518211126,44.999576568603516,-0.0007391700055450201,0.002895006677135825,-0.0006445305189117789,47.500999450683594,53.580501556396484,45.56650161743164,60.51250076293945,38.95650100708008,46.9739990234375,1770125313,680763513,X6-tool2,2.7581096986857494,-0.9330152039726054,45.35844624558355,-0.003189497431162799,-0.039158871082810284,-0.059707123154615405,0.04052511975169182
2026-02-03 21:28:33.738823,1770125313,724575499,1,236080,0,1770125313,727881961,2,242968,0,1770125313,731250942,3,219858,0,1770125313,734548403,4,242106,0,1770125313,737883824,5,208658,27,1770125313,721214188,6,207054,0,3.000516653060913,0.0009855085518211126,44.999576568603516,-0.0007391700055450201,0.002895006677135825,-0.0006445305189117789,47.500999450683594,53.580501556396484,45.56650161743164,60.51250076293945,38.95650100708008,46.9739990234375,1770125313,680763513,X6-tool2,2.7581096986857494,-0.9330152039726054,45.35844624558355,-0.003189497431162799,-0.039158871082810284,-0.059707123154615405,0.04052511975169182
2026-02-03 21:28:33.774103,1770125313,764569143,1,236080,0,1770125313,767901215,2,242968,0,1770125313,771239266,3,219858,0,1770125313,754552190,4,242106,0,1770125313,757882491,5,208652,0,1770125313,761219062,6,207054,0,3.000516653060913,0.0009855085518211126,44.999576568603516,-0.0007391700055450201,0.002895006677135825,-0.0006445305189117789,47.500999450683594,53.580501556396484,45.56650161743164,60.51250076293945,38.95650100708008,46.9739990234375,1770125313,680763513,X6-tool2,2.7581096986857494,-0.9330152039726054,45.35844624558355,-0.003189497431162799,-0.039158871082810284,-0.059707123154615405,0.04052511975169182
2026-02-03 21:28:33.810343,1770125313,804570668,1,236080,0,1770125313,807903989,2,242968,0,1770125313,791236733,3,219858,0,1770125313,794572794,4,242106,0,1770125313,797883295,5,208658,8,1770125313,801245617,6,207054,0,3.000516653060913,0.0009855085518211126,44.999576568603516,-0.0007391700055450201,0.002895006677135825,-0.0006445305189117789,47.500999450683594,53.580501556396484,45.56650161743164,60.51250076293945,38.95949935913086,46.9739990234375,1770125313,780942379,X6-tool2,2.8020354804859533,-0.9022023660013224,45.37568722350453,-0.0025702947357401744,-0.039677695342776834,-0.05931578087784346,0.03996340557932854
2026-02-03 21:28:33.847036,1770125313,844570892,1,236080,0,1770125313,827903596,2,242968,0,1770125313,831235377,3,219858,0,1770125313,834572999,4,242106,0,1770125313,837903710,5,208652,-4,1770125313,841214001,6,207054,0,3.000516653060913,0.0009855085518211126,44.999576568603516,-0.0007391700055450201,0.002895006677135825,-0.0006445305189117789,47.500999450683594,53.580501556396484,45.56650161743164,60.51250076293945,38.95650100708008,46.9739990234375,1770125313,780942379,X6-tool2,2.8020354804859533,-0.9022023660013224,45.37568722350453,-0.0025702947357401744,-0.039677695342776834,-0.05931578087784346,0.03996340557932854
2026-02-03 21:28:33.883261,1770125313,864572599,1,236080,0,1770125313,867903680,2,242968,0,1770125313,871242082,3,219858,0,1770125313,874569563,4,242106,0,1770125313,877908124,5,208658,25,1770125313,881236635,6,207054,0,3.000516653060913,0.0009855085518211126,44.999576568603516,-0.0007391700055450201,0.002895006677135825,-0.0006445305189117789,47.500999450683594,53.580501556396484,45.56650161743164,60.51250076293945,38.95949935913086,46.9739990234375,1770125313,880776405,X6-tool2,2.7268512804078875,-0.8631508263061458,45.34137910806981,-0.0023032559411172923,-0.03923080803519676,-0.059511563365159975,0.03760687634348869
2026-02-03 21:28:33.918636,1770125313,904589454,1,236080,0,1770125313,907907205,2,242968,0,1770125313,911250046,3,219858,0,1770125313,914570857,4,242106,0,1770125313,917910908,5,208652,-28,1770125313,901227432,6,207054,0,3.000516653060913,0.0009855085518211126,44.999576568603516,-0.0007391700055450201,0.002895006677135825,-0.0006445305189117789,47.500999450683594,53.580501556396484,45.56650161743164,60.51250076293945,38.95650100708008,46.9739990234375,1770125313,880776405,X6-tool2,2.7268512804078875,-0.8631508263061458,45.34137910806981,-0.0023032559411172923,-0.03923080803519676,-0.059511563365159975,0.03760687634348869
2026-02-03 21:28:33.953747,1770125313,944573378,1,236080,0,1770125313,947884369,2,242968,0,1770125313,951219430,3,219853,0,1770125313,934578234,4,242106,0,1770125313,937882456,5,208658,0,1770125313,941221817,6,207054,0,3.000516653060913,0.0009855085518211126,44.999576568603516,-0.0007391700055450201,0.002895006677135825,-0.0006445305189117789,47.500999450683594,53.580501556396484,45.56399917602539,60.51250076293945,38.95949935913086,46.9739990234375,1770125313,880776405,X6-tool2,2.7268512804078875,-0.8631508263061458,45.34137910806981,-0.0023032559411172923,-0.03923080803519676,-0.059511563365159975,0.03760687634348869
2026-02-03 21:28:33.988886,1770125313,984599082,1,236080,0,1770125313,987919103,2,242968,0,1770125313,971238648,3,219853,0,1770125313,974576559,4,242106,0,1770125313,977900940,5,208647,-7,1770125313,981243371,6,207054,0,3.000516653060913,0.0009855085518211126,44.999576568603516,-0.0007391700055450201,0.002895006677135825,-0.0006445305189117789,47.500999450683594,53.580501556396484,45.56399917602539,60.51250076293945,38.95399856567383,46.9739990234375,1770125313,981141781,X6-tool2,2.700977922949461,-0.9932831209101891,45.2930452917604,-0.0028400093328753073,-0.039971446818218084,-0.059487987585091294,0.039732933044433594
2026-02-03 21:28:34.023897,1770125314,4575519,1,236080,0,1770125314,7926930,2,242968,0,1770125314,11267912,3,219853,0,1770125314,14603043,4,242106,0,1770125314,17932884,5,208658,5,1770125314,21236795,6,207054,0,3.000516653060913,0.0009855085518211126,44.999576568603516,-0.0007391700055450201,0.002895006677135825,-0.0006445305189117789,47.500999450683594,53.580501556396484,45.56399917602539,60.51250076293945,38.95949935913086,46.9739990234375,1770125313,981141781,X6-tool2,2.700977922949461,-0.9932831209101891,45.2930452917604,-0.0028400093328753073,-0.039971446818218084,-0.059487987585091294,0.039732933044433594
2026-02-03 21:28:34.059438,1770125314,44575744,1,236080,0,1770125314,47865795,2,242968,0,1770125314,51244276,3,219853,0,1770125314,54578017,4,242100,0,1770125314,57904448,5,208647,-11,1770125314,41252913,6,207054,0,3.000516653060913,0.0009855085518211126,44.999576568603516,-0.0007391700055450201,0.002895006677135825,-0.0006445305189117789,47.500999450683594,53.580501556396484,45.56399917602539,60.51250076293945,38.95650100708008,46.9739990234375,1770125313,981141781,X6-tool2,2.700977922949461,-0.9932831209101891,45.2930452917604,-0.0028400093328753073,-0.039971446818218084,-0.059487987585091294,0.039732933044433594
2026-02-03 21:28:34.094589,1770125314,84600378,1,236074,0,1770125314,87911229,2,242968,0,1770125314,91240860,3,219853,0,1770125314,74573354,4,242100,0,1770125314,77902156,5,208652,-14,1770125314,81244967,6,207054,0,2.9999396800994873,0.0006185456295497715,44.99932861328125,-0.0007391700055450201,0.002895006677135825,-0.0006445305189117789,47.49800109863281,53.580501556396484,45.56399917602539,60.509498596191406,38.95650100708008,46.9739990234375,1770125314,80721847,X6-tool2,2.756929360083398,-0.9445940258958774,45.37211322520635,-0.0034291294921738056,-0.03893648984236226,-0.059540720139855625,0.04351997375488281
2026-02-03 21:28:34.130498,1770125314,124592472,1,236074,0,1770125314,127929944,2,242968,0,1770125314,111243107,3,219853,0,1770125314,114568859,4,242100,0,1770125314,117943180,5,208652,0,1770125314,121261511,6,207054,0,2.9999396800994873,0.0006185456295497715,44.99932861328125,-0.0007391700055450201,0.002895006677135825,-0.0006445305189117789,47.49800109863281,53.580501556396484,45.56399917602539,60.509498596191406,38.95650100708008,46.9739990234375,1770125314,80721847,X6-tool2,2.756929360083398,-0.9445940258958774,45.37211322520635,-0.0034291294921738056,-0.03893648984236226,-0.059540720139855625,0.04351997375488281
2026-02-03 21:28:34.166112,1770125314,164584767,1,236074,0,1770125314,147900961,2,242968,0,1770125314,151250042,3,219853,0,1770125314,154596743,4,242100,0,1770125314,157886904,5,208658,2,1770125314,161258855,6,207054,0,2.9999396800994873,0.0006185456295497715,44.99932861328125,-0.0007391700055450201,0.002895006677135825,-0.0006445305189117789,47.49800109863281,53.580501556396484,45.56399917602539,60.509498596191406,38.95949935913086,46.9739990234375,1770125314,80721847,X6-tool2,2.756929360083398,-0.9445940258958774,45.37211322520635,-0.0034291294921738056,-0.03893648984236226,-0.059540720139855625,0.04351997375488281
2026-02-03 21:28:34.201414,1770125314,184580644,1,236074,0,1770125314,187937235,2,242968,0,1770125314,191248236,3,219853,0,1770125314,194600287,4,242100,0,1770125314,197913689,5,208652,-19,1770125314,181260743,6,207054,0,2.9999396800994873,0.0006185456295497715,44.99932861328125,-0.0007391700055450201,0.002895006677135825,-0.0006445305189117789,47.49800109863281,53.580501556396484,45.56399917602539,60.509498596191406,38.95650100708008,46.9739990234375,1770125314,181134432,X6-tool2,2.8062684045211315,-0.8680875383871662,45.40491920365762,-0.0031191504876562294,-0.03859577103617595,-0.059531398135834634,0.04346306994557381
2026-02-03 21:28:34.237613,1770125314,224564658,1,236074,0,1770125314,227929349,2,242968,0,1770125314,231244830,3,219853,0,1770125314,234596682,4,242100,0,1770125314,217916256,5,208658,0,1770125314,221263297,6,207054,0,2.9999396800994873,0.0006185456295497715,44.99932861328125,-0.0007391700055450201,0.002895006677135825,-0.0006445305189117789,47.49800109863281,53.580501556396484,45.56399917602539,60.509498596191406,38.95949935913086,46.9739990234375,1770125314,181134432,X6-tool2,2.8062684045211315,-0.8680875383871662,45.40491920365762,-0.0031191504876562294,-0.03859577103617595,-0.059531398135834634,0.04346306994557381
2026-02-03 21:28:34.273499,1770125314,264583482,1,236074,0,1770125314,267924663,2,242968,0,1770125314,271249625,3,219853,0,1770125314,254598169,4,242100,0,1770125314,257914020,5,208652,0,1770125314,261256961,6,207054,0,2.9999396800994873,0.0006185456295497715,44.99932861328125,-0.0007391700055450201,0.002895006677135825,-0.0006445305189117789,47.49800109863281,53.580501556396484,45.56399917602539,60.509498596191406,38.95650100708008,46.9739990234375,1770125314,181134432,X6-tool2,2.8062684045211315,-0.8680875383871662,45.40491920365762,-0.0031191504876562294,-0.03859577103617595,-0.059531398135834634,0.04346306994557381
2026-02-03 21:28:34.308696,1770125314,304579677,1,236074,0,1770125314,307929068,2,242968,0,1770125314,291225262,3,219853,0,1770125314,294595383,4,242100,0,1770125314,297912904,5,208658,26,1770125314,301261286,6,207054,0,2.9999396800994873,0.0006185456295497715,44.99932861328125,-0.0007391700055450201,0.002895006677135825,-0.0006445305189117789,47.49800109863281,53.580501556396484,45.56399917602539,60.509498596191406,38.95949935913086,46.9739990234375,1770125314,280737368,X6-tool2,2.824661039656654,-0.9161182329815665,45.43365341209486,-0.004545762660875154,-0.038188192433818866,-0.05958340407535455,0.036182720214128494
2026-02-03 21:28:34.343779,1770125314,324555474,1,236074,0,1770125314,327918945,2,242968,0,1770125314,331260106,3,219853,0,1770125314,334584407,4,242100,0,1770125314,337933719,5,208652,-24,1770125314,341244420,6,207054,0,2.9999396800994873,0.0006185456295497715,44.99932861328125,-0.0007391700055450201,0.002895006677135825,-0.0006445305189117789,47.49800109863281,53.580501556396484,45.56399917602539,60.509498596191406,38.95650100708008,46.9739990234375,1770125314,280737368,X6-tool2,2.824661039656654,-0.9161182329815665,45.43365341209486,-0.004545762660875154,-0.038188192433818866,-0.05958340407535455,0.036182720214128494
2026-02-03 21:28:34.379420,1770125314,364593528,1,236074,0,1770125314,367909049,2,242968,0,1770125314,371259580,3,219853,0,1770125314,374578232,4,242100,0,1770125314,377898583,5,208652,0,1770125314,361245037,6,207054,0,2.9999396800994873,0.0006185456295497715,44.99932861328125,-0.0007391700055450201,0.002895006677135825,-0.0006445305189117789,47.49800109863281,53.580501556396484,45.56399917602539,60.509498596191406,38.95949935913086,46.9739990234375,1770125314,280737368,X6-tool2,2.824661039656654,-0.9161182329815665,45.43365341209486,-0.004545762660875154,-0.038188192433818866,-0.05958340407535455,0.036182720214128494
2026-02-03 21:28:34.414433,1770125314,404592443,1,236074,0,1770125314,407927154,2,242968,0,1770125314,411261655,3,219853,0,1770125314,394531089,4,242100,0,1770125314,397932920,5,208652,-30,1770125314,401259051,6,207054,0,2.9999396800994873,0.0006185456295497715,44.99932861328125,-0.0007391700055450201,0.002895006677135825,-0.0006445305189117789,47.49800109863281,53.580501556396484,45.56399917602539,60.509498596191406,38.95650100708008,46.9739990234375,1770125314,381325484,X6-tool2,2.742160769122586,-0.9251149225774786,45.34382890805657,-0.0038663377618600387,-0.03942493691024786,-0.05953830869099228,0.040350914001464844
2026-02-03 21:28:34.450028,1770125314,444589307,1,236074,0,1770125314,447929128,2,242968,0,1770125314,431259252,3,219853,0,1770125314,434598313,4,242100,0,1770125314,437927274,5,208652,0,1770125314,441262916,6,207054,0,2.9999396800994873,0.0006185456295497715,44.99932861328125,-0.0007391700055450201,0.002895006677135825,-0.0006445305189117789,47.49800109863281,53.580501556396484,45.56399917602539,60.509498596191406,38.95650100708008,46.9739990234375,1770125314,381325484,X6-tool2,2.742160769122586,-0.9251149225774786,45.34382890805657,-0.0038663377618600387,-0.03942493691024786,-0.05953830869099228,0.040350914001464844
2026-02-03 21:28:34.485361,1770125314,484590441,1,236074,0,1770125314,467928875,2,242968,0,1770125314,471258586,3,219853,0,1770125314,474614797,4,242100,0,1770125314,477924189,5,208658,0,1770125314,481259500,6,207054,0,2.9999396800994873,0.0006185456295497715,44.99932861328125,-0.0007391700055450201,0.002895006677135825,-0.0006445305189117789,47.49800109863281,53.580501556396484,45.56399917602539,60.509498596191406,38.95949935913086,46.9739990234375,1770125314,481084830,X6-tool2,2.7790860158756474,-0.9266418105799236,45.378535245916524,-0.003993675761958427,-0.03931671348433207,-0.05962120352861098,0.03861777111887932
2026-02-03 21:28:34.520497,1770125314,504591298,1,236074,0,1770125314,508009400,2,242968,0,1770125314,511264561,3,219853,0,1770125314,514596152,4,242100,0,1770125314,517928833,5,208652,-16,1770125314,501259377,6,207054,0,2.9999396800994873,0.0006185456295497715,44.99932861328125,-0.0007391700055450201,0.002895006677135825,-0.0006445305189117789,47.49800109863281,53.580501556396484,45.56399917602539,60.509498596191406,38.95650100708008,46.9739990234375,1770125314,481084830,X6-tool2,2.7790860158756474,-0.9266418105799236,45.378535245916524,-0.003993675761958427,-0.03931671348433207,-0.05962120352861098,0.03861777111887932
2026-02-03 21:28:34.556468,1770125314,544591062,1,236074,0,1770125314,547927434,2,242968,0,1770125314,551256955,3,219853,0,1770125314,554596676,4,242100,0,1770125314,537923630,5,208652,0,1770125314,541262821,6,207054,0,2.9999396800994873,0.0006185456295497715,44.99932861328125,-0.0007391700055450201,0.002895006677135825,-0.0006445305189117789,47.49800109863281,53.580501556396484,45.56399917602539,60.509498596191406,38.95650100708008,46.9739990234375,1770125314,481084830,X6-tool2,2.7790860158756474,-0.9266418105799236,45.378535245916524,-0.003993675761958427,-0.03931671348433207,-0.05962120352861098,0.03861777111887932
2026-02-03 21:28:34.591819,1770125314,584590157,1,236074,0,1770125314,587926928,2,242968,0,1770125314,591177109,3,219853,0,1770125314,574595543,4,242100,0,1770125314,577902054,5,208652,0,1770125314,581258346,6,207054,0,2.9999396800994873,0.0006185456295497715,44.99932861328125,-0.0007391700055450201,0.002895006677135825,-0.0006445305189117789,47.49800109863281,53.580501556396484,45.56399917602539,60.509498596191406,38.95650100708008,46.9739990234375,1770125314,580987995,X6-tool2,2.715591957696601,-0.9493525873951251,45.29841522807073,-0.003046120678512005,-0.03980857091034722,-0.05946237933933646,0.042827289551496506
2026-02-03 21:28:34.626926,1770125314,624590601,1,236074,0,1770125314,607925155,2,242968,0,1770125314,611262066,3,219853,0,1770125314,614522067,4,242100,0,1770125314,617927949,5,208658,1,1770125314,621260120,6,207054,0,2.9999396800994873,0.0006185456295497715,44.99932861328125,-0.0007391700055450201,0.002895006677135825,-0.0006445305189117789,47.49800109863281,53.580501556396484,45.56399917602539,60.509498596191406,38.95949935913086,46.9739990234375,1770125314,580987995,X6-tool2,2.715591957696601,-0.9493525873951251,45.29841522807073,-0.003046120678512005,-0.03980857091034722,-0.05946237933933646,0.042827289551496506
2026-02-03 21:28:34.662749,1770125314,644592788,1,236074,0,1770125314,647926130,2,242968,0,1770125314,651237091,3,219853,0,1770125314,654594012,4,242100,0,1770125314,657926673,5,208652,-2,1770125314,661275624,6,207054,0,2.9999396800994873,0.0006185456295497715,44.99932861328125,-0.0007391700055450201,0.002895006677135825,-0.0006445305189117789,47.49800109863281,53.580501556396484,45.56399917602539,60.509498596191406,38.95650100708008,46.9739990234375,1770125314,580987995,X6-tool2,2.715591957696601,-0.9493525873951251,45.29841522807073,-0.003046120678512005,-0.03980857091034722,-0.05946237933933646,0.042827289551496506
2026-02-03 21:28:34.698046,1770125314,684592963,1,236074,0,1770125314,687926654,2,242968,0,1770125314,691234475,3,219853,0,1770125314,694593456,4,242100,0,1770125314,677926470,5,208652,-16,1770125314,681258291,6,207054,0,2.9999396800994873,0.0006185456295497715,44.99932861328125,-0.0007391700055450201,0.002895006677135825,-0.0006445305189117789,47.49800109863281,53.580501556396484,45.56399917602539,60.509498596191406,38.95650100708008,46.9739990234375,1770125314,680861631,X6-tool2,2.749507751609076,-0.9127292617870503,45.31641693510133,-0.0030127104411024476,-0.039857379284815565,-0.05967093376195326,0.04168415069580078
2026-02-03 21:28:34.733893,1770125314,724593137,1,236074,0,1770125314,727923918,2,242968,0,1770125314,731239149,3,219853,0,1770125314,714596313,4,242100,0,1770125314,717927244,5,208652,0,1770125314,721258856,6,207054,0,2.9999396800994873,0.0006185456295497715,44.99932861328125,-0.0007391700055450201,0.002895006677135825,-0.0006445305189117789,47.49800109863281,53.580501556396484,45.56399917602539,60.509498596191406,38.95650100708008,46.9739990234375,1770125314,680861631,X6-tool2,2.749507751609076,-0.9127292617870503,45.31641693510133,-0.0030127104411024476,-0.039857379284815565,-0.05967093376195326,0.04168415069580078
2026-02-03 21:28:34.769752,1770125314,764593221,1,236074,0,1770125314,767857102,2,242974,0,1770125314,751233166,3,219853,0,1770125314,754591648,4,242100,0,1770125314,757898649,5,208658,0,1770125314,761255500,6,207054,0,2.999948263168335,-0.0002843270485755056,44.999664306640625,-0.0007391700055450201,0.002895006677135825,-0.0006445305189117789,47.49800109863281,53.583499908447266,45.56399917602539,60.509498596191406,38.95949935913086,46.9739990234375,1770125314,680861631,X6-tool2,2.749507751609076,-0.9127292617870503,45.31641693510133,-0.0030127104411024476,-0.039857379284815565,-0.05967093376195326,0.04168415069580078
2026-02-03 21:28:34.804678,1770125314,784602548,1,236074,0,1770125314,787927820,2,242974,0,1770125314,791231671,3,219853,0,1770125314,794604402,4,242100,0,1770125314,797927303,5,208652,-9,1770125314,801269224,6,207054,0,2.999948263168335,-0.0002843270485755056,44.999664306640625,-0.0007391700055450201,0.002895006677135825,-0.0006445305189117789,47.49800109863281,53.583499908447266,45.56399917602539,60.509498596191406,38.95650100708008,46.9739990234375,1770125314,780950097,X6-tool2,2.719805552760027,-0.9173524192431829,45.32396790630844,-0.0031154666562913103,-0.03936972494942022,-0.05953681267834331,0.04113610461354256
2026-02-03 21:28:34.840279,1770125314,824602093,1,236074,0,1770125314,827927994,2,242974,0,1770125314,831274745,3,219853,0,1770125314,834596216,4,242100,0,1770125314,837935317,5,208658,21,1770125314,821261312,6,207054,0,2.999948263168335,-0.0002843270485755056,44.999664306640625,-0.0007391700055450201,0.002895006677135825,-0.0006445305189117789,47.49800109863281,53.583499908447266,45.56399917602539,60.509498596191406,38.95650100708008,46.9739990234375,1770125314,780950097,X6-tool2,2.719805552760027,-0.9173524192431829,45.32396790630844,-0.0031154666562913103,-0.03936972494942022,-0.05953681267834331,0.04113610461354256
2026-02-03 21:28:34.876367,1770125314,864581097,1,236074,0,1770125314,867906418,2,242974,0,1770125314,871221699,3,219853,0,1770125314,874564680,4,242100,0,1770125314,857896074,5,208652,0,1770125314,861237086,6,207054,0,2.999948263168335,-0.0002843270485755056,44.999664306640625,-0.0007391700055450201,0.002895006677135825,-0.0006445305189117789,47.49800109863281,53.583499908447266,45.56399917602539,60.509498596191406,38.95650100708008,46.9739990234375,1770125314,780950097,X6-tool2,2.719805552760027,-0.9173524192431829,45.32396790630844,-0.0031154666562913103,-0.03936972494942022,-0.05953681267834331,0.04113610461354256
2026-02-03 21:28:34.911862,1770125314,904575691,1,236074,0,1770125314,907906923,2,242974,0,1770125314,911241054,3,219853,0,1770125314,894550848,4,242100,0,1770125314,897886939,5,208658,7,1770125314,901233380,6,207054,0,2.999948263168335,-0.0002843270485755056,44.999664306640625,-0.0007391700055450201,0.002895006677135825,-0.0006445305189117789,47.49800109863281,53.583499908447266,45.56399917602539,60.509498596191406,38.95949935913086,46.9739990234375,1770125314,880921523,X6-tool2,2.77168358510962,-0.9214097305401514,45.34853046674251,-0.003340930136932372,-0.039308598668860675,-0.05970528182974104,0.04180653765797615
2026-02-03 21:28:34.946959,1770125314,944579665,1,236074,0,1770125314,927912090,2,242974,0,1770125314,931189251,3,219853,0,1770125314,934587872,4,242100,0,1770125314,937914383,5,208647,-5,1770125314,941240704,6,207054,0,2.999948263168335,-0.0002843270485755056,44.999664306640625,-0.0007391700055450201,0.002895006677135825,-0.0006445305189117789,47.49800109863281,53.583499908447266,45.56399917602539,60.509498596191406,38.95399856567383,46.9739990234375,1770125314,880921523,X6-tool2,2.77168358510962,-0.9214097305401514,45.34853046674251,-0.003340930136932372,-0.039308598668860675,-0.05970528182974104,0.04180653765797615
2026-02-03 21:28:34.982725,1770125314,964548173,1,236074,0,1770125314,967913194,2,242974,0,1770125314,971236625,3,219853,0,1770125314,974577296,4,242100,0,1770125314,977899988,5,208658,23,1770125314,981247249,6,207054,0,2.999948263168335,-0.0002843270485755056,44.999664306640625,-0.0007391700055450201,0.002895006677135825,-0.0006445305189117789,47.49800109863281,53.583499908447266,45.56399917602539,60.509498596191406,38.95949935913086,46.9739990234375,1770125314,981264189,X6-tool2,2.7832977343481797,-0.9275177183833349,45.39748932583495,-0.00407880876973532,-0.039047306202879786,-0.059494676460426055,0.03991953656077385
2026-02-03 21:28:35.017818,1770125315,4566837,1,236074,0,1770125315,7888838,2,242974,0,1770125315,11216749,3,219853,0,1770125315,14552381,4,242100,0,1770125314,997883085,5,208647,-2,1770125315,1220806,6,207054,0,2.999948263168335,-0.0002843270485755056,44.999664306640625,-0.0007391700055450201,0.002895006677135825,-0.0006445305189117789,47.49800109863281,53.583499908447266,45.56399917602539,60.509498596191406,38.95399856567383,46.9739990234375,1770125314,981264189,X6-tool2,2.7832977343481797,-0.9275177183833349,45.39748932583495,-0.00407880876973532,-0.039047306202879786,-0.059494676460426055,0.03991953656077385
2026-02-03 21:28:35.053385,1770125315,44577491,1,236074,0,1770125315,47882633,2,242974,0,1770125315,51240564,3,219853,0,1770125315,34573868,4,242100,0,1770125315,37888189,5,208658,0,1770125315,41220480,6,207054,0,2.999948263168335,-0.0002843270485755056,44.999664306640625,-0.0007391700055450201,0.002895006677135825,-0.0006445305189117789,47.49800109863281,53.583499908447266,45.56399917602539,60.509498596191406,38.95949935913086,46.9739990234375,1770125314,981264189,X6-tool2,2.7832977343481797,-0.9275177183833349,45.39748932583495,-0.00407880876973532,-0.039047306202879786,-0.059494676460426055,0.03991953656077385
2026-02-03 21:28:35.089134,1770125315,84580706,1,236074,0,1770125315,87904467,2,242974,0,1770125315,71285871,3,219853,0,1770125315,74579882,4,242100,0,1770125315,77880843,5,208647,0,1770125315,81191444,6,207054,0,2.999948263168335,-0.0002843270485755056,44.999664306640625,-0.0007391700055450201,0.002895006677135825,-0.0006445305189117789,47.49800109863281,53.583499908447266,45.56399917602539,60.509498596191406,38.95399856567383,46.9739990234375,1770125315,81759935,X6-tool2,2.7451643836689437,-0.8969245844044843,45.35453788455124,-0.0029011287579177826,-0.03932549051660197,-0.059383735788427955,0.041062671691179276
2026-02-03 21:28:35.124439,1770125315,104552343,1,236074,0,1770125315,107884544,2,242974,0,1770125315,111223945,3,219853,0,1770125315,114526466,4,242100,0,1770125315,117885407,5,208652,-1,1770125315,121229459,6,207054,0,2.999948263168335,-0.0002843270485755056,44.999664306640625,-0.0007391700055450201,0.002895006677135825,-0.0006445305189117789,47.49800109863281,53.583499908447266,45.56399917602539,60.509498596191406,38.95650100708008,46.9739990234375,1770125315,81759935,X6-tool2,2.7451643836689437,-0.8969245844044843,45.35453788455124,-0.0029011287579177826,-0.03932549051660197,-0.059383735788427955,0.041062671691179276
2026-02-03 21:28:35.160251,1770125315,144557427,1,236074,0,1770125315,147905248,2,242974,0,1770125315,151224939,3,219853,0,1770125315,154551291,4,242100,0,1770125315,157891222,5,208647,0,1770125315,141241766,6,207054,0,2.999948263168335,-0.0002843270485755056,44.999664306640625,-0.0007391700055450201,0.002895006677135825,-0.0006445305189117789,47.49800109863281,53.583499908447266,45.56399917602539,60.509498596191406,38.95949935913086,46.9739990234375,1770125315,81759935,X6-tool2,2.7451643836689437,-0.8969245844044843,45.35453788455124,-0.0029011287579177826,-0.03932549051660197,-0.059383735788427955,0.041062671691179276
2026-02-03 21:28:35.195873,1770125315,184580241,1,236074,0,1770125315,187901012,2,242974,0,1770125315,191220594,3,219853,0,1770125315,194550445,4,242100,0,1770125315,177887049,5,208652,-20,1770125315,181233910,6,207054,0,2.999948263168335,-0.0002843270485755056,44.999664306640625,-0.0007391700055450201,0.002895006677135825,-0.0006445305189117789,47.49800109863281,53.583499908447266,45.56399917602539,60.509498596191406,38.95650100708008,46.9739990234375,1770125315,180948020,X6-tool2,2.7710239698912376,-0.8966374314523623,45.381443160151946,-0.0034061114572529897,-0.039704358709360045,-0.05956699752930656,0.044307708740234375
2026-02-03 21:28:35.231164,1770125315,225246776,1,236074,0,1770125315,227933777,2,242974,0,1770125315,211231861,3,219853,0,1770125315,214576602,4,242100,0,1770125315,217885783,5,208658,27,1770125315,221228275,6,207054,0,2.999948263168335,-0.0002843270485755056,44.999664306640625,-0.0007391700055450201,0.002895006677135825,-0.0006445305189117789,47.49800109863281,53.583499908447266,45.56399917602539,60.509498596191406,38.95949935913086,46.9739990234375,1770125315,180948020,X6-tool2,2.7710239698912376,-0.8966374314523623,45.381443160151946,-0.0034061114572529897,-0.039704358709360045,-0.05956699752930656,0.044307708740234375
2026-02-03 21:28:35.266888,1770125315,264556110,1,236074,0,1770125315,247884614,2,242974,0,1770125315,251219025,3,219853,0,1770125315,254559416,4,242100,0,1770125315,257888517,5,208652,-36,1770125315,261215689,6,207054,0,2.999948263168335,-0.0002843270485755056,44.999664306640625,-0.0007391700055450201,0.002895006677135825,-0.0006445305189117789,47.49800109863281,53.583499908447266,45.56399917602539,60.509498596191406,38.95650100708008,46.9739990234375,1770125315,180948020,X6-tool2,2.7710239698912376,-0.8966374314523623,45.381443160151946,-0.0034061114572529897,-0.039704358709360045,-0.05956699752930656,0.044307708740234375
2026-02-03 21:28:35.302470,1770125315,284555297,1,236074,0,1770125315,287877798,2,242974,0,1770125315,291225249,3,219853,0,1770125315,294545781,4,242100,0,1770125315,297886262,5,208652,0,1770125315,301211943,6,207054,0,2.999948263168335,-0.0002843270485755056,44.999664306640625,-0.0007391700055450201,0.002895006677135825,-0.0006445305189117789,47.49800109863281,53.583499908447266,45.56399917602539,60.509498596191406,38.95650100708008,46.9739990234375,1770125315,281192596,X6-tool2,2.759019643808632,-0.8293790838722015,45.37140015097567,-0.003352870506783567,-0.03871450408261897,-0.059687541648038814,0.03784338757395744
2026-02-03 21:28:35.337611,1770125315,324572372,1,236074,0,1770125315,327903133,2,242974,0,1770125315,331245064,3,219858,0,1770125315,334573425,4,242100,0,1770125315,317909059,5,208652,-25,1770125315,321232580,6,207054,0,2.999948263168335,-0.0002843270485755056,44.999664306640625,-0.0007391700055450201,0.002895006677135825,-0.0006445305189117789,47.49800109863281,53.583499908447266,45.56399917602539,60.509498596191406,38.95650100708008,46.9739990234375,1770125315,281192596,X6-tool2,2.759019643808632,-0.8293790838722015,45.37140015097567,-0.003352870506783567,-0.03871450408261897,-0.059687541648038814,0.03784338757395744
2026-02-03 21:28:35.373429,1770125315,364572156,1,236074,0,1770125315,367881357,2,242765,-112,1770125315,371242678,3,219941,47,1770125315,354570032,4,242100,0,1770125315,357907203,5,208652,-13,1770125315,361212245,6,207054,0,2.999948263168335,-0.0002843270485755056,44.999664306640625,-0.0007391700055450201,0.002895006677135825,-0.0006445305189117789,47.49800109863281,53.583499908447266,45.56650161743164,60.509498596191406,38.95650100708008,46.9739990234375,1770125315,281192596,X6-tool2,2.759019643808632,-0.8293790838722015,45.37140015097567,-0.003352870506783567,-0.03871450408261897,-0.059687541648038814,0.03784338757395744
2026-02-03 21:28:35.408930,1770125315,404550490,1,235695,-101,1770125315,407882121,2,242249,-139,1770125315,391216485,3,220040,49,1770125315,394549046,4,242260,52,1770125315,397880968,5,208652,-5,1770125315,401214589,6,207142,27,3.010369062423706,0.08181074261665344,44.982940673828125,-0.0018917638808488846,0.006904603447765112,-0.036218639463186264,47.407501220703125,53.352500915527344,45.657501220703125,60.589500427246094,38.95650100708008,46.99300003051758,1770125315,380998452,X6-tool2,2.7023207953790203,-0.9036276767258135,45.33769496608811,-0.0033329334433187564,-0.03922647870971942,-0.05944027151119537,0.04512278363108635
2026-02-03 21:28:35.444518,1770125315,424550347,1,235464,-122,1770125315,427895808,2,241952,-97,1770125315,431245390,3,220237,48,1770125315,434579091,4,242408,35,1770125315,437907572,5,208658,0,1770125315,441233703,6,207356,46,3.0122222900390625,0.1300702840089798,44.97500991821289,0.010027844458818436,0.011524096131324768,-0.03964532911777496,47.30849838256836,53.22100067138672,45.701499938964844,60.63050079345703,38.95949935913086,47.018001556396484,1770125315,380998452,X6-tool2,2.7023207953790203,-0.9036276767258135,45.33769496608811,-0.0033329334433187564,-0.03922647870971942,-0.05944027151119537,0.04512278363108635
2026-02-03 21:28:35.480545,1770125315,464576691,1,235042,-105,1770125315,467896823,2,241397,-136,1770125315,471220814,3,220441,46,1770125315,474564955,4,242578,35,1770125315,477888126,5,208669,0,1770125315,461236300,6,207471,55,3.002532720565796,0.2421502321958542,44.964088439941406,0.02151302993297577,0.00022110961435828358,-0.03315358981490135,47.08599853515625,52.932498931884766,45.80550003051758,60.709999084472656,38.96200180053711,47.125,1770125315,380998452,X6-tool2,2.7023207953790203,-0.9036276767258135,45.33769496608811,-0.0033329334433187564,-0.03922647870971942,-0.05944027151119537,0.04512278363108635
2026-02-03 21:28:35.517325,1770125315,504552596,1,234613,-108,1770125315,507898207,2,240776,-162,1770125315,511249078,3,220638,48,1770125315,514551669,4,242677,25,1770125315,497883143,5,208680,6,1770125315,501214275,6,207675,47,2.9886815547943115,0.35406696796417236,44.951759338378906,0.024973953142762184,-0.0068542868830263615,-0.029760481789708138,46.877498626708984,52.64099884033203,45.90449905395508,60.77349853515625,38.97050094604492,47.23749923706055,1770125315,480784907,X6-tool2,2.6839845349837446,-0.7273672730826268,45.32946460933092,-0.0037189469529520236,-0.036453960271639246,-0.05944868956168492,0.043755847960710526
2026-02-03 21:28:35.552719,1770125315,544572110,1,234119,-125,1770125315,547887911,2,240073,-182,1770125315,551218742,3,220831,43,1770125315,534546307,4,242715,17,1770125315,537905668,5,208702,8,1770125315,541217969,6,207971,78,2.97226619720459,0.476809024810791,44.930965423583984,0.018857348710298538,-0.01638418808579445,-0.0484345518052578,46.64950180053711,52.30350112915039,46.00899887084961,60.81700134277344,38.98149871826172,47.34450149536133,1770125315,480784907,X6-tool2,2.6839845349837446,-0.7273672730826268,45.32946460933092,-0.0037189469529520236,-0.036453960271639246,-0.05944868956168492,0.043755847960710526
2026-02-03 21:28:35.588693,1770125315,584573414,1,233679,-114,1770125315,587880806,2,239464,-157,1770125315,571241760,3,220919,45,1770125315,574567261,4,242759,15,1770125315,577904262,5,208735,10,1770125315,581233543,6,208229,70,2.9431047439575195,0.5965869426727295,44.915672302246094,0.009073689579963684,-0.025449590757489204,-0.04244851693511009,46.410499572753906,51.98500061035156,46.09700012207031,60.8390007019043,38.99800109863281,47.490501403808594,1770125315,580863363,X6-tool2,2.735516283649604,-0.6735959823865526,45.35045951005374,-0.007224610288551298,-0.038556947423730864,-0.05822955721425114,0.04625002667307854
2026-02-03 21:28:35.624272,1770125315,604571481,1,233454,-115,1770125315,607901403,2,239167,-155,1770125315,611240134,3,221105,49,1770125315,614564815,4,242897,49,1770125315,617882916,5,208779,17,1770125315,621238098,6,208559,76,2.9307096004486084,0.6564443707466125,44.90849685668945,0.0002087903267238289,-0.0315653495490551,-0.042771317064762115,46.300498962402344,51.82849884033203,46.140499114990234,60.85850143432617,39.00899887084961,47.561500549316406,1770125315,580863363,X6-tool2,2.735516283649604,-0.6735959823865526,45.35045951005374,-0.007224610288551298,-0.038556947423730864,-0.05822955721425114,0.04625002667307854
2026-02-03 21:28:35.660290,1770125315,644588986,1,232976,-136,1770125315,647896607,2,238601,-140,1770125315,651258178,3,221292,35,1770125315,654600030,4,242913,5,1770125315,657898321,5,208878,31,1770125315,641232235,6,208724,91,2.9035353660583496,0.7735219597816467,44.90098190307617,-0.003192753531038761,-0.03948025777935982,-0.029215143993496895,46.06999969482422,51.540000915527344,46.239498138427734,60.910499572753906,39.044498443603516,47.72650146484375,1770125315,580863363,X6-tool2,2.735516283649604,-0.6735959823865526,45.35045951005374,-0.007224610288551298,-0.038556947423730864,-0.05822955721425114,0.04625002667307854
2026-02-03 21:28:35.695364,1770125315,684592320,1,232405,-151,1770125315,687931711,2,238008,-153,1770125315,691261723,3,221462,51,1770125315,694595464,4,242935,-5,1770125315,677921628,5,208932,26,1770125315,681266389,6,209103,96,2.8670308589935303,0.8890129923820496,44.89275360107422,0.0016286103054881096,-0.040180105715990067,-0.009327973239123821,45.800498962402344,51.25149917602539,46.321998596191406,60.932498931884766,39.096500396728516,47.90800094604492,1770125315,680798479,X6-tool2,2.724444746671162,-0.4644099248755396,45.35285167737693,-0.009275808618691008,-0.03883845123864035,-0.05813055866783676,0.04464149475097656
2026-02-03 21:28:35.730402,1770125315,724591344,1,231883,-124,1770125315,727896676,2,237316,-132,1770125315,711257840,3,221578,60,1770125315,714594321,4,242935,3,1770125315,717923382,5,209119,52,1770125315,721256233,6,209482,88,2.825392007827759,1.0083034038543701,44.87847900390625,0.01160199474543333,-0.02862253040075302,-0.030439168214797974,45.53150177001953,50.938499450683594,46.42649841308594,60.926998138427734,39.189998626708984,48.0890007019043,1770125315,680798479,X6-tool2,2.724444746671162,-0.4644099248755396,45.35285167737693,-0.009275808618691008,-0.03883845123864035,-0.05813055866783676,0.04464149475097656
2026-02-03 21:28:35.766253,1770125315,764590849,1,231372,-142,1770125315,747924963,2,237036,-153,1770125315,751261144,3,221781,42,1770125315,754599935,4,242924,-6,1770125315,757924056,5,209273,16,1770125315,761265148,6,209866,96,2.7808473110198975,1.1327178478240967,44.86399459838867,0.0012719399528577924,-0.02576756477355957,-0.042677272111177444,45.27899932861328,50.614498138427734,46.52799987792969,60.92150115966797,39.266998291015625,48.284000396728516,1770125315,680798479,X6-tool2,2.724444746671162,-0.4644099248755396,45.35285167737693,-0.009275808618691008,-0.03883845123864035,-0.05813055866783676,0.04464149475097656
2026-02-03 21:28:35.802228,1770125315,784590976,1,231108,-130,1770125315,787934557,2,236497,-136,1770125315,791262438,3,221918,32,1770125315,794599660,4,242908,0,1770125315,797897691,5,209427,45,1770125315,801266652,6,210278,114,2.7584645748138428,1.1851552724838257,44.859893798828125,0.0017269133822992444,-0.025629034265875816,-0.03116416372358799,45.14699935913086,50.48249816894531,46.56100082397461,60.91600036621094,39.297000885009766,48.380001068115234,1770125315,780965075,X6-tool2,2.669901563944872,-0.16953489005248798,45.43355374960804,-0.008197158889544903,-0.03742459185999871,-0.06002319383630221,0.043662071228027344
2026-02-03 21:28:35.837613,1770125315,824590830,1,230592,-122,1770125315,827936141,2,235937,-109,1770125315,831260143,3,222111,51,1770125315,834599994,4,242847,-16,1770125315,817920968,5,209482,31,1770125315,821266109,6,210471,100,2.7091546058654785,1.291490077972412,44.85218811035156,0.0009132239501923323,-0.027048742398619652,-0.019150152802467346,44.888999938964844,50.215999603271484,46.640499114990234,60.89699935913086,39.371498107910156,48.58599853515625,1770125315,780965075,X6-tool2,2.669901563944872,-0.16953489005248798,45.43355374960804,-0.008197158889544903,-0.03742459185999871,-0.06002319383630221,0.043662071228027344
2026-02-03 21:28:35.873139,1770125315,864589265,1,230010,-151,1770125315,867926896,2,235404,-134,1770125315,871258837,3,222231,33,1770125315,854591991,4,242798,-27,1770125315,857924532,5,209663,44,1770125315,861257953,6,210855,107,2.660905361175537,1.3971973657608032,44.83710479736328,0.012019774876534939,-0.01682095415890217,-0.027817223221063614,44.61399841308594,49.93299865722656,46.722999572753906,60.85850143432617,39.46200180053711,48.77000045776367,1770125315,780965075,X6-tool2,2.669901563944872,-0.16953489005248798,45.43355374960804,-0.008197158889544903,-0.03742459185999871,-0.06002319383630221,0.043662071228027344
2026-02-03 21:28:35.909063,1770125315,904590029,1,229444,-136,1770125315,907924170,2,234827,-154,1770125315,891259814,3,222286,22,1770125315,894590795,4,242688,-18,1770125315,897896157,5,209828,39,1770125315,901254248,6,211295,105,2.6039786338806152,1.5012083053588867,44.82456588745117,0.019685929641127586,-0.009191908873617649,-0.010511702857911587,44.314998626708984,49.65850067138672,46.78049850463867,60.80350112915039,39.544498443603516,48.979000091552734,1770125315,881060671,X6-tool2,2.562466920349308,0.04852252610407629,45.379269266246304,-0.007516117356225002,-0.037350761490678716,-0.06192747910732158,0.036660194396972656
2026-02-03 21:28:35.944485,1770125315,924586636,1,229197,-120,1770125315,927922527,2,234476,-185,1770125315,931266668,3,222402,31,1770125315,934589920,4,242589,-28,1770125315,937922681,5,210059,48,1770125315,941257612,6,211778,131,2.5742857456207275,1.5587146282196045,44.818443298339844,0.014964081346988678,0.010569852776825428,-0.012439330108463764,44.18299865722656,49.5099983215332,46.80799865722656,60.78150177001953,39.60749816894531,49.09450149536133,1770125315,881060671,X6-tool2,2.562466920349308,0.04852252610407629,45.379269266246304,-0.007516117356225002,-0.037350761490678716,-0.06192747910732158,0.036660194396972656
2026-02-03 21:28:35.981395,1770125315,964590380,1,228669,-121,1770125315,967923162,2,234009,-121,1770125315,971260113,3,222556,39,1770125315,974591684,4,242463,-29,1770125315,977921565,5,210306,60,1770125315,961258259,6,212014,107,2.509382963180542,1.6708275079727173,44.806488037109375,0.00045725589734502137,0.032838404178619385,-0.01793055050075054,43.92499923706055,49.21900177001953,46.874000549316406,60.72100067138672,39.72549819946289,49.33599853515625,1770125315,881060671,X6-tool2,2.562466920349308,0.04852252610407629,45.379269266246304,-0.007516117356225002,-0.037350761490678716,-0.06192747910732158,0.036660194396972656
2026-02-03 21:28:36.017834,1770125316,4589035,1,228109,-143,1770125316,7922756,2,233520,-125,1770125316,11256687,3,222682,21,1770125316,14591568,4,242287,-49,1770125315,997922062,5,210416,51,1770125316,1255594,6,212481,113,2.4441757202148438,1.7640498876571655,44.79991912841797,0.012551712803542614,0.035380393266677856,-0.017064182087779045,43.65549850463867,48.983001708984375,46.95650100708008,60.65250015258789,39.8385009765625,49.571998596191406,1770125315,981124976,X6-tool2,2.561289503546359,0.19276320331832864,45.457877495116406,-0.006809567655443961,-0.03699989614177265,-0.06371976047415383,0.04681555554270744
