timestamp,out_1_header.stamp.sec,out_1_header.stamp.nanosec,out_1_header.frame_id,out_1_val,out_1_speed,out_2_header.stamp.sec,out_2_header.stamp.nanosec,out_2_header.frame_id,out_2_val,out_2_speed,out_3_header.stamp.sec,out_3_header.stamp.nanosec,out_3_header.frame_id,out_3_val,out_3_speed,out_4_header.stamp.sec,out_4_header.stamp.nanosec,out_4_header.frame_id,out_4_val,out_4_speed,out_5_header.stamp.sec,out_5_header.stamp.nanosec,out_5_header.frame_id,out_5_val,out_5_speed,out_6_header.stamp.sec,out_6_header.stamp.nanosec,out_6_header.frame_id,out_6_val,out_6_speed,x6position_pose_rp[0],x6position_pose_rp[1],x6position_pose_rp[2],x6position_pose_rp[3],x6position_pose_rp[4],x6position_pose_rp[5],x6position_joints[0],x6position_joints[1],x6position_joints[2],x6position_joints[3],x6position_joints[4],x6position_joints[5],aimooe_coord_header.stamp.sec,aimooe_coord_header.stamp.nanosec,aimooe_coord_header.frame_id,aimooe_coord_position.x,aimooe_coord_position.y,aimooe_coord_position.z,aimooe_coord_orientation.x,aimooe_coord_orientation.y,aimooe_coord_orientation.z,aimooe_coord_mean_error
2025-12-23 16:52:11.761919,1766479931,757329664,1,158373,0,1766479931,754012779,2,141339,0,1766479931,750716305,3,148744,0,1766479931,747339238,4,165652,0,1766479931,743987561,5,182411,0,1766479931,760699231,6,163927,0,4.999029636383057,-0.0005570240318775177,45.001625061035156,-0.00030454553780145943,0.0024644341319799423,-0.006683961488306522,53.137001037597656,54.375999450683594,47.70500183105469,67.43299865722656,36.71799850463867,43.38399887084961,1766479931,674941328,X6-tool2,4.678120919614002,-0.6259923487666005,43.6777298250317,-0.003799029833468434,0.12083221189176349,-0.25969213322046314,0.051845550537109375
2025-12-23 16:52:11.798051,1766479931,797336103,1,158373,0,1766479931,793997267,2,141339,0,1766479931,790675662,3,148744,0,1766479931,787336206,4,165652,0,1766479931,783998280,5,182411,0,1766479931,780662964,6,163927,0,4.999029636383057,-0.0005570240318775177,45.001625061035156,-0.00030454553780145943,0.0024644341319799423,-0.006683961488306522,53.137001037597656,54.375999450683594,47.70500183105469,67.43299865722656,36.71799850463867,43.38399887084961,1766479931,774783333,X6-tool2,4.733146101831505,-0.6341675161171746,43.678083008943226,-0.003624641076585632,0.11987039210716524,-0.2596261139112396,0.05714480206370354
2025-12-23 16:52:11.834238,1766479931,817365958,1,158373,0,1766479931,814026332,2,141339,0,1766479931,830702851,3,148744,0,1766479931,827342235,4,165657,0,1766479931,823999358,5,182411,0,1766479931,820670363,6,163927,0,4.99906063079834,0.0010680453851819038,45.0010871887207,-0.00030454553780145943,0.0024644341319799423,-0.006683961488306522,53.137001037597656,54.37099838256836,47.70500183105469,67.43299865722656,36.71799850463867,43.38399887084961,1766479931,774783333,X6-tool2,4.733146101831505,-0.6341675161171746,43.678083008943226,-0.003624641076585632,0.11987039210716524,-0.2596261139112396,0.05714480206370354
2025-12-23 16:52:11.871286,1766479931,857389548,1,158373,0,1766479931,854050531,2,141339,0,1766479931,870670059,3,148744,0,1766479931,867348963,4,165657,0,1766479931,863998547,5,182411,0,1766479931,860700273,6,163927,0,4.99906063079834,0.0010680453851819038,45.0010871887207,-0.00030454553780145943,0.0024644341319799423,-0.006683961488306522,53.137001037597656,54.37099838256836,47.70500183105469,67.43299865722656,36.71799850463867,43.38399887084961,1766479931,774783333,X6-tool2,4.733146101831505,-0.6341675161171746,43.678083008943226,-0.003624641076585632,0.11987039210716524,-0.2596261139112396,0.05714480206370354
2025-12-23 16:52:11.907875,1766479931,897405037,1,158373,0,1766479931,894014379,2,141339,0,1766479931,890692603,3,148744,0,1766479931,907325141,4,165657,0,1766479931,903989355,5,182411,0,1766479931,900659800,6,163927,0,4.99906063079834,0.0010680453851819038,45.0010871887207,-0.00030454553780145943,0.0024644341319799423,-0.006683961488306522,53.137001037597656,54.37099838256836,47.70500183105469,67.43299865722656,36.71799850463867,43.38399887084961,1766479931,874690520,X6-tool2,4.705377293401481,-0.6677968639925357,43.700155084541684,-0.0037718717928704134,0.12043705968350231,-0.2598781240350384,0.05566565319895744
2025-12-23 16:52:11.944555,1766479931,937324102,1,158373,0,1766479931,934008417,2,141339,0,1766479931,930661151,3,148744,0,1766479931,927333055,4,165657,0,1766479931,943939421,5,182411,0,1766479931,940667988,6,163927,0,4.99906063079834,0.0010680453851819038,45.0010871887207,-0.00030454553780145943,0.0024644341319799423,-0.006683961488306522,53.137001037597656,54.37099838256836,47.70500183105469,67.43299865722656,36.71799850463867,43.38399887084961,1766479931,874690520,X6-tool2,4.705377293401481,-0.6677968639925357,43.700155084541684,-0.0037718717928704134,0.12043705968350231,-0.2598781240350384,0.05566565319895744
2025-12-23 16:52:11.980374,1766479931,977344291,1,158373,0,1766479931,974011645,2,141339,0,1766479931,970693220,3,148744,0,1766479931,967297422,4,165657,0,1766479931,963998518,5,182411,0,1766479931,960693723,6,163927,0,4.99906063079834,0.0010680453851819038,45.0010871887207,-0.00030454553780145943,0.0024644341319799423,-0.006683961488306522,53.137001037597656,54.37099838256836,47.70500183105469,67.43299865722656,36.71799850463867,43.38399887084961,1766479931,874690520,X6-tool2,4.705377293401481,-0.6677968639925357,43.700155084541684,-0.0037718717928704134,0.12043705968350231,-0.2598781240350384,0.05566565319895744
2025-12-23 16:52:12.016638,1766479931,997339205,1,158373,0,1766479932,14004583,2,141339,0,1766479932,10696778,3,148744,0,1766479932,7343342,4,165652,0,1766479932,3991156,5,182411,0,1766479932,670081,6,163927,0,4.999029636383057,-0.0005570240318775177,45.001625061035156,-0.00030454553780145943,0.0024644341319799423,-0.006683961488306522,53.137001037597656,54.375999450683594,47.70500183105469,67.43299865722656,36.71799850463867,43.38399887084961,1766479931,982601039,X6-tool2,4.656711281645298,-0.6760086140612162,43.64899840726664,-0.004300594811588174,0.12020299788659408,-0.2599286108468746,0.053023021668195724
2025-12-23 16:52:12.052712,1766479932,37338054,1,158373,0,1766479932,34002057,2,141339,0,1766479932,50689177,3,148744,0,1766479932,47331320,4,165652,0,1766479932,44005994,5,182411,0,1766479932,40659488,6,163927,0,4.999029636383057,-0.0005570240318775177,45.001625061035156,-0.00030454553780145943,0.0024644341319799423,-0.006683961488306522,53.137001037597656,54.375999450683594,47.70500183105469,67.43299865722656,36.71799850463867,43.38399887084961,1766479931,982601039,X6-tool2,4.656711281645298,-0.6760086140612162,43.64899840726664,-0.004300594811588174,0.12020299788659408,-0.2599286108468746,0.053023021668195724
2025-12-23 16:52:12.088669,1766479932,77362052,1,158379,0,1766479932,74035027,2,141339,0,1766479932,70666260,3,148744,0,1766479932,87345159,4,165652,0,1766479932,84028434,5,182411,0,1766479932,80701958,6,163927,0,4.999029636383057,-0.0005570240318775177,45.001625061035156,-0.00030454553780145943,0.0024644341319799423,-0.006683961488306522,53.137001037597656,54.375999450683594,47.70500183105469,67.43299865722656,36.71799850463867,43.38399887084961,1766479932,82228836,X6-tool2,4.710698074316996,-0.7093698572167952,43.679816029851075,-0.004540338175472306,0.11999281345143936,-0.25976059433491466,0.05564053729176521
2025-12-23 16:52:12.125567,1766479932,117324539,1,158379,0,1766479932,114004774,2,141339,0,1766479932,110750041,3,148744,0,1766479932,107327292,4,165652,0,1766479932,123999281,5,182411,0,1766479932,120669416,6,163927,0,4.999029636383057,-0.0005570240318775177,45.001625061035156,-0.000578628561925143,-0.001978039275854826,0.0006235066102817655,53.137001037597656,54.375999450683594,47.70500183105469,67.43299865722656,36.71200180053711,43.38399887084961,1766479932,82228836,X6-tool2,4.710698074316996,-0.7093698572167952,43.679816029851075,-0.004540338175472306,0.11999281345143936,-0.25976059433491466,0.05564053729176521
2025-12-23 16:52:12.161469,1766479932,157375070,1,158379,0,1766479932,154010293,2,141339,0,1766479932,150663836,3,148744,0,1766479932,147382533,4,165652,0,1766479932,143987675,5,182411,0,1766479932,160699385,6,163927,0,4.999029636383057,-0.0005570240318775177,45.001625061035156,-0.000578628561925143,-0.001978039275854826,0.0006235066102817655,53.137001037597656,54.375999450683594,47.70500183105469,67.43299865722656,36.71200180053711,43.38399887084961,1766479932,82228836,X6-tool2,4.710698074316996,-0.7093698572167952,43.679816029851075,-0.004540338175472306,0.11999281345143936,-0.25976059433491466,0.05564053729176521
2025-12-23 16:52:12.197016,1766479932,177330162,1,158379,0,1766479932,193996661,2,141339,0,1766479932,190679705,3,148744,0,1766479932,187335599,4,165652,0,1766479932,184002813,5,182411,0,1766479932,180680088,6,163927,0,4.999029636383057,-0.0005570240318775177,45.001625061035156,-0.000578628561925143,-0.001978039275854826,0.0006235066102817655,53.137001037597656,54.375999450683594,47.70500183105469,67.43299865722656,36.71200180053711,43.38399887084961,1766479932,181781970,X6-tool2,4.688037937983904,-0.6844613131338184,43.640470640507424,-0.003620784183636941,0.11954056618535792,-0.25993080837210786,0.05793030932545662
2025-12-23 16:52:12.233447,1766479932,217363722,1,158379,0,1766479932,213990464,2,141339,0,1766479932,230762667,3,148744,0,1766479932,227329567,4,165652,0,1766479932,224013482,5,182411,0,1766479932,220680347,6,163927,0,4.999029636383057,-0.0005570240318775177,45.001625061035156,-0.000578628561925143,-0.001978039275854826,0.0006235066102817655,53.137001037597656,54.375999450683594,47.70500183105469,67.43299865722656,36.71200180053711,43.38399887084961,1766479932,181781970,X6-tool2,4.688037937983904,-0.6844613131338184,43.640470640507424,-0.003620784183636941,0.11954056618535792,-0.25993080837210786,0.05793030932545662
2025-12-23 16:52:12.269780,1766479932,257340369,1,158379,0,1766479932,253990803,2,141339,0,1766479932,250778412,3,148744,0,1766479932,267342666,4,165652,0,1766479932,264004381,5,182411,0,1766479932,260678615,6,163927,0,4.999029636383057,-0.0005570240318775177,45.001625061035156,-0.000578628561925143,-0.001978039275854826,0.0006235066102817655,53.137001037597656,54.375999450683594,47.70500183105469,67.43299865722656,36.71200180053711,43.38399887084961,1766479932,181781970,X6-tool2,4.688037937983904,-0.6844613131338184,43.640470640507424,-0.003620784183636941,0.11954056618535792,-0.25993080837210786,0.05793030932545662
2025-12-23 16:52:12.307886,1766479932,297326927,1,158379,0,1766479932,294004442,2,141339,0,1766479932,290658415,3,148744,0,1766479932,307345704,4,165652,0,1766479932,303989208,5,182411,0,1766479932,300695274,6,163927,0,4.999029636383057,-0.0005570240318775177,45.001625061035156,-0.000578628561925143,-0.001978039275854826,0.0006235066102817655,53.137001037597656,54.375999450683594,47.70500183105469,67.43299865722656,36.71200180053711,43.38399887084961,1766479932,281489460,X6-tool2,4.650261871231565,-0.653980169942864,43.66298349147097,-0.003830659786470732,0.12058103329531515,-0.2600613683195735,0.05707867816090584
2025-12-23 16:52:12.344228,1766479932,337319035,1,158379,0,1766479932,333999600,2,141339,0,1766479932,330655654,3,148744,0,1766479932,327314028,4,165652,0,1766479932,323997793,5,182411,0,1766479932,340665051,6,163927,0,4.999029636383057,-0.0005570240318775177,45.001625061035156,-0.000578628561925143,-0.001978039275854826,0.0006235066102817655,53.137001037597656,54.375999450683594,47.70500183105469,67.43299865722656,36.71200180053711,43.38399887084961,1766479932,281489460,X6-tool2,4.650261871231565,-0.653980169942864,43.66298349147097,-0.003830659786470732,0.12058103329531515,-0.2600613683195735,0.05707867816090584
2025-12-23 16:52:12.380325,1766479932,377324613,1,158379,0,1766479932,373996958,2,141339,0,1766479932,370654602,3,148744,0,1766479932,367334766,4,165652,0,1766479932,363983740,5,182411,0,1766479932,360670346,6,163927,0,4.999029636383057,-0.0005570240318775177,45.001625061035156,-0.000578628561925143,-0.001978039275854826,0.0006235066102817655,53.137001037597656,54.375999450683594,47.70500183105469,67.43299865722656,36.71200180053711,43.38399887084961,1766479932,281489460,X6-tool2,4.650261871231565,-0.653980169942864,43.66298349147097,-0.003830659786470732,0.12058103329531515,-0.2600613683195735,0.05707867816090584
2025-12-23 16:52:12.417310,1766479932,397332318,1,158379,0,1766479932,413997826,2,141339,0,1766479932,410679531,3,148744,0,1766479932,407316604,4,165652,0,1766479932,403984288,5,182411,0,1766479932,400650283,6,163927,0,4.999029636383057,-0.0005570240318775177,45.001625061035156,-0.000578628561925143,-0.001978039275854826,0.0006235066102817655,53.137001037597656,54.375999450683594,47.70500183105469,67.43299865722656,36.71200180053711,43.38399887084961,1766479932,381483240,X6-tool2,4.675352171802926,-0.6653135632394189,43.643478671290666,-0.003721739673657341,0.11999182429627368,-0.25996937149310884,0.05178769305348396
2025-12-23 16:52:12.453690,1766479932,437370458,1,158379,0,1766479932,434707667,2,141339,0,1766479932,450656299,3,148744,0,1766479932,447333713,4,165652,0,1766479932,444036099,5,182411,0,1766479932,440681522,6,163927,0,4.999029636383057,-0.0005570240318775177,45.001625061035156,-0.000578628561925143,-0.001978039275854826,0.0006235066102817655,53.137001037597656,54.375999450683594,47.70500183105469,67.43299865722656,36.71200180053711,43.38399887084961,1766479932,381483240,X6-tool2,4.675352171802926,-0.6653135632394189,43.643478671290666,-0.003721739673657341,0.11999182429627368,-0.25996937149310884,0.05178769305348396
2025-12-23 16:52:12.489862,1766479932,477362376,1,158379,0,1766479932,474035730,2,141339,0,1766479932,470699954,3,148744,0,1766479932,487331562,4,165657,0,1766479932,483991956,5,182411,0,1766479932,480691521,6,163927,0,4.999029636383057,-0.0005570240318775177,45.001625061035156,-0.000578628561925143,-0.001978039275854826,0.0006235066102817655,53.137001037597656,54.375999450683594,47.70500183105469,67.43299865722656,36.71200180053711,43.38399887084961,1766479932,480198033,X6-tool2,4.661370584283561,-0.7101915601552371,43.6032145167842,-0.004078746208175907,0.11909384131655024,-0.2599943559425328,0.05324109271168709
2025-12-23 16:52:12.525897,1766479932,517321882,1,158373,0,1766479932,514021398,2,141262,-58,1766479932,510656941,3,148683,-20,1766479932,507353617,4,165822,84,1766479932,523996454,5,182626,49,1766479932,520670919,6,163823,-22,4.988197326660156,0.06306305527687073,44.99264144897461,-0.024752086028456688,0.007402933668345213,0.013897630386054516,53.03200149536133,54.20600128173828,47.70500183105469,67.43299865722656,36.71200180053711,43.43899917602539,1766479932,480198033,X6-tool2,4.661370584283561,-0.7101915601552371,43.6032145167842,-0.004078746208175907,0.11909384131655024,-0.2599943559425328,0.05324109271168709
2025-12-23 16:52:12.561846,1766479932,557344512,1,158351,-10,1766479932,553998206,2,141108,-42,1766479932,550684741,3,148552,-29,1766479932,547344525,4,166218,107,1766479932,544000868,5,182736,54,1766479932,560667147,6,163696,-36,4.99208402633667,0.22340521216392517,44.97589111328125,-0.037313032895326614,0.0013061993522569537,0.016135824844241142,52.8120002746582,53.810001373291016,47.82600021362305,67.58699798583984,36.71799850463867,43.542999267578125,1766479932,480198033,X6-tool2,4.661370584283561,-0.7101915601552371,43.6032145167842,-0.004078746208175907,0.11909384131655024,-0.2599943559425328,0.05324109271168709
2025-12-23 16:52:12.596904,1766479932,577359146,1,158329,-14,1766479932,594030705,2,140977,-26,1766479932,590693949,3,148414,-32,1766479932,587361234,4,166674,118,1766479932,583999747,5,183093,98,1766479932,580670761,6,163608,-46,4.983764171600342,0.41158589720726013,44.96031188964844,-0.028221677988767624,-0.003798179794102907,0.026759663596749306,52.45500183105469,53.354000091552734,47.96900177001953,67.73500061035156,36.762001037597656,43.702999114990234,1766479932,579595871,X6-tool2,4.709462227184087,-0.6689127433030868,43.66801276742085,-0.0041951617045047134,0.11940112929757585,-0.2602839257869412,0.057216960936784744
2025-12-23 16:52:12.633009,1766479932,617902735,1,158253,-23,1766479932,614025909,2,140933,-14,1766479932,630684017,3,148260,-43,1766479932,627331611,4,167184,132,1766479932,623985935,5,183543,116,1766479932,620696251,6,163422,-47,4.976268291473389,0.5133028626441956,44.94957733154297,-0.022261900827288628,0.0017931467154994607,0.03291167691349983,52.24100112915039,53.10200119018555,48.03499984741211,67.79499816894531,36.79399871826172,43.790000915527344,1766479932,579595871,X6-tool2,4.709462227184087,-0.6689127433030868,43.66801276742085,-0.0041951617045047134,0.11940112929757585,-0.2602839257869412,0.057216960936784744
2025-12-23 16:52:12.668169,1766479932,657335473,1,158187,-11,1766479932,654024917,2,140889,-4,1766479932,650659801,3,148195,-35,1766479932,667331309,4,167723,118,1766479932,663993333,5,183922,86,1766479932,660665808,6,163229,-51,4.949325084686279,0.7237489223480225,44.923431396484375,-0.02588769420981407,-0.0013064187951385975,0.016471831128001213,51.81800079345703,52.569000244140625,48.18899917602539,67.86100006103516,36.87099838256836,43.983001708984375,1766479932,579595871,X6-tool2,4.709462227184087,-0.6689127433030868,43.66801276742085,-0.0041951617045047134,0.11940112929757585,-0.2602839257869412,0.057216960936784744
2025-12-23 16:52:12.703544,1766479932,697351951,1,158110,-24,1766479932,694004525,2,140850,0,1766479932,690685910,3,148052,-37,1766479932,687332224,4,167975,130,1766479932,683996128,5,184142,120,1766479932,700657596,6,163004,-59,4.916953086853027,0.9293519854545593,44.898895263671875,-0.03983622044324875,-0.0025770796928554773,0.013192889280617237,51.40599822998047,52.053001403808594,48.32600021362305,67.91100311279297,36.94300079345703,44.191001892089844,1766479932,678982498,X6-tool2,4.752484297254487,-0.6200083973889879,43.657963879843244,-0.004327731742201644,0.11845871968114143,-0.26158469829340314,0.06079928204417229
2025-12-23 16:52:12.739121,1766479932,737357310,1,157956,-47,1766479932,734011513,2,140817,-22,1766479932,730663087,3,147892,-46,1766479932,727518358,4,168415,115,1766479932,724023587,5,184592,134,1766479932,720697312,6,162889,-54,4.875880718231201,1.1108801364898682,44.884212493896484,-0.02737068198621273,-0.02015368454158306,0.017681704834103584,50.95600128173828,51.612998962402344,48.4739990234375,67.93800354003906,37.047000885009766,44.422000885009766,1766479932,678982498,X6-tool2,4.752484297254487,-0.6200083973889879,43.657963879843244,-0.004327731742201644,0.11845871968114143,-0.26158469829340314,0.06079928204417229
2025-12-23 16:52:12.774215,1766479932,757352894,1,157857,-46,1766479932,754009788,2,140823,0,1766479932,770664066,3,147739,-37,1766479932,767331080,4,168904,129,1766479932,764022645,5,185109,123,1766479932,760667989,6,162631,-72,4.853880882263184,1.2145355939865112,44.87421417236328,-0.007192499004304409,-0.003555512288585305,0.0077166445553302765,50.680999755859375,51.36000061035156,48.55699920654297,67.95500183105469,37.1349983215332,44.54899978637695,1766479932,678982498,X6-tool2,4.752484297254487,-0.6200083973889879,43.657963879843244,-0.004327731742201644,0.11845871968114143,-0.26158469829340314,0.06079928204417229
2025-12-23 16:52:12.810431,1766479932,797328861,1,157714,-30,1766479932,793995495,2,140817,-2,1766479932,790725382,3,147673,-27,1766479932,807326118,4,169376,129,1766479932,804020243,5,185554,111,1766479932,800691988,6,162356,-76,4.800283432006836,1.4066740274429321,44.8577995300293,0.002664788393303752,0.023031003773212433,-0.021652963012456894,50.220001220703125,50.893001556396484,48.709999084472656,67.9489974975586,37.31100082397461,44.81800079345703,1766479932,778596015,X6-tool2,4.750246330221381,-0.5897164927975029,43.630532172138956,-0.004279361843493839,0.11720948570928541,-0.26259414895408995,0.059790611267089844
2025-12-23 16:52:12.846335,1766479932,837352200,1,157593,-25,1766479932,834011964,2,140845,9,1766479932,830658218,3,147563,-24,1766479932,827347663,4,169596,119,1766479932,843993901,5,186021,124,1766479932,840697476,6,162048,-74,4.745687484741211,1.598761796951294,44.842376708984375,-0.009094164706766605,0.030483925715088844,-0.001666172523982823,49.76900100708008,50.43199920654297,48.83100128173828,67.9489974975586,37.4370002746582,45.097999572753906,1766479932,778596015,X6-tool2,4.750246330221381,-0.5897164927975029,43.630532172138956,-0.004279361843493839,0.11720948570928541,-0.26259414895408995,0.059790611267089844
2025-12-23 16:52:12.882157,1766479932,877356489,1,157478,-34,1766479932,874012593,2,140883,9,1766479932,870685947,3,147431,-32,1766479932,867358752,4,170107,131,1766479932,863997795,5,186290,135,1766479932,880663834,6,161730,-86,4.678572177886963,1.808671474456787,44.82246780395508,-0.03424612805247307,0.0240495465695858,0.03990695998072624,49.257999420166016,49.92100143432617,48.946998596191406,67.91600036621094,37.553001403808594,45.41600036621094,1766479932,877943701,X6-tool2,4.764360277407518,-0.5467943529104213,43.64851341885561,-0.005769210495768945,0.11417934484379225,-0.26346406793782623,0.06008116528391838
2025-12-23 16:52:12.917291,1766479932,897354363,1,157396,-42,1766479932,914012191,2,140938,10,1766479932,910689696,3,147305,-33,1766479932,907340929,4,170579,113,1766479932,903994413,5,186801,133,1766479932,900664288,6,161570,-72,4.606378078460693,2.003622055053711,44.80542755126953,-0.04516811668872833,0.019178517162799835,0.06478242576122284,48.74700164794922,49.44900131225586,49.077999114990234,67.86100006103516,37.69499969482422,45.74100112915039,1766479932,877943701,X6-tool2,4.764360277407518,-0.5467943529104213,43.64851341885561,-0.005769210495768945,0.11417934484379225,-0.26346406793782623,0.06008116528391838
2025-12-23 16:52:12.953196,1766479932,937358341,1,157236,-33,1766479932,934011105,2,140982,19,1766479932,950689674,3,147189,-23,1766479932,947329757,4,170964,96,1766479932,944019733,5,187322,119,1766479932,940678057,6,161268,-78,4.572108268737793,2.0870604515075684,44.79995346069336,-0.034336723387241364,0.019456304609775543,0.07564284652471542,48.48899841308594,49.250999450683594,49.14400100708008,67.83399963378906,37.77199935913086,45.89400100708008,1766479932,877943701,X6-tool2,4.764360277407518,-0.5467943529104213,43.64851341885561,-0.005769210495768945,0.11417934484379225,-0.26346406793782623,0.06008116528391838
2025-12-23 16:52:12.988909,1766479932,977332209,1,157072,-35,1766479932,974011963,2,141053,27,1766479932,970665037,3,147140,-26,1766479932,987345786,4,171381,112,1766479932,984000220,5,187894,141,1766479932,980667615,6,160933,-75,4.498033046722412,2.2542498111724854,44.78996658325195,-0.009103252552449703,0.031348757445812225,0.10905526578426361,47.94499969482422,48.85599899291992,49.2599983215332,67.76799774169922,37.9370002746582,46.21799850463867,1766479932,977509735,X6-tool2,4.663180156433046,-0.25956376442179707,43.62768212439213,-0.006746123566395183,0.11134101695735442,-0.2650100075191405,0.07041104882955551
2025-12-23 16:52:13.024543,1766479933,17353078,1,156901,-38,1766479933,14018152,2,141240,36,1766479933,10679796,3,147014,-30,1766479933,7371561,4,171601,97,1766479933,23983808,5,188454,133,1766479933,20677923,6,160598,-87,4.409364700317383,2.4189865589141846,44.766563415527344,0.02063470520079136,0.04140709713101387,0.11175114661455154,47.340999603271484,48.426998138427734,49.375,67.60299682617188,38.112998962402344,46.53200149536133,1766479932,977509735,X6-tool2,4.663180156433046,-0.25956376442179707,43.62768212439213,-0.006746123566395183,0.11134101695735442,-0.2650100075191405,0.07041104882955551
2025-12-23 16:52:13.059830,1766479933,57321555,1,156714,-48,1766479933,53987209,2,141427,37,1766479933,50673574,3,146871,-31,1766479933,47325638,4,172101,126,1766479933,43984032,5,188701,111,1766479933,40655517,6,160417,-97,4.309496879577637,2.6111598014831543,44.73738479614258,-0.025164075195789337,0.03209898993372917,0.10466363281011581,46.84700012207031,47.926998138427734,49.50699996948242,67.427001953125,38.27799987792969,46.89400100708008,1766479932,977509735,X6-tool2,4.663180156433046,-0.25956376442179707,43.62768212439213,-0.006746123566395183,0.11134101695735442,-0.2650100075191405,0.07041104882955551
2025-12-23 16:52:13.095726,1766479933,77323339,1,156632,-43,1766479933,93993948,2,141564,42,1766479933,90659822,3,146733,-32,1766479933,87329166,4,172551,98,1766479933,83990981,5,189250,141,1766479933,80650185,6,160038,-101,4.212648391723633,2.7926502227783203,44.71783447265625,-0.03052341379225254,0.03281079977750778,0.1244102343916893,46.29800033569336,47.47700119018555,49.64400100708008,67.29000091552734,38.45899963378906,47.27299880981445,1766479933,76768278,X6-tool2,4.670579850391014,0.000687288810815787,43.61576487619475,-0.013505160003551144,0.10337071092069054,-0.26581731854425206,0.06539217382669449
2025-12-23 16:52:13.130806,1766479933,117319758,1,156401,-69,1766479933,114023023,2,141641,39,1766479933,110656846,3,146662,-56,1766479933,127350976,4,172985,113,1766479933,123988029,5,189860,151,1766479933,120692125,6,159609,-129,4.1590447425842285,2.87982177734375,44.709896087646484,-0.026996025815606117,0.03594854474067688,0.13056431710720062,46.012001037597656,47.262001037597656,49.715999603271484,67.20800018310547,38.5629997253418,47.47600173950195,1766479933,76768278,X6-tool2,4.670579850391014,0.000687288810815787,43.61576487619475,-0.013505160003551144,0.10337071092069054,-0.26581731854425206,0.06539217382669449
2025-12-23 16:52:13.167515,1766479933,157328786,1,156187,-57,1766479933,153992420,2,141866,59,1766479933,150657765,3,146497,-36,1766479933,147334710,4,173199,102,1766479933,163997278,5,190388,123,1766479933,160692733,6,159192,-110,4.045050144195557,3.056941509246826,44.6954231262207,-0.012314358726143837,0.04952084645628929,0.13308419287204742,45.42399978637695,46.82899856567383,49.880001068115234,67.03700256347656,38.79899978637695,47.90999984741211,1766479933,76768278,X6-tool2,4.670579850391014,0.000687288810815787,43.61576487619475,-0.013505160003551144,0.10337071092069054,-0.26581731854425206,0.06539217382669449
2025-12-23 16:52:13.203170,1766479933,197336465,1,155978,-63,1766479933,194065431,2,142218,108,1766479933,190670133,3,146316,-41,1766479933,187330817,4,173584,88,1766479933,183992561,5,190673,156,1766479933,200694831,6,158763,-106,3.9126498699188232,3.201916456222534,44.67845916748047,-0.009740859270095825,0.027824971824884415,0.10936605930328369,44.875,46.444000244140625,50.040000915527344,66.75700378417969,39.013999938964844,48.33300018310547,1766479933,176504169,X6-tool2,4.4532738638365394,0.6936035729559497,43.59606238483443,-0.021014270447281182,0.09785939320933508,-0.2669244383220159,0.060349781066179276
2025-12-23 16:52:13.239102,1766479933,237315182,1,155737,-65,1766479933,234018468,2,142449,55,1766479933,230671332,3,146184,-32,1766479933,227351926,4,173930,84,1766479933,224009330,5,191223,126,1766479933,220689615,6,158549,-98,3.774043560028076,3.3305351734161377,44.665096282958984,0.004600762389600277,-0.00012260420771781355,0.08863979578018188,44.32500076293945,46.097999572753906,50.19900131225586,66.45500183105469,39.22800064086914,48.762001037597656,1766479933,176504169,X6-tool2,4.4532738638365394,0.6936035729559497,43.59606238483443,-0.021014270447281182,0.09785939320933508,-0.2669244383220159,0.060349781066179276
2025-12-23 16:52:13.274310,1766479933,257318786,1,155616,-62,1766479933,253994551,2,142608,87,1766479933,270653680,3,146047,-38,1766479933,267356205,4,174326,105,1766479933,263995748,5,191750,129,1766479933,260691494,6,158115,-125,3.7106738090515137,3.4049065113067627,44.65254211425781,0.008546369150280952,0.018117863684892654,0.06932728737592697,44.055999755859375,45.89500045776367,50.26499938964844,66.322998046875,39.354000091552734,48.96500015258789,1766479933,176504169,X6-tool2,4.4532738638365394,0.6936035729559497,43.59606238483443,-0.021014270447281182,0.09785939320933508,-0.2669244383220159,0.060349781066179276
2025-12-23 16:52:13.310535,1766479933,297316705,1,155374,-60,1766479933,293984759,2,142883,76,1766479933,290675974,3,145964,-39,1766479933,307319672,4,174787,127,1766479933,304003517,5,192371,163,1766479933,300655351,6,157670,-122,3.572000026702881,3.5596799850463867,44.62877655029297,0.0024242629297077656,0.03593802824616432,0.05073089152574539,43.50699996948242,45.47700119018555,50.402000427246094,66.04299926757812,39.59600067138672,49.415000915527344,1766479933,275808464,X6-tool2,4.2834128258866375,1.1128088086455326,43.58246973275419,-0.03084317147912433,0.09326767525681863,-0.2665874751365895,0.07184632867574692
2025-12-23 16:52:13.346391,1766479933,337311533,1,155160,-51,1766479933,333982177,2,143179,59,1766479933,330674483,3,145833,-28,1766479933,327319486,4,174996,109,1766479933,343978505,5,192914,119,1766479933,340648199,6,157198,-105,3.421186923980713,3.714708089828491,44.595890045166016,0.0040066842921078205,0.0380791574716568,0.02796769328415394,42.90299987792969,45.03200149536133,50.55099868774414,65.70800018310547,39.832000732421875,49.87099838256836,1766479933,275808464,X6-tool2,4.2834128258866375,1.1128088086455326,43.58246973275419,-0.03084317147912433,0.09326767525681863,-0.2665874751365895,0.07184632867574692
2025-12-23 16:52:13.382313,1766479933,377313291,1,154924,-70,1766479933,373982406,2,143553,84,1766479933,370660131,3,145728,-24,1766479933,367327725,4,175347,84,1766479933,363991969,5,193167,134,1766479933,380650107,6,156687,-117,3.272279739379883,3.8509774208068848,44.58503723144531,-0.008908090181648731,0.026012936607003212,0.06578946858644485,42.38100051879883,44.680999755859375,50.67100143432617,65.43299865722656,40.03499984741211,50.37099838256836,1766479933,375282495,X6-tool2,4.138504426888305,1.6103586387590734,43.64968271605605,-0.04185002708090434,0.08878986493456374,-0.2654983932882581,0.059777576476335526
2025-12-23 16:52:13.417918,1766479933,417333710,1,154693,-57,1766479933,413986644,2,143910,122,1766479933,410670279,3,145613,-30,1766479933,407317833,4,175682,87,1766479933,403984417,5,193683,139,1766479933,400655962,6,156440,-126,3.103105068206787,3.967026710510254,44.56882095336914,-0.010464956983923912,0.04227183386683464,0.04230659827589989,41.8650016784668,44.34600067138672,50.78099822998047,65.05999755859375,40.29399871826172,50.87099838256836,1766479933,375282495,X6-tool2,4.138504426888305,1.6103586387590734,43.64968271605605,-0.04185002708090434,0.08878986493456374,-0.2654983932882581,0.059777576476335526
2025-12-23 16:52:13.453238,1766479933,437337645,1,154600,-38,1766479933,433983948,2,144064,82,1766479933,450656497,3,145481,-41,1766479933,447316051,4,176023,86,1766479933,443983635,5,194194,122,1766479933,440653480,6,155978,-116,3.0185980796813965,4.02214241027832,44.55690383911133,-0.01765032485127449,0.03243909031152725,0.03618696704506874,41.61199951171875,44.17499923706055,50.83599853515625,64.86199951171875,40.39799880981445,51.106998443603516,1766479933,375282495,X6-tool2,4.138504426888305,1.6103586387590734,43.64968271605605,-0.04185002708090434,0.08878986493456374,-0.2654983932882581,0.059777576476335526
2025-12-23 16:52:13.489024,1766479933,477353094,1,154369,-47,1766479933,473987077,2,144404,76,1766479933,470663262,3,145421,-33,1766479933,487318899,4,176358,78,1766479933,484022125,5,194722,140,1766479933,480663268,6,155473,-120,2.8636715412139893,4.140000820159912,44.5380859375,-0.011192028410732746,0.02281876467168331,0.047738462686538696,41.095001220703125,43.84000015258789,50.96799850463867,64.54299926757812,40.606998443603516,51.584999084472656,1766479933,474940123,X6-tool2,3.8298378892829463,2.1950903646483733,43.54955567484987,-0.04502937714230486,0.08355946219582401,-0.2634142162020493,0.07741133123636246
2025-12-23 16:52:13.524608,1766479933,517377503,1,154160,-61,1766479933,514005485,2,144706,79,1766479933,510688481,3,145311,-23,1766479933,507315264,4,176523,87,1766479933,523992082,5,195266,120,1766479933,520665827,6,154968,-115,2.69873046875,4.2591328620910645,44.52115249633789,0.009919676929712296,0.025414519011974335,0.08427298069000244,40.529998779296875,43.505001068115234,51.08300018310547,64.21399688720703,40.82600021362305,52.10200119018555,1766479933,474940123,X6-tool2,3.8298378892829463,2.1950903646483733,43.54955567484987,-0.04502937714230486,0.08355946219582401,-0.2634142162020493,0.07741133123636246
2025-12-23 16:52:13.559876,1766479933,557321459,1,153946,-52,1766479933,553981563,2,145107,112,1766479933,550658368,3,145201,-25,1766479933,547319582,4,176814,68,1766479933,544007057,5,195502,116,1766479933,540682562,6,154709,-132,2.5359814167022705,4.360522747039795,44.507659912109375,0.01715511456131935,0.01897348277270794,0.11165338009595871,40.04600143432617,43.2140007019043,51.19300079345703,63.88399887084961,41.029998779296875,52.60200119018555,1766479933,474940123,X6-tool2,3.8298378892829463,2.1950903646483733,43.54955567484987,-0.04502937714230486,0.08355946219582401,-0.2634142162020493,0.07741133123636246
2025-12-23 16:52:13.595816,1766479933,577315493,1,153842,-49,1766479933,594000362,2,145503,98,1766479933,590674627,3,145102,-26,1766479933,587327721,4,177122,77,1766479933,583992855,5,195947,100,1766479933,580659319,6,154177,-130,2.4393160343170166,4.409173965454102,44.496551513671875,0.0030129661317914724,0.011795595288276672,0.10302160680294037,39.82099914550781,43.05500030517578,51.24800109863281,63.665000915527344,41.14500045776367,52.87099838256836,1766479933,575076409,X6-tool2,3.528953439173241,2.7515319625309065,43.67852458910661,-0.05102856074507959,0.0832277420758087,-0.260030407326057,0.0813150405883789
2025-12-23 16:52:13.631340,1766479933,617344132,1,153633,-57,1766479933,614004476,2,145701,99,1766479933,630654375,3,144987,-32,1766479933,627314258,4,177440,85,1766479933,623976943,5,196364,97,1766479933,620664987,6,153655,-124,2.2563533782958984,4.504655361175537,44.47683334350586,-0.02840694598853588,-0.002043653279542923,0.10662873834371567,39.39799880981445,42.75299835205078,51.34700012207031,63.26900100708008,41.354000091552734,53.39799880981445,1766479933,575076409,X6-tool2,3.528953439173241,2.7515319625309065,43.67852458910661,-0.05102856074507959,0.0832277420758087,-0.260030407326057,0.0813150405883789
2025-12-23 16:52:13.666430,1766479933,657336810,1,153369,-77,1766479933,653994084,2,146091,92,1766479933,650670429,3,144937,-28,1766479933,647329193,4,177594,71,1766479933,663996812,5,196793,99,1766479933,660692987,6,153160,-126,2.0771994590759277,4.601039886474609,44.44963455200195,-0.048030782490968704,-0.002066073939204216,0.08569975942373276,38.974998474121094,42.433998107910156,51.46200180053711,62.874000549316406,41.57899856567383,53.90299987792969,1766479933,575076409,X6-tool2,3.528953439173241,2.7515319625309065,43.67852458910661,-0.05102856074507959,0.0832277420758087,-0.260030407326057,0.0813150405883789
2025-12-23 16:52:13.702092,1766479933,697364300,1,153094,-54,1766479933,694031994,2,146552,107,1766479933,690667107,3,144833,-27,1766479933,687344792,4,177874,74,1766479933,684026907,5,197012,118,1766479933,700698706,6,152672,-124,1.899678111076355,4.681608200073242,44.42552185058594,-0.01460532657802105,0.05010274052619934,0.03140345215797424,38.5359992980957,42.15399932861328,51.56700134277344,62.47800064086914,41.8650016784668,54.391998291015625,1766479933,675024808,X6-tool2,3.2073472496206845,3.1776538771028258,43.5318152311104,-0.05443560632373347,0.0800108258026099,-0.2562239170716655,0.06926504522562027
2025-12-23 16:52:13.737269,1766479933,717359474,1,152990,-55,1766479933,734024182,2,146959,87,1766479933,730690127,3,144750,-19,1766479933,727357641,4,178132,54,1766479933,723999524,5,197424,104,1766479933,720692839,6,152424,-120,1.7051860094070435,4.744577884674072,44.399635314941406,-0.004162014927715063,0.052224356681108475,-0.005782509222626686,38.124000549316406,41.895999908447266,51.65999984741211,62.016998291015625,42.10100173950195,54.887001037597656,1766479933,675024808,X6-tool2,3.2073472496206845,3.1776538771028258,43.5318152311104,-0.05443560632373347,0.0800108258026099,-0.2562239170716655,0.06926504522562027
2025-12-23 16:52:13.773021,1766479933,757358272,1,152754,-61,1766479933,753994955,2,147140,94,1766479933,770694455,3,144679,-18,1766479933,767348459,4,178308,61,1766479933,763999583,5,197803,92,1766479933,760690108,6,151880,-141,1.609008550643921,4.7643256187438965,44.40016555786133,0.01801569014787674,0.053558848798274994,0.0027297185733914375,37.92599868774414,41.82400131225586,51.69900131225586,61.8129997253418,42.215999603271484,55.15599822998047,1766479933,675024808,X6-tool2,3.2073472496206845,3.1776538771028258,43.5318152311104,-0.05443560632373347,0.0800108258026099,-0.2562239170716655,0.06926504522562027
2025-12-23 16:52:13.808742,1766479933,797334080,1,152562,-43,1766479933,794024025,2,147541,103,1766479933,790694849,3,144651,-13,1766479933,807331246,4,178522,45,1766479933,804000091,5,198199,105,1766479933,800663875,6,151320,-141,1.4179356098175049,4.828273296356201,44.39012908935547,0.020915012806653976,0.06467016786336899,0.02166411653161049,37.551998138427734,41.61000061035156,51.77000045776367,61.42300033569336,42.441001892089844,55.71099853515625,1766479933,774836231,X6-tool2,2.855715365862035,3.643511889986002,43.5232541243914,-0.05781004095818292,0.0796265526738113,-0.25363103750210153,0.07146453857421875
2025-12-23 16:52:13.843837,1766479933,837360779,1,152380,-51,1766479933,834026343,2,147997,108,1766479933,830703178,3,144613,-5,1766479933,827360492,4,178605,48,1766479933,823998585,5,198369,89,1766479933,840689704,6,150815,-131,1.2201474905014038,4.874855041503906,44.37860870361328,0.018916349858045578,0.03472498059272766,0.07336010783910751,37.17900085449219,41.42300033569336,51.819000244140625,60.994998931884766,42.60599899291992,56.249000549316406,1766479933,774836231,X6-tool2,2.855715365862035,3.643511889986002,43.5232541243914,-0.05781004095818292,0.0796265526738113,-0.25363103750210153,0.07146453857421875
2025-12-23 16:52:13.879658,1766479933,877367937,1,152194,-35,1766479933,874020751,2,148486,123,1766479933,870670965,3,144569,-18,1766479933,867345950,4,178808,53,1766479933,864000304,5,198699,77,1766479933,860691459,6,150562,-122,1.0220153331756592,4.91636323928833,44.356544494628906,0.014467421919107437,0.036485202610492706,0.0678986981511116,36.8489990234375,41.220001220703125,51.85200119018555,60.53900146484375,42.810001373291016,56.749000549316406,1766479933,874688906,X6-tool2,2.4954954695860034,3.939338260407573,43.57139645221079,-0.05795374273951354,0.07756408417370574,-0.2512813245331783,0.07075373083353043
2025-12-23 16:52:13.915164,1766479933,897332340,1,152106,-49,1766479933,914023630,2,148931,116,1766479933,910669833,3,144547,-5,1766479933,907357458,4,178984,48,1766479933,904002342,5,198962,55,1766479933,900668886,6,150095,-118,0.9198668003082275,4.926701545715332,44.343624114990234,0.008234802633523941,0.015684232115745544,0.054720088839530945,36.70600128173828,41.13199996948242,51.880001068115234,60.2859992980957,42.89699935913086,56.97999954223633,1766479933,874688906,X6-tool2,2.4954954695860034,3.939338260407573,43.57139645221079,-0.05795374273951354,0.07756408417370574,-0.2512813245331783,0.07075373083353043
2025-12-23 16:52:13.950211,1766479933,937356289,1,151870,-70,1766479933,934020484,2,149145,103,1766479933,930690998,3,144525,-23,1766479933,947351346,4,179165,42,1766479933,943995140,5,199265,80,1766479933,940692955,6,149584,-138,0.7258361577987671,4.962522029876709,44.3199577331543,-0.024442153051495552,0.013188120909035206,0.036815330386161804,36.45399856567383,40.939998626708984,51.902000427246094,59.840999603271484,43.09000015258789,57.4630012512207,1766479933,874688906,X6-tool2,2.4954954695860034,3.939338260407573,43.57139645221079,-0.05795374273951354,0.07756408417370574,-0.2512813245331783,0.07075373083353043
2025-12-23 16:52:13.985953,1766479933,977354708,1,151699,-47,1766479933,974000711,2,149595,102,1766479933,970690686,3,144514,0,1766479933,967332630,4,179269,48,1766479933,983992118,5,199506,68,1766479933,980663962,6,149079,-136,0.5267669558525085,4.995758056640625,44.2984733581543,-0.02654329128563404,0.02759149670600891,0.021870480850338936,36.17399978637695,40.75899887084961,51.92900085449219,59.395999908447266,43.308998107910156,57.96799850463867,1766479933,974886884,X6-tool2,1.9781362792140302,4.194933667117339,43.46845679125524,-0.0567480027783827,0.07380832733822101,-0.25035450339808507,0.08142375946044922
2025-12-23 16:52:14.021692,1766479934,17353996,1,151529,-41,1766479934,14019930,2,150029,100,1766479934,10685574,3,144509,0,1766479934,7352109,4,179396,29,1766479934,3994452,5,199682,92,1766479934,20687362,6,148590,-113,0.3254854679107666,5.013869285583496,44.28656768798828,-0.0032879365608096123,0.01915581524372101,0.06596978008747101,35.86600112915039,40.63199996948242,51.939998626708984,58.957000732421875,43.48500061035156,58.48500061035156,1766479933,974886884,X6-tool2,1.9781362792140302,4.194933667117339,43.46845679125524,-0.0567480027783827,0.07380832733822101,-0.25035450339808507,0.08142375946044922
2025-12-23 16:52:14.056807,1766479934,37334510,1,151436,-44,1766479934,54017669,2,150474,102,1766479934,50671002,3,144509,1,1766479934,47351557,4,179544,31,1766479934,43992470,5,199913,63,1766479934,40688856,6,148365,-110,0.1335257887840271,5.031217098236084,44.264060974121094,-0.015751078724861145,0.010920360684394836,0.06869278848171234,35.6349983215332,40.48400115966797,51.939998626708984,58.516998291015625,43.654998779296875,58.94599914550781,1766479933,974886884,X6-tool2,1.9781362792140302,4.194933667117339,43.46845679125524,-0.0567480027783827,0.07380832733822101,-0.25035450339808507,0.08142375946044922
2025-12-23 16:52:14.092379,1766479934,77357979,1,151254,-31,1766479934,74022643,2,150694,120,1766479934,90694132,3,144525,6,1766479934,87355466,4,179648,25,1766479934,83992169,5,200143,54,1766479934,80661853,6,147936,-102,0.0391206331551075,5.0331010818481445,44.254886627197266,0.0002775286848191172,0.016841109842061996,0.06406677514314651,35.513999938964844,40.42900085449219,51.939998626708984,58.29800033569336,43.75400161743164,59.16600036621094,1766479934,75484178,X6-tool2,1.5281616847421673,4.300851947015823,43.374934519803936,-0.05577932093274818,0.06823971462115859,-0.2493792055474539,0.072845458984375
2025-12-23 16:52:14.127553,1766479934,117329256,1,151084,-48,1766479934,114020931,2,151199,128,1766479934,110670225,3,144536,0,1766479934,107354990,4,179687,17,1766479934,124022708,5,200297,39,1766479934,120688013,6,147497,-108,-0.1574499011039734,5.02299690246582,44.23550796508789,0.0038600200787186623,-0.0032120454125106335,0.05679597333073616,35.321998596191406,40.340999603271484,51.92399978637695,57.82500076293945,43.91899871826172,59.59400177001953,1766479934,75484178,X6-tool2,1.5281616847421673,4.300851947015823,43.374934519803936,-0.05577932093274818,0.06823971462115859,-0.2493792055474539,0.072845458984375
2025-12-23 16:52:14.163020,1766479934,157328324,1,150897,-48,1766479934,154017379,2,151721,118,1766479934,150659893,3,144586,12,1766479934,147349278,4,179742,8,1766479934,143993981,5,200374,38,1766479934,160685651,6,147057,-106,-0.3683757185935974,4.994625568389893,44.21644592285156,0.0036497232504189014,-0.028216764330863953,0.027882078662514687,35.17399978637695,40.2859992980957,51.89099884033203,57.303001403808594,44.099998474121094,60.02299880981445,1766479934,75484178,X6-tool2,1.5281616847421673,4.300851947015823,43.374934519803936,-0.05577932093274818,0.06823971462115859,-0.2493792055474539,0.072845458984375
2025-12-23 16:52:14.198831,1766479934,197329113,1,150710,-31,1766479934,194017478,2,152183,100,1766479934,190662392,3,144651,10,1766479934,187349436,4,179791,10,1766479934,183996290,5,200528,30,1766479934,180659914,6,146821,-122,-0.581468403339386,4.9708404541015625,44.201637268066406,0.010645530186593533,-0.030988013371825218,0.019756266847252846,35.02000045776367,40.23699951171875,51.83599853515625,56.80400085449219,44.29800033569336,60.4900016784668,1766479934,174895857,X6-tool2,1.0489366354541294,4.405272164079383,43.320132510817736,-0.05278903460105702,0.0642184921159274,-0.24845789778030783,0.06371816247701645
2025-12-23 16:52:14.233910,1766479934,217338107,1,150623,-47,1766479934,214017102,2,152413,124,1766479934,230659200,3,144723,23,1766479934,227352735,4,179824,10,1766479934,223993508,5,200638,35,1766479934,220688034,6,146398,-91,-0.6760622262954712,4.958614826202393,44.19752883911133,0.010127322748303413,-0.031269367784261703,0.02661946602165699,34.959999084472656,40.22600173950195,51.79800033569336,56.5890007019043,44.38100051879883,60.70399856567383,1766479934,174895857,X6-tool2,1.0489366354541294,4.405272164079383,43.320132510817736,-0.05278903460105702,0.0642184921159274,-0.24845789778030783,0.06371816247701645
2025-12-23 16:52:14.269619,1766479934,257343176,1,150403,-58,1766479934,254018190,2,152924,147,1766479934,250689715,3,144800,42,1766479934,267345693,4,179868,0,1766479934,264023638,5,200726,22,1766479934,260688742,6,145986,-85,-0.8751910328865051,4.936855792999268,44.17872619628906,-0.00364485802128911,-0.024817632511258125,-0.0004727747291326523,34.861000061035156,40.17100143432617,51.72600173950195,56.12200164794922,44.577999114990234,61.13199996948242,1766479934,174895857,X6-tool2,1.0489366354541294,4.405272164079383,43.320132510817736,-0.05278903460105702,0.0642184921159274,-0.24845789778030783,0.06371816247701645
2025-12-23 16:52:14.305179,1766479934,297353204,1,150222,-37,1766479934,294022619,2,153391,110,1766479934,290687513,3,144921,35,1766479934,287338827,4,179879,4,1766479934,303992615,5,200830,16,1766479934,300688580,6,145646,-100,-1.0726542472839355,4.893917560577393,44.15639877319336,0.009582197293639183,-0.003741153981536627,-0.046550653874874115,34.77299880981445,40.14899826049805,51.599998474121094,55.62300109863281,44.7869987487793,61.494998931884766,1766479934,274747602,X6-tool2,0.6985209832733772,4.476065484973847,43.378340780762656,-0.04797575893680329,0.05973267544017733,-0.24791684036524483,0.059396106749773026
2025-12-23 16:52:14.340309,1766479934,337353493,1,150084,-37,1766479934,334017947,2,153875,125,1766479934,330684891,3,145107,38,1766479934,327348726,4,179890,0,1766479934,323994059,5,200858,19,1766479934,320686715,6,145475,-87,-1.263380527496338,4.847784042358398,44.13421630859375,-0.0025023608468472958,-0.004244277253746986,-0.0374242402613163,34.689998626708984,40.13800048828125,51.41299819946289,55.138999938964844,44.92399978637695,61.83599853515625,1766479934,274747602,X6-tool2,0.6985209832733772,4.476065484973847,43.378340780762656,-0.04797575893680329,0.05973267544017733,-0.24791684036524483,0.059396106749773026
2025-12-23 16:52:14.376101,1766479934,357354077,1,150018,-30,1766479934,374023015,2,154402,141,1766479934,370687249,3,145300,49,1766479934,367354504,4,179890,0,1766479934,363995167,5,200945,25,1766479934,360688033,6,145157,-80,-1.456823468208313,4.792524814605713,44.108734130859375,0.01283221784979105,-0.015088791027665138,-0.045253653079271317,34.60300064086914,40.13800048828125,51.25899887084961,54.63399887084961,45.073001861572266,62.15399932861328,1766479934,374612998,X6-tool2,0.14323150387321304,4.473764901253597,43.31486227428789,-0.0378274251892473,0.05827937590824478,-0.24810175663306466,0.06344286352396011
2025-12-23 16:52:14.411195,1766479934,397354455,1,149881,-42,1766479934,394023550,2,154655,129,1766479934,410674317,3,145497,44,1766479934,407348322,4,179874,-7,1766479934,403986555,5,200989,14,1766479934,400688831,6,144844,-72,-1.558302879333496,4.760299205780029,44.096675872802734,-0.0012263316893950105,-0.02950267866253853,-0.035352252423763275,34.58100128173828,40.14899826049805,51.14899826049805,54.369998931884766,45.12799835205078,62.319000244140625,1766479934,374612998,X6-tool2,0.14323150387321304,4.473764901253597,43.31486227428789,-0.0378274251892473,0.05827937590824478,-0.24810175663306466,0.06344286352396011
2025-12-23 16:52:14.446415,1766479934,437358654,1,149744,-31,1766479934,434003447,2,155105,108,1766479934,430660311,3,145624,69,1766479934,427343876,4,179863,0,1766479934,444021955,5,201028,4,1766479934,440691809,6,144509,-82,-1.7457382678985596,4.702715873718262,44.0731201171875,-0.0023904498666524887,-0.0267025176435709,-0.04304732754826546,34.5369987487793,40.165000915527344,50.95199966430664,53.887001037597656,45.28099822998047,62.62699890136719,1766479934,374612998,X6-tool2,0.14323150387321304,4.473764901253597,43.31486227428789,-0.0378274251892473,0.05827937590824478,-0.24810175663306466,0.06344286352396011
2025-12-23 16:52:14.482178,1766479934,477342471,1,149606,-32,1766479934,474059398,2,155583,115,1766479934,470680820,3,145854,62,1766479934,467337674,4,179808,-20,1766479934,463988718,5,201033,0,1766479934,480667227,6,144261,-64,-1.9236923456192017,4.638432502746582,44.05754470825195,-0.003842604113742709,-0.014714451506733894,-0.03011626936495304,34.51499938964844,40.220001220703125,50.71500015258789,53.43600082397461,45.42399978637695,62.92300033569336,1766479934,474702662,X6-tool2,-0.16516627692922983,4.392925874632609,43.22192755347166,-0.029598408474028188,0.05510631099853059,-0.24819192263911202,0.07180372625589371
2025-12-23 16:52:14.517427,1766479934,497314154,1,149551,-26,1766479934,514055706,2,156099,125,1766479934,510663908,3,146096,66,1766479934,507334042,4,179703,-18,1766479934,503980606,5,201028,0,1766479934,500650790,6,144108,-79,-2.118255138397217,4.548081398010254,44.04144287109375,-0.0034366725012660027,-0.04982371628284454,-0.011881711892783642,34.52000045776367,40.32500076293945,50.48500061035156,52.91999816894531,45.540000915527344,63.202999114990234,1766479934,474702662,X6-tool2,-0.16516627692922983,4.392925874632609,43.22192755347166,-0.029598408474028188,0.05510631099853059,-0.24819192263911202,0.07180372625589371
2025-12-23 16:52:14.552928,1766479934,537330413,1,149420,-35,1766479934,534051740,2,156357,129,1766479934,550649636,3,146404,84,1766479934,547348942,4,179643,-21,1766479934,544005425,5,201022,0,1766479934,540669739,6,143871,-54,-2.302246332168579,4.4678239822387695,44.013763427734375,-0.013052421621978283,-0.052026841789484024,-0.017840096727013588,34.5260009765625,40.3849983215332,50.19900131225586,52.415000915527344,45.67100143432617,63.439998626708984,1766479934,474702662,X6-tool2,-0.16516627692922983,4.392925874632609,43.22192755347166,-0.029598408474028188,0.05510631099853059,-0.24819192263911202,0.07180372625589371
2025-12-23 16:52:14.587953,1766479934,577329062,1,149282,-32,1766479934,574053978,2,156863,129,1766479934,570678431,3,146585,95,1766479934,587354610,4,179517,-24,1766479934,583983663,5,201006,0,1766479934,580696719,6,143657,-48,-2.3913276195526123,4.414499282836914,44.00716781616211,0.009940130636096,-0.04843882471323013,-0.005966886878013611,34.53099822998047,40.46200180053711,50.04499816894531,52.16699981689453,45.74300003051758,63.54399871826172,1766479934,574575858,X6-tool2,-0.5826271034279865,4.29035080951237,43.1676199203193,-0.02078817871025156,0.054853439287367745,-0.24858554294080565,0.060702960938215256
2025-12-23 16:52:14.622960,1766479934,617315310,1,149167,-21,1766479934,614009845,2,157374,119,1766479934,610649198,3,146992,108,1766479934,607339673,4,179451,-32,1766479934,603989447,5,200995,-9,1766479934,620669856,6,143481,-43,-2.574171781539917,4.3145318031311035,43.983192443847656,0.011191176250576973,-0.03046700544655323,0.018094725906848907,34.553001403808594,40.57699966430664,49.650001525878906,51.6510009765625,45.86899948120117,63.74700164794922,1766479934,574575858,X6-tool2,-0.5826271034279865,4.29035080951237,43.1676199203193,-0.02078817871025156,0.054853439287367745,-0.24858554294080565,0.060702960938215256
2025-12-23 16:52:14.658151,1766479934,657342139,1,149057,-44,1766479934,653975632,2,157830,117,1766479934,650670448,3,147365,82,1766479934,647321321,4,179264,-34,1766479934,643978565,5,200945,-10,1766479934,640650089,6,143405,-35,-2.74137544631958,4.197177410125732,43.97095489501953,0.022830210626125336,-0.02322571352124214,0.06465501338243484,34.60300064086914,40.763999938964844,49.237998962402344,51.167999267578125,45.96799850463867,63.90599822998047,1766479934,574575858,X6-tool2,-0.5826271034279865,4.29035080951237,43.1676199203193,-0.02078817871025156,0.054853439287367745,-0.24858554294080565,0.060702960938215256
2025-12-23 16:52:14.693167,1766479934,677318922,1,148969,-42,1766479934,674037699,2,158055,111,1766479934,690683716,3,147722,90,1766479934,687343730,4,179077,-56,1766479934,683986914,5,200819,-43,1766479934,680662349,6,143262,-35,-2.8181002140045166,4.1443891525268555,43.96225357055664,0.02890600636601448,-0.024067120626568794,0.057792190462350845,34.64099884033203,40.840999603271484,49.08399963378906,50.94200134277344,46.034000396728516,63.97200012207031,1766479934,674936093,X6-tool2,-1.0483495555727644,4.143637575729303,43.05394749175611,-0.012012270452742571,0.05584930710627589,-0.24971723394152764,0.05872344970703125
2025-12-23 16:52:14.728789,1766479934,717330931,1,148810,-37,1766479934,714015156,2,158566,121,1766479934,710672080,3,147898,93,1766479934,727341528,4,178863,-53,1766479934,723984212,5,200731,-19,1766479934,720683978,6,143152,-24,-2.9778811931610107,4.024019718170166,43.950801849365234,0.03176150098443031,-0.012533534318208694,0.03229755163192749,34.766998291015625,41.04399871826172,48.72700119018555,50.474998474121094,46.19900131225586,64.11000061035156,1766479934,674936093,X6-tool2,-1.0483495555727644,4.143637575729303,43.05394749175611,-0.012012270452742571,0.05584930710627589,-0.24971723394152764,0.05872344970703125
2025-12-23 16:52:14.763841,1766479934,757327909,1,148689,-21,1766479934,754011255,2,159109,135,1766479934,750669598,3,148354,120,1766479934,747318122,4,178731,-71,1766479934,743999607,5,200654,-38,1766479934,760677555,6,143069,-17,-3.152843713760376,3.874563217163086,43.934288024902344,0.06191357225179672,-0.02916138619184494,0.016460087150335312,34.89400100708008,41.297000885009766,48.34199905395508,49.93199920654297,46.35300064086914,64.20899963378906,1766479934,674936093,X6-tool2,-1.0483495555727644,4.143637575729303,43.05394749175611,-0.012012270452742571,0.05584930710627589,-0.24971723394152764,0.05872344970703125
2025-12-23 16:52:14.799472,1766479934,797346208,1,148579,-28,1766479934,794010212,2,159587,120,1766479934,790667686,3,148766,96,1766479934,787344281,4,178495,-65,1766479934,783980605,5,200555,-21,1766479934,780678800,6,143042,-11,-3.316274881362915,3.7290380001068115,43.912044525146484,0.08315054327249527,-0.045851390808820724,0.041312459856271744,34.99300003051758,41.53300094604492,47.89699935913086,49.40399932861328,46.45100021362305,64.26899719238281,1766479934,775165752,X6-tool2,-1.461721499595531,3.946921163034514,42.90665834055389,-0.0027597622329523465,0.05726916811148251,-0.2506055010125357,0.05605475232005119
2025-12-23 16:52:14.834991,1766479934,817312062,1,148513,-36,1766479934,834023271,2,160021,117,1766479934,830666875,3,149211,111,1766479934,827343789,4,178270,-67,1766479934,823978782,5,200446,-28,1766479934,820676578,6,143009,0,-3.383641004562378,3.6669440269470215,43.90304946899414,0.08844887465238571,-0.03660406917333603,0.04296809807419777,35.04800033569336,41.637001037597656,47.68299865722656,49.185001373291016,46.512001037597656,64.29100036621094,1766479934,775165752,X6-tool2,-1.461721499595531,3.946921163034514,42.90665834055389,-0.0027597622329523465,0.05726916811148251,-0.2506055010125357,0.05605475232005119
2025-12-23 16:52:14.870439,1766479934,857312189,1,148381,-32,1766479934,853994944,2,160258,115,1766479934,850655869,3,149425,102,1766479934,867321817,4,178066,-44,1766479934,863977841,5,200286,-42,1766479934,860677756,6,142993,-5,-3.5132768154144287,3.5370287895202637,43.88606262207031,0.09396237134933472,-0.016009919345378876,0.03931992128491402,35.17900085449219,41.862998962402344,47.237998962402344,48.750999450683594,46.63800048828125,64.31300354003906,1766479934,775165752,X6-tool2,-1.461721499595531,3.946921163034514,42.90665834055389,-0.0027597622329523465,0.05726916811148251,-0.2506055010125357,0.05605475232005119
2025-12-23 16:52:14.906024,1766479934,897332339,1,148266,-23,1766479934,893984062,2,160735,120,1766479934,890668697,3,149930,124,1766479934,887316311,4,177968,-51,1766479934,903996340,5,200149,-33,1766479934,900654054,6,142993,0,-3.6502974033355713,3.4067771434783936,43.856571197509766,0.07645164430141449,0.0011637656716629863,0.012172472663223743,35.327999114990234,42.060001373291016,46.76599884033203,48.27799987792969,46.77000045776367,64.31800079345703,1766479934,874565440,X6-tool2,-1.7549818995925976,3.8263813645146385,42.82030578203516,0.006520141257815515,0.057977900747405414,-0.25118624648147414,0.056471507996320724
2025-12-23 16:52:14.941476,1766479934,937354908,1,148123,-36,1766479934,934029302,2,161219,122,1766479934,930691057,3,150425,130,1766479934,927342760,4,177682,-83,1766479934,923995834,5,200083,-33,1766479934,940688304,6,142993,0,-3.7917823791503906,3.2508704662323,43.83744430541992,0.09913741797208786,0.011875797994434834,0.03717782348394394,35.46500015258789,42.34600067138672,46.255001068115234,47.78900146484375,46.89099884033203,64.31800079345703,1766479934,874565440,X6-tool2,-1.7549818995925976,3.8263813645146385,42.82030578203516,0.006520141257815515,0.057977900747405414,-0.25118624648147414,0.056471507996320724
2025-12-23 16:52:14.976838,1766479934,957354282,1,148063,-30,1766479934,973994479,2,161708,134,1766479934,970663164,3,150870,113,1766479934,967352989,4,177385,-81,1766479934,963993422,5,199924,-52,1766479934,960687788,6,143004,5,-3.8599982261657715,3.176074743270874,43.827335357666016,0.11964011937379837,0.02006765455007553,0.03953595459461212,35.53099822998047,42.483001708984375,46.02399826049805,47.553001403808594,46.96799850463867,64.31800079345703,1766479934,975104792,X6-tool2,-2.0440984885838085,3.6236302408276178,42.72752956231227,0.013142840310607485,0.05734152960229989,-0.25060607224620896,0.05360667034983635
2025-12-23 16:52:15.013265,1766479934,997340380,1,147931,-32,1766479934,994024114,2,161971,109,1766479935,10682453,3,151397,139,1766479935,7332617,4,177028,-90,1766479935,3993231,5,199720,-47,1766479935,667775,6,143020,9,-3.9986460208892822,3.004014253616333,43.81394577026367,0.1361905336380005,-0.00730423629283905,0.0396307036280632,35.729000091552734,42.83000183105469,45.57899856567383,47.06399917602539,47.099998474121094,64.302001953125,1766479934,975104792,X6-tool2,-2.0440984885838085,3.6236302408276178,42.72752956231227,0.013142840310607485,0.05734152960229989,-0.25060607224620896,0.05360667034983635
2025-12-23 16:52:15.049131,1766479935,37327798,1,147816,-21,1766479935,34001362,2,162416,99,1766479935,30683167,3,151677,144,1766479935,47332145,4,176644,-81,1766479935,44016880,5,199479,-73,1766479935,40666644,6,143069,12,-4.134949207305908,2.826359510421753,43.8009147644043,0.13886842131614685,-0.017772426828742027,0.06581312417984009,35.93199920654297,43.198001861572266,45.051998138427734,46.57500076293945,47.22100067138672,64.2750015258789,1766479934,975104792,X6-tool2,-2.0440984885838085,3.6236302408276178,42.72752956231227,0.013142840310607485,0.05734152960229989,-0.25060607224620896,0.05360667034983635
2025-12-23 16:52:15.085111,1766479935,77352407,1,147717,-25,1766479935,73997321,2,162817,103,1766479935,70681335,3,152221,137,1766479935,67328019,4,176484,-76,1766479935,83991797,5,199171,-48,1766479935,80692823,6,143168,18,-4.233510494232178,2.6625936031341553,43.79010772705078,-0.013303475454449654,-0.023704316467046738,-0.0037259701639413834,36.29399871826172,43.54399871826172,44.492000579833984,46.16899871826172,47.32500076293945,64.18099975585938,1766479935,74909155,X6-tool2,-2.4346296229623974,3.4420871697663933,42.57429022401831,0.021060814231482518,0.056717198447204686,-0.24909221652760413,0.06057993695139885
