timestamp,out_1_header.stamp.sec,out_1_header.stamp.nanosec,out_1_header.frame_id,out_1_val,out_1_speed,out_2_header.stamp.sec,out_2_header.stamp.nanosec,out_2_header.frame_id,out_2_val,out_2_speed,out_3_header.stamp.sec,out_3_header.stamp.nanosec,out_3_header.frame_id,out_3_val,out_3_speed,out_4_header.stamp.sec,out_4_header.stamp.nanosec,out_4_header.frame_id,out_4_val,out_4_speed,out_5_header.stamp.sec,out_5_header.stamp.nanosec,out_5_header.frame_id,out_5_val,out_5_speed,out_6_header.stamp.sec,out_6_header.stamp.nanosec,out_6_header.frame_id,out_6_val,out_6_speed,aimooe_coord_header.stamp.sec,aimooe_coord_header.stamp.nanosec,aimooe_coord_header.frame_id,aimooe_coord_position.x,aimooe_coord_position.y,aimooe_coord_position.z,aimooe_coord_orientation.x,aimooe_coord_orientation.y,aimooe_coord_orientation.z,aimooe_coord_mean_error
2026-01-23 10:44:25.032358,1769136265,21794252,1,200698,0,1769136265,25133339,2,216431,0,1769136265,28457185,3,197633,0,1769136265,31783641,4,205208,0,1769136265,15125469,5,184570,0,1769136265,18529628,6,194002,0,1769136264,940114007,X6-tool2,0.6224255819847101,-0.5680000476853071,40.80849310795089,-0.019658729075140307,0.014954661797104446,-0.09132464241629729,0.02455361746251583
2026-01-23 10:44:25.067870,1769136265,61786920,1,200698,0,1769136265,65120336,2,216431,0,1769136265,48459704,3,197633,0,1769136265,51792421,4,205208,0,1769136265,55128338,5,184570,0,1769136265,58459584,6,194002,0,1769136265,40394822,X6-tool2,0.6298464854684414,-0.5708007482407335,40.79531274019614,-0.020120515741808353,0.01473472098782691,-0.09127442068045315,0.025827407836914062
2026-01-23 10:44:25.103465,1769136265,101806498,1,200698,0,1769136265,85141016,2,216431,0,1769136265,88453512,3,197633,0,1769136265,91789639,4,205208,0,1769136265,95116005,5,184570,0,1769136265,98442121,6,194002,0,1769136265,40394822,X6-tool2,0.6298464854684414,-0.5708007482407335,40.79531274019614,-0.020120515741808353,0.01473472098782691,-0.09127442068045315,0.025827407836914062
2026-01-23 10:44:25.138555,1769136265,121784376,1,200698,0,1769136265,125137214,2,216431,0,1769136265,128450689,3,197633,0,1769136265,131801246,4,205208,0,1769136265,135115322,5,184570,0,1769136265,118434799,6,194002,0,1769136265,40394822,X6-tool2,0.6298464854684414,-0.5708007482407335,40.79531274019614,-0.020120515741808353,0.01473472098782691,-0.09127442068045315,0.025827407836914062
2026-01-23 10:44:25.173872,1769136265,161784835,1,200698,0,1769136265,165122811,2,216431,0,1769136265,168470219,3,197633,0,1769136265,171813355,4,205208,0,1769136265,155118062,5,184570,0,1769136265,158437438,6,194002,0,1769136265,140377156,X6-tool2,0.576977883434388,-0.5831565742710291,40.752447506330334,-0.019705970976238465,0.014480301229211399,-0.09133012710237257,0.02439117431640625
2026-01-23 10:44:25.208670,1769136265,201795663,1,200698,0,1769136265,205127479,2,216431,0,1769136265,188475338,3,197633,0,1769136265,191799054,4,205208,0,1769136265,195138190,5,184570,0,1769136265,198442086,6,194002,0,1769136265,140377156,X6-tool2,0.576977883434388,-0.5831565742710291,40.752447506330334,-0.019705970976238465,0.014480301229211399,-0.09133012710237257,0.02439117431640625
2026-01-23 10:44:25.244308,1769136265,241804061,1,200698,0,1769136265,225120738,2,216431,0,1769136265,228455484,3,197633,0,1769136265,231797151,4,205208,0,1769136265,235148448,5,184570,0,1769136265,238457834,6,194002,0,1769136265,240583228,X6-tool2,0.5925261487184241,-0.5792771472382465,40.762016725240095,-0.019066667408173376,0.014348911756514036,-0.09112909576629895,0.02519734762609005
2026-01-23 10:44:25.280154,1769136265,261774829,1,200698,0,1769136265,265123596,2,216431,0,1769136265,268470493,3,197633,0,1769136265,271821130,4,205208,0,1769136265,275139676,5,184570,0,1769136265,278435331,6,194002,0,1769136265,240583228,X6-tool2,0.5925261487184241,-0.5792771472382465,40.762016725240095,-0.019066667408173376,0.014348911756514036,-0.09112909576629895,0.02519734762609005
2026-01-23 10:44:25.315110,1769136265,301772107,1,200698,0,1769136265,305126504,2,216431,0,1769136265,308465461,3,197633,0,1769136265,311797927,4,205208,0,1769136265,295131895,5,184570,0,1769136265,298441170,6,194002,0,1769136265,240583228,X6-tool2,0.5925261487184241,-0.5792771472382465,40.762016725240095,-0.019066667408173376,0.014348911756514036,-0.09112909576629895,0.02519734762609005
2026-01-23 10:44:25.350254,1769136265,341774155,1,200698,0,1769136265,345150643,2,216431,0,1769136265,348464238,3,197633,0,1769136265,331796636,4,205208,0,1769136265,335138453,5,184570,0,1769136265,338442528,6,194002,0,1769136265,340232851,X6-tool2,0.5878919548785592,-0.6254133472744352,40.766111484080135,-0.019448578979190213,0.01445434224524063,-0.09127069806966688,0.024153074249625206
2026-01-23 10:44:25.385285,1769136265,381787894,1,200698,0,1769136265,365136162,2,216431,0,1769136265,368460378,3,197633,0,1769136265,371805025,4,205208,0,1769136265,375133511,5,184570,0,1769136265,378458677,6,194002,0,1769136265,340232851,X6-tool2,0.5878919548785592,-0.6254133472744352,40.766111484080135,-0.019448578979190213,0.01445434224524063,-0.09127069806966688,0.024153074249625206
2026-01-23 10:44:25.420632,1769136265,408466756,1,200770,44,1769136265,411793442,2,216568,58,1769136265,415128668,3,197963,135,1769136265,418447584,4,205664,161,1769136265,401791213,5,184697,120,1769136265,405155870,6,194260,134,1769136265,340232851,X6-tool2,0.5878919548785592,-0.6254133472744352,40.766111484080135,-0.019448578979190213,0.01445434224524063,-0.09127069806966688,0.024153074249625206
2026-01-23 10:44:25.455766,1769136265,448464493,1,200956,53,1769136265,451792430,2,216810,64,1769136265,455126746,3,198506,138,1769136265,438455323,4,205988,170,1769136265,441778080,5,185076,105,1769136265,445155578,6,194903,143,1769136265,440587298,X6-tool2,0.5816403780563205,-0.5699150163674782,40.75921447471993,-0.019898009484025935,0.01440171199284991,-0.09135305711538258,0.026271501556038857
2026-01-23 10:44:25.490855,1769136265,488462682,1,201154,42,1769136265,471844381,2,216936,68,1769136265,475130166,3,198770,135,1769136265,478440181,4,206669,148,1769136265,481794649,5,185449,93,1769136265,485125265,6,195524,144,1769136265,440587298,X6-tool2,0.5816403780563205,-0.5699150163674782,40.75921447471993,-0.019898009484025935,0.01440171199284991,-0.09135305711538258,0.026271501556038857
2026-01-23 10:44:25.526310,1769136265,508454940,1,201237,41,1769136265,511789207,2,217222,83,1769136265,515118973,3,199319,129,1769136265,518456420,4,207257,140,1769136265,521784996,5,185801,87,1769136265,525124483,6,196177,167,1769136265,440587298,X6-tool2,0.5816403780563205,-0.5699150163674782,40.75921447471993,-0.019898009484025935,0.01440171199284991,-0.09135305711538258,0.026271501556038857
2026-01-23 10:44:25.561036,1769136265,548455348,1,201396,42,1769136265,551797065,2,217496,57,1769136265,555174703,3,199841,133,1769136265,558460037,4,207905,164,1769136265,541786895,5,185982,99,1769136265,545161053,6,196512,170,1769136265,540391596,X6-tool2,0.6233010365924021,-0.5976128974821099,40.83360688002216,-0.019925448710134717,0.014176560162425633,-0.09188880327845822,0.021993637084960938
2026-01-23 10:44:25.596407,1769136265,588461136,1,201577,43,1769136265,591789633,2,217776,75,1769136265,595121189,3,200363,132,1769136265,578439636,4,208229,148,1769136265,581793773,5,186361,94,1769136265,585126470,6,197188,162,1769136265,540391596,X6-tool2,0.6233010365924021,-0.5976128974821099,40.83360688002216,-0.019925448710134717,0.014176560162425633,-0.09188880327845822,0.021993637084960938
2026-01-23 10:44:25.631349,1769136265,628498455,1,201786,41,1769136265,611789952,2,217919,67,1769136265,615121408,3,200649,162,1769136265,618453724,4,208883,174,1769136265,621787721,5,186746,98,1769136265,625121817,6,197820,158,1769136265,540391596,X6-tool2,0.6233010365924021,-0.5976128974821099,40.83360688002216,-0.019925448710134717,0.014176560162425633,-0.09188880327845822,0.021993637084960938
2026-01-23 10:44:25.667055,1769136265,648508815,1,201890,56,1769136265,651820960,2,218183,63,1769136265,655176388,3,201242,127,1769136265,658474113,4,209553,167,1769136265,661843050,5,187141,97,1769136265,665124095,6,198484,171,1769136265,640131832,X6-tool2,0.3989469380725068,-0.2752251065111721,41.09710919605285,-0.024026111356571605,0.009111396095347701,-0.09173502246401047,0.022317251190543175
2026-01-23 10:44:25.702002,1769136265,688460251,1,202088,61,1769136265,691793688,2,218507,59,1769136265,695119154,3,201780,124,1769136265,698433880,4,210157,159,1769136265,681796948,5,187339,90,1769136265,685130065,6,198814,181,1769136265,640131832,X6-tool2,0.3989469380725068,-0.2752251065111721,41.09710919605285,-0.024026111356571605,0.009111396095347701,-0.09173502246401047,0.022317251190543175
2026-01-23 10:44:25.737206,1769136265,728455599,1,202313,67,1769136265,731787265,2,218798,77,1769136265,735118562,3,202330,135,1769136265,718455729,4,210471,164,1769136265,721788456,5,187767,100,1769136265,725122482,6,199501,167,1769136265,640131832,X6-tool2,0.3989469380725068,-0.2752251065111721,41.09710919605285,-0.024026111356571605,0.009111396095347701,-0.09173502246401047,0.022317251190543175
2026-01-23 10:44:25.772423,1769136265,768490328,1,202549,68,1769136265,771809504,2,219045,59,1769136265,755117450,3,202604,137,1769136265,758437216,4,211152,144,1769136265,761787863,5,188174,124,1769136265,765126940,6,200165,156,1769136265,740442928,X6-tool2,0.16444692188682522,0.07750663710541295,41.48231490460475,-0.026748098694319475,0.0001445466936759107,-0.09033504528154918,0.024036725983023643
2026-01-23 10:44:25.807544,1769136265,788451866,1,202676,67,1769136265,791789912,2,219161,59,1769136265,795118359,3,203176,140,1769136265,798454925,4,211811,170,1769136265,801788022,5,188542,96,1769136265,805123188,6,200814,170,1769136265,740442928,X6-tool2,0.16444692188682522,0.07750663710541295,41.48231490460475,-0.026748098694319475,0.0001445466936759107,-0.09033504528154918,0.024036725983023643
2026-01-23 10:44:25.842964,1769136265,828453813,1,202906,51,1769136265,831786490,2,219402,47,1769136265,835120557,3,203769,163,1769136265,838453273,4,212454,155,1769136265,841784739,5,188904,85,1769136265,825123127,6,201154,155,1769136265,840148422,X6-tool2,0.08515863782347989,0.5827583374222265,41.84274734072801,-0.02640844928007664,-0.0029364803512923463,-0.09200018291294795,0.026485443115234375
2026-01-23 10:44:25.877735,1769136265,868466232,1,203170,86,1769136265,871827680,2,219611,55,1769136265,875130435,3,204357,139,1769136265,858457182,4,212778,141,1769136265,861788628,5,189102,98,1769136265,865127405,6,201846,169,1769136265,840148422,X6-tool2,0.08515863782347989,0.5827583374222265,41.84274734072801,-0.02640844928007664,-0.0029364803512923463,-0.09200018291294795,0.026485443115234375
2026-01-23 10:44:25.913121,1769136265,908452709,1,203412,61,1769136265,911788076,2,219869,70,1769136265,895119914,3,204631,137,1769136265,898458100,4,213426,167,1769136265,901783776,5,189525,101,1769136265,905124243,6,202527,152,1769136265,840148422,X6-tool2,0.08515863782347989,0.5827583374222265,41.84274734072801,-0.02640844928007664,-0.0029364803512923463,-0.09200018291294795,0.026485443115234375
2026-01-23 10:44:25.947875,1769136265,928452318,1,203533,64,1769136265,931787125,2,220001,64,1769136265,935119471,3,205175,137,1769136265,938456078,4,214129,133,1769136265,941788384,5,189948,90,1769136265,945158962,6,203181,162,1769136265,940369625,X6-tool2,0.030678588060285696,0.8979759619905616,42.24255785861163,-0.02649974038975022,-0.0037137347215927823,-0.09626342870101279,0.024126052856445312
2026-01-23 10:44:25.983476,1769136265,968486937,1,203769,54,1769136265,971806803,2,220287,75,1769136265,975137590,3,205779,151,1769136265,978440736,4,214755,160,1769136265,981792283,5,190349,91,1769136265,965125970,6,203511,174,1769136265,940369625,X6-tool2,0.030678588060285696,0.8979759619905616,42.24255785861163,-0.02649974038975022,-0.0037137347215927823,-0.09626342870101279,0.024126052856445312
2026-01-23 10:44:26.018569,1769136266,8453264,1,204000,62,1769136266,11790511,2,220573,80,1769136266,15120637,3,206367,144,1769136265,998480746,4,215079,175,1769136266,1790262,5,190552,109,1769136266,5127178,6,204203,162,1769136265,940369625,X6-tool2,0.030678588060285696,0.8979759619905616,42.24255785861163,-0.02649974038975022,-0.0037137347215927823,-0.09626342870101279,0.024126052856445312
2026-01-23 10:44:26.053819,1769136266,48455292,1,204203,44,1769136266,51793699,2,220858,68,1769136266,35116766,3,206664,164,1769136266,38456773,4,215744,151,1769136266,41765878,5,190970,102,1769136266,45158707,6,204901,174,1769136266,40437502,X6-tool2,-0.00072422835820787,1.2610072616905732,42.57871771956819,-0.027004335084175428,-0.0047114569940380005,-0.10054326156034109,0.02307160757482052
2026-01-23 10:44:26.089141,1769136266,88454930,1,204412,62,1769136266,71832439,2,220990,66,1769136266,75142635,3,207268,151,1769136266,78462671,4,216409,168,1769136266,81790447,5,191365,97,1769136266,85127754,6,205560,155,1769136266,40437502,X6-tool2,-0.00072422835820787,1.2610072616905732,42.57871771956819,-0.027004335084175428,-0.0047114569940380005,-0.10054326156034109,0.02307160757482052
2026-01-23 10:44:26.124123,1769136266,108453319,1,204521,54,1769136266,111790155,2,221248,76,1769136266,115121182,3,207812,136,1769136266,118456528,4,217101,151,1769136266,121783014,5,191744,99,1769136266,105124272,6,205889,175,1769136266,40437502,X6-tool2,-0.00072422835820787,1.2610072616905732,42.57871771956819,-0.027004335084175428,-0.0047114569940380005,-0.10054326156034109,0.02307160757482052
2026-01-23 10:44:26.159261,1769136266,148454286,1,204769,60,1769136266,151773522,2,221517,55,1769136266,155119229,3,208416,155,1769136266,158457716,4,217722,167,1769136266,141784773,5,191953,109,1769136266,145158161,6,206581,169,1769136266,140149206,X6-tool2,0.0663429825658432,1.683819455120595,43.00136387460508,-0.027112213863391254,-0.0055990251675284534,-0.10636649953174837,0.02568086050450802
2026-01-23 10:44:26.194146,1769136266,188456244,1,205032,71,1769136266,191789210,2,221765,72,1769136266,175138339,3,208729,166,1769136266,178458355,4,218057,181,1769136266,181789411,5,192404,113,1769136266,185125548,6,207274,168,1769136266,140149206,X6-tool2,0.0663429825658432,1.683819455120595,43.00136387460508,-0.027112213863391254,-0.0055990251675284534,-0.10636649953174837,0.02568086050450802
2026-01-23 10:44:26.229001,1769136266,228451051,1,205318,72,1769136266,211789669,2,221891,37,1769136266,215116676,3,209328,147,1769136266,218455362,4,218738,155,1769136266,221784769,5,192832,102,1769136266,225122015,6,207949,170,1769136266,140149206,X6-tool2,0.0663429825658432,1.683819455120595,43.00136387460508,-0.027112213863391254,-0.0055990251675284534,-0.10636649953174837,0.02568086050450802
2026-01-23 10:44:26.264223,1769136266,248451340,1,205444,68,1769136266,251794307,2,222105,61,1769136266,255116113,3,209910,125,1769136266,258457210,4,219413,175,1769136266,261783266,5,193233,104,1769136266,245159195,6,208279,165,1769136266,240227493,X6-tool2,0.008545758434482334,2.0840631890672148,43.32045271568759,-0.026961071679512432,-0.006548237260277451,-0.11145611169812097,0.027547836303710938
2026-01-23 10:44:26.299585,1769136266,288456118,1,205714,65,1769136266,291791915,2,222363,59,1769136266,295122691,3,210493,153,1769136266,298457318,4,220078,155,1769136266,281791335,5,193425,109,1769136266,285125592,6,208960,172,1769136266,240227493,X6-tool2,0.008545758434482334,2.0840631890672148,43.32045271568759,-0.026961071679512432,-0.006548237260277451,-0.11145611169812097,0.027547836303710938
2026-01-23 10:44:26.334756,1769136266,328455726,1,205944,58,1769136266,331788352,2,222589,57,1769136266,315117360,3,210789,147,1769136266,318433446,4,220391,154,1769136266,321790243,5,193837,90,1769136266,325122329,6,209669,186,1769136266,240227493,X6-tool2,0.008545758434482334,2.0840631890672148,43.32045271568759,-0.026961071679512432,-0.006548237260277451,-0.11145611169812097,0.027547836303710938
2026-01-23 10:44:26.370411,1769136266,368491176,1,206235,33,1769136266,351795301,2,222715,72,1769136266,355116877,3,211415,157,1769136266,358458454,4,221056,175,1769136266,361783981,5,194244,99,1769136266,365124648,6,210344,166,1769136266,340401023,X6-tool2,-0.05649869140970275,2.463113594686096,43.650883644556586,-0.027453815362116184,-0.00763014599576385,-0.11625994361852691,0.02091471292078495
2026-01-23 10:44:26.405370,1769136266,388455163,1,206345,64,1769136266,391791640,2,222863,8,1769136266,395114746,3,212020,134,1769136266,398457503,4,221748,157,1769136266,401787089,5,194650,102,1769136266,385128787,6,210668,157,1769136266,340401023,X6-tool2,-0.05649869140970275,2.463113594686096,43.650883644556586,-0.027453815362116184,-0.00763014599576385,-0.11625994361852691,0.02091471292078495
2026-01-23 10:44:26.440539,1769136266,428454171,1,206598,61,1769136266,431790417,2,222869,3,1769136266,435117893,3,212591,155,1769136266,438454990,4,222056,13,1769136266,421789358,5,194865,107,1769136266,425121754,6,211168,35,1769136266,340401023,X6-tool2,-0.05649869140970275,2.463113594686096,43.650883644556586,-0.027453815362116184,-0.00763014599576385,-0.11625994361852691,0.02091471292078495
2026-01-23 10:44:26.476448,1769136266,468509110,1,206812,54,1769136266,471801305,2,222874,0,1769136266,475137572,3,212855,11,1769136266,458457639,4,222067,0,1769136266,461784435,5,195090,5,1769136266,465123382,6,211212,9,1769136266,440139079,X6-tool2,-0.07668881036651014,2.8261882603060977,43.920087148654545,-0.028280228102840737,-0.010631476831321766,-0.1211992503637998,0.021702131256461143
2026-01-23 10:44:26.511778,1769136266,508452936,1,207048,55,1769136266,491792614,2,222874,0,1769136266,495118710,3,212871,0,1769136266,498461287,4,222072,0,1769136266,501784603,5,195095,0,1769136266,505123430,6,211212,0,1769136266,440139079,X6-tool2,-0.07668881036651014,2.8261882603060977,43.920087148654545,-0.028280228102840737,-0.010631476831321766,-0.1211992503637998,0.021702131256461143
2026-01-23 10:44:26.547306,1769136266,528455555,1,207147,30,1769136266,531789711,2,222869,0,1769136266,535117688,3,212871,0,1769136266,538454674,4,222072,0,1769136266,541785811,5,195101,0,1769136266,545156369,6,211212,0,1769136266,540421103,X6-tool2,-0.06367238666823202,2.9152477118562627,44.02302083586172,-0.02800522417751386,-0.01221910345962033,-0.12352471768888354,0.022347450256347656
2026-01-23 10:44:26.582485,1769136266,568514625,1,207186,0,1769136266,571836531,2,222869,0,1769136266,575147546,3,212871,0,1769136266,578442322,4,222072,0,1769136266,581795169,5,195095,0,1769136266,565125296,6,211212,0,1769136266,540421103,X6-tool2,-0.06367238666823202,2.9152477118562627,44.02302083586172,-0.02800522417751386,-0.01221910345962033,-0.12352471768888354,0.022347450256347656
2026-01-23 10:44:26.617521,1769136266,608457310,1,207191,0,1769136266,611789507,2,222869,0,1769136266,615109483,3,212877,0,1769136266,598435880,4,222072,0,1769136266,601791408,5,195095,0,1769136266,605128294,6,211212,0,1769136266,540421103,X6-tool2,-0.06367238666823202,2.9152477118562627,44.02302083586172,-0.02800522417751386,-0.01221910345962033,-0.12352471768888354,0.022347450256347656
2026-01-23 10:44:26.652478,1769136266,648452778,1,207191,0,1769136266,651800235,2,222869,0,1769136266,635124212,3,212877,0,1769136266,638451209,4,222072,0,1769136266,641787195,5,195095,-5,1769136266,645156613,6,211212,0,1769136266,640271562,X6-tool2,-0.08327563266177693,2.936480698919951,44.045462067414064,-0.029026033402128528,-0.012594232341311686,-0.12373927035710866,0.020793914794921875
2026-01-23 10:44:26.687401,1769136266,668462827,1,207191,0,1769136266,671829955,2,222869,0,1769136266,675121970,3,212877,0,1769136266,678463167,4,222072,0,1769136266,681791603,5,195095,0,1769136266,685128860,6,211212,0,1769136266,640271562,X6-tool2,-0.08327563266177693,2.936480698919951,44.045462067414064,-0.029026033402128528,-0.012594232341311686,-0.12373927035710866,0.020793914794921875
2026-01-23 10:44:26.722474,1769136266,708454975,1,207191,0,1769136266,711793751,2,222869,0,1769136266,715119437,3,212877,0,1769136266,718453274,4,222072,0,1769136266,721787550,5,195095,0,1769136266,705124358,6,211212,0,1769136266,640271562,X6-tool2,-0.08327563266177693,2.936480698919951,44.045462067414064,-0.029026033402128528,-0.012594232341311686,-0.12373927035710866,0.020793914794921875
2026-01-23 10:44:26.757346,1769136266,748455712,1,207191,0,1769136266,751795649,2,222869,0,1769136266,755113635,3,212877,0,1769136266,738453163,4,222072,0,1769136266,741790149,5,195095,0,1769136266,745156707,6,211212,0,1769136266,740333298,X6-tool2,-0.08535790698756794,3.0032117817062463,44.06935527648675,-0.02838370752717923,-0.012748764739360652,-0.12391060079764485,0.022217432036995888
2026-01-23 10:44:26.793499,1769136266,788459740,1,207191,0,1769136266,791790867,2,222869,0,1769136266,775149325,3,212877,0,1769136266,778439170,4,222072,0,1769136266,781791537,5,195095,0,1769136266,785123994,6,211212,0,1769136266,740333298,X6-tool2,-0.08535790698756794,3.0032117817062463,44.06935527648675,-0.02838370752717923,-0.012748764739360652,-0.12391060079764485,0.022217432036995888
2026-01-23 10:44:26.828580,1769136266,808458639,1,207191,0,1769136266,811788305,2,222869,0,1769136266,815118702,3,212877,0,1769136266,818456368,4,222072,5,1769136266,821786315,5,195095,0,1769136266,825121091,6,211212,0,1769136266,740333298,X6-tool2,-0.08535790698756794,3.0032117817062463,44.06935527648675,-0.02838370752717923,-0.012748764739360652,-0.12391060079764485,0.022217432036995888
2026-01-23 10:44:26.864010,1769136266,848455607,1,207197,2,1769136266,851794533,2,222869,0,1769136266,855121259,3,212877,0,1769136266,858457376,4,222072,0,1769136266,861786952,5,195095,0,1769136266,845142571,6,211212,0,1769136266,840274261,X6-tool2,-0.06590734976149026,3.024302375310927,44.08075699577696,-0.027884743240087436,-0.012976135601307916,-0.12403940646735204,0.022126832976937294
2026-01-23 10:44:26.899060,1769136266,888456395,1,207197,0,1769136266,891792121,2,222869,0,1769136266,895119508,3,212877,0,1769136266,898457954,4,222072,0,1769136266,881793301,5,195095,0,1769136266,885126488,6,211212,0,1769136266,840274261,X6-tool2,-0.06590734976149026,3.024302375310927,44.08075699577696,-0.027884743240087436,-0.012976135601307916,-0.12403940646735204,0.022126832976937294
2026-01-23 10:44:26.934159,1769136266,928451192,1,207197,0,1769136266,931787479,2,222869,0,1769136266,915117596,3,212877,0,1769136266,918455003,4,222072,0,1769136266,921785509,5,195095,0,1769136266,925120456,6,211212,0,1769136266,840274261,X6-tool2,-0.06590734976149026,3.024302375310927,44.08075699577696,-0.027884743240087436,-0.012976135601307916,-0.12403940646735204,0.022126832976937294
2026-01-23 10:44:26.969172,1769136266,968530423,1,207197,0,1769136266,951795968,2,222869,0,1769136266,955113794,3,212877,0,1769136266,958461021,4,222072,0,1769136266,961786427,5,195095,0,1769136266,965127704,6,211212,0,1769136266,940374659,X6-tool2,-0.11012050701679277,2.9959797101959413,44.06755818998602,-0.028372418987409453,-0.012928820841858566,-0.12408076649703928,0.022064844146370888
2026-01-23 10:44:27.004537,1769136266,988460249,1,207197,0,1769136266,991792265,2,222869,0,1769136266,995121872,3,212877,0,1769136266,998453758,4,222072,0,1769136267,1785115,5,195095,0,1769136266,985128023,6,211212,0,1769136266,940374659,X6-tool2,-0.11012050701679277,2.9959797101959413,44.06755818998602,-0.028372418987409453,-0.012928820841858566,-0.12408076649703928,0.022064844146370888
2026-01-23 10:44:27.039993,1769136267,28453996,1,207197,0,1769136267,31788293,2,222869,0,1769136267,35114239,3,212877,0,1769136267,38430554,4,222072,0,1769136267,21785063,5,195095,0,1769136267,25110839,6,211212,0,1769136266,940374659,X6-tool2,-0.11012050701679277,2.9959797101959413,44.06755818998602,-0.028372418987409453,-0.012928820841858566,-0.12408076649703928,0.022064844146370888
2026-01-23 10:44:27.075700,1769136267,68518475,1,207197,0,1769136267,71831181,2,222869,0,1769136267,75149597,3,212877,0,1769136267,58460054,4,222072,0,1769136267,61785510,5,195095,0,1769136267,65123866,6,211212,0,1769136267,40379833,X6-tool2,-0.07556155121731883,2.898656486074777,44.121614128640694,-0.028574929495788323,-0.012212273278998542,-0.12388795377903968,0.02514139749109745
2026-01-23 10:44:27.110791,1769136267,108455071,1,207197,0,1769136267,91815079,2,222869,0,1769136267,95115914,3,212877,0,1769136267,98438061,4,222072,0,1769136267,101789638,5,195095,0,1769136267,105121824,6,211212,0,1769136267,40379833,X6-tool2,-0.07556155121731883,2.898656486074777,44.121614128640694,-0.028574929495788323,-0.012212273278998542,-0.12388795377903968,0.02514139749109745
2026-01-23 10:44:27.145934,1769136267,128457439,1,207197,0,1769136267,131786806,2,222869,0,1769136267,135110042,3,212877,0,1769136267,138452989,4,222072,0,1769136267,141784545,5,195095,0,1769136267,145143183,6,211212,0,1769136267,140226911,X6-tool2,-0.14808455992925984,2.9634089314336993,44.02898344858989,-0.02857362053105943,-0.012954783944982963,-0.12400097447565109,0.023034095764160156
2026-01-23 10:44:27.180948,1769136267,168530780,1,207197,0,1769136267,171830965,2,222869,0,1769136267,175139721,3,212877,0,1769136267,178447026,4,222072,0,1769136267,161787304,5,195095,0,1769136267,165123781,6,211212,0,1769136267,140226911,X6-tool2,-0.14808455992925984,2.9634089314336993,44.02898344858989,-0.02857362053105943,-0.012954783944982963,-0.12400097447565109,0.023034095764160156
2026-01-23 10:44:27.215854,1769136267,208460885,1,207197,0,1769136267,211788951,2,222863,0,1769136267,215100747,3,212877,0,1769136267,198465306,4,222072,0,1769136267,201795132,5,195090,0,1769136267,205124878,6,211212,0,1769136267,140226911,X6-tool2,-0.14808455992925984,2.9634089314336993,44.02898344858989,-0.02857362053105943,-0.012954783944982963,-0.12400097447565109,0.023034095764160156
2026-01-23 10:44:27.250986,1769136267,248458202,1,207197,0,1769136267,231786369,2,222863,0,1769136267,235118586,3,212877,0,1769136267,238451362,4,222072,0,1769136267,241789339,5,195090,0,1769136267,245141876,6,211212,0,1769136267,240241255,X6-tool2,-0.07723738395142646,2.977377171043532,44.08369586034017,-0.028214747581621725,-0.012881663506324642,-0.12414633375441537,0.020725568756461143
2026-01-23 10:44:27.286561,1769136267,268532684,1,207197,-5,1769136267,271836329,2,222863,0,1769136267,275137994,3,212877,0,1769136267,278461920,4,222072,0,1769136267,281794057,5,195090,0,1769136267,285115863,6,211212,0,1769136267,240241255,X6-tool2,-0.07723738395142646,2.977377171043532,44.08369586034017,-0.028214747581621725,-0.012881663506324642,-0.12414633375441537,0.020725568756461143
2026-01-23 10:44:27.321390,1769136267,308456228,1,207197,0,1769136267,311787065,2,222863,0,1769136267,315122461,3,212877,0,1769136267,318455718,4,222072,0,1769136267,301786335,5,195090,0,1769136267,305123152,6,211212,0,1769136267,240241255,X6-tool2,-0.07723738395142646,2.977377171043532,44.08369586034017,-0.028214747581621725,-0.012881663506324642,-0.12414633375441537,0.020725568756461143
2026-01-23 10:44:27.356822,1769136267,348454676,1,207197,0,1769136267,351795253,2,222863,0,1769136267,355116519,3,212877,0,1769136267,338455367,4,222072,0,1769136267,341786673,5,195090,0,1769136267,345144850,6,211212,0,1769136267,340452257,X6-tool2,-0.05418666141823163,2.9346616470884057,44.135896215139695,-0.028955486096162393,-0.012328848826117554,-0.12388380133460332,0.021786371245980263
2026-01-23 10:44:27.391920,1769136267,388438193,1,207197,0,1769136267,371833423,2,222863,0,1769136267,375134248,3,212877,0,1769136267,378463815,4,222072,0,1769136267,381790981,5,195090,0,1769136267,385127367,6,211212,0,1769136267,340452257,X6-tool2,-0.05418666141823163,2.9346616470884057,44.135896215139695,-0.028955486096162393,-0.012328848826117554,-0.12388380133460332,0.021786371245980263
2026-01-23 10:44:27.427512,1769136267,408461842,1,207197,0,1769136267,411789909,2,222863,0,1769136267,415114855,3,212877,0,1769136267,418452971,4,222072,0,1769136267,421789948,5,195090,0,1769136267,425123324,6,211212,0,1769136267,340452257,X6-tool2,-0.05418666141823163,2.9346616470884057,44.135896215139695,-0.028955486096162393,-0.012328848826117554,-0.12388380133460332,0.021786371245980263
2026-01-23 10:44:27.462529,1769136267,448482460,1,207197,0,1769136267,451826677,2,222863,0,1769136267,455107552,3,212877,0,1769136267,458462209,4,222072,0,1769136267,461767315,5,195090,0,1769136267,445120893,6,211212,0,1769136267,449096762,X6-tool2,-0.05740330734666999,2.9340071188654337,44.1422712082719,-0.028321291172854816,-0.012391908070404162,-0.12401051478724208,0.023431459441781044
2026-01-23 10:44:27.497664,1769136267,488465158,1,207197,0,1769136267,491790244,2,222863,0,1769136267,495127761,3,212877,0,1769136267,478499809,4,222072,0,1769136267,481819725,5,195090,0,1769136267,485125221,6,211212,0,1769136267,449096762,X6-tool2,-0.05740330734666999,2.9340071188654337,44.1422712082719,-0.028321291172854816,-0.012391908070404162,-0.12401051478724208,0.023431459441781044
2026-01-23 10:44:27.533151,1769136267,528458845,1,207197,0,1769136267,531785021,2,222863,0,1769136267,515120099,3,212877,0,1769136267,518454925,4,222072,0,1769136267,521791482,5,195090,0,1769136267,525066136,6,211212,0,1769136267,449096762,X6-tool2,-0.05740330734666999,2.9340071188654337,44.1422712082719,-0.028321291172854816,-0.012391908070404162,-0.12401051478724208,0.023431459441781044
2026-01-23 10:44:27.568240,1769136267,548456934,1,207197,0,1769136267,551827392,2,222863,0,1769136267,555123437,3,212877,0,1769136267,558463273,4,222072,0,1769136267,561788099,5,195090,0,1769136267,565126486,6,211212,0,1769136267,548804146,X6-tool2,-0.04214052187990721,2.9489222125721053,44.11024874677342,-0.02836830258536221,-0.013105153179797746,-0.12395173935400174,0.01973978616297245
2026-01-23 10:44:27.603725,1769136267,588467671,1,207197,0,1769136267,591789697,2,222863,0,1769136267,595125654,3,212877,0,1769136267,598455430,4,222072,0,1769136267,601791407,5,195090,0,1769136267,585218118,6,211212,0,1769136267,548804146,X6-tool2,-0.04214052187990721,2.9489222125721053,44.11024874677342,-0.02836830258536221,-0.013105153179797746,-0.12395173935400174,0.01973978616297245
2026-01-23 10:44:27.638973,1769136267,628456879,1,207197,0,1769136267,631876878,2,222863,0,1769136267,635125372,3,212877,0,1769136267,638456618,4,222072,0,1769136267,621795396,5,195090,0,1769136267,625121612,6,211212,0,1769136267,548804146,X6-tool2,-0.04214052187990721,2.9489222125721053,44.11024874677342,-0.02836830258536221,-0.013105153179797746,-0.12395173935400174,0.01973978616297245
2026-01-23 10:44:27.673984,1769136267,668459306,1,207197,0,1769136267,671792013,2,222863,0,1769136267,655189833,3,212877,0,1769136267,658466177,4,222072,0,1769136267,661792624,5,195090,0,1769136267,665124500,6,211212,0,1769136267,648077514,X6-tool2,-0.069042784249539,2.9760401579540914,44.088677019340075,-0.028568912393530595,-0.013247158721307991,-0.12401217339666083,0.02231057547032833
2026-01-23 10:44:27.709155,1769136267,708461184,1,207197,0,1769136267,691798162,2,222863,0,1769136267,695127858,3,212877,0,1769136267,698458495,4,222078,0,1769136267,701791351,5,195090,0,1769136267,705125907,6,211212,0,1769136267,648077514,X6-tool2,-0.069042784249539,2.9760401579540914,44.088677019340075,-0.028568912393530595,-0.013247158721307991,-0.12401217339666083,0.02231057547032833
2026-01-23 10:44:27.743951,1769136267,728465022,1,207197,0,1769136267,731792449,2,222863,0,1769136267,735126285,3,212877,0,1769136267,738463212,4,222072,0,1769136267,741790118,5,195090,0,1769136267,725122406,6,211212,0,1769136267,648077514,X6-tool2,-0.069042784249539,2.9760401579540914,44.088677019340075,-0.028568912393530595,-0.013247158721307991,-0.12401217339666083,0.02231057547032833
2026-01-23 10:44:27.779224,1769136267,768474520,1,207197,0,1769136267,771787526,2,222863,0,1769136267,775147724,3,212877,0,1769136267,778574593,4,222078,0,1769136267,761782867,5,195090,0,1769136267,765125694,6,211212,0,1769136267,747686794,X6-tool2,-0.10324056157209949,3.019569401161946,44.05853808807528,-0.02814049993824986,-0.013173895101160994,-0.1241189329888222,0.023263296112418175
2026-01-23 10:44:27.814576,1769136267,808460998,1,207197,0,1769136267,811797374,2,222863,0,1769136267,795202234,3,212877,0,1769136267,798489619,4,222072,0,1769136267,801739343,5,195090,0,1769136267,805128061,6,211212,0,1769136267,747686794,X6-tool2,-0.10324056157209949,3.019569401161946,44.05853808807528,-0.02814049993824986,-0.013173895101160994,-0.1241189329888222,0.023263296112418175
2026-01-23 10:44:27.850296,1769136267,848363732,1,207197,0,1769136267,831789503,2,222863,0,1769136267,835124089,3,212877,0,1769136267,838454126,4,222078,0,1769136267,841790322,5,195090,0,1769136267,845128569,6,211212,0,1769136267,846786797,X6-tool2,-0.13731139595409841,2.9808713556706308,44.0610995941998,-0.0284854600679296,-0.012716631267199354,-0.12395516933905133,0.021780332550406456
2026-01-23 10:44:27.885257,1769136267,868460064,1,207197,0,1769136267,871792790,2,222863,0,1769136267,875184799,3,212877,0,1769136267,878491455,4,222072,0,1769136267,881811851,5,195090,0,1769136267,865124768,6,211212,0,1769136267,846786797,X6-tool2,-0.13731139595409841,2.9808713556706308,44.0610995941998,-0.0284854600679296,-0.012716631267199354,-0.12395516933905133,0.021780332550406456
2026-01-23 10:44:27.920656,1769136267,908458061,1,207197,0,1769136267,911793178,2,222863,0,1769136267,915124124,3,212877,0,1769136267,918463261,4,222072,0,1769136267,901791768,5,195090,0,1769136267,905123345,6,211212,0,1769136267,846786797,X6-tool2,-0.13731139595409841,2.9808713556706308,44.0610995941998,-0.0284854600679296,-0.012716631267199354,-0.12395516933905133,0.021780332550406456
2026-01-23 10:44:27.955842,1769136267,948463589,1,207197,0,1769136267,951792655,2,222863,0,1769136267,955119481,3,212877,0,1769136267,938459459,4,222072,-5,1769136267,941791786,5,195090,0,1769136267,945122732,6,211212,0,1769136267,946634045,X6-tool2,-0.08010617448024503,2.9373308200995862,44.11057331316573,-0.02917851242000643,-0.012517597646356326,-0.12408148222980861,0.020992597565054893
2026-01-23 10:44:27.990961,1769136267,988458266,1,207197,0,1769136267,971796444,2,222863,0,1769136267,975130641,3,212877,0,1769136267,978471277,4,222078,5,1769136267,981793824,5,195090,0,1769136267,985119720,6,211212,0,1769136267,946634045,X6-tool2,-0.08010617448024503,2.9373308200995862,44.11057331316573,-0.02917851242000643,-0.012517597646356326,-0.12408148222980861,0.020992597565054893
2026-01-23 10:44:28.026559,1769136268,8460175,1,207197,0,1769136268,11786332,2,222863,0,1769136268,15128648,3,212877,0,1769136268,18455285,4,222078,1,1769136268,21789151,5,195090,0,1769136268,25125928,6,211212,0,1769136267,946634045,X6-tool2,-0.08010617448024503,2.9373308200995862,44.11057331316573,-0.02917851242000643,-0.012517597646356326,-0.12408148222980861,0.020992597565054893
2026-01-23 10:44:28.061515,1769136268,48445962,1,207197,0,1769136268,51791779,2,222863,0,1769136268,55121305,3,212877,0,1769136268,58454362,4,222078,9,1769136268,41785379,5,195090,0,1769136268,45100855,6,211212,0,1769136268,45940124,X6-tool2,-0.1532083232397806,2.9855240777259504,44.063786837618,-0.028575736184385688,-0.012465579106117215,-0.12400539448420476,0.024619102478027344
2026-01-23 10:44:28.096948,1769136268,88455290,1,207197,0,1769136268,91786106,2,222863,0,1769136268,95124963,3,212877,0,1769136268,78468071,4,222078,10,1769136268,81787857,5,195090,0,1769136268,85123643,6,211212,0,1769136268,45940124,X6-tool2,-0.1532083232397806,2.9855240777259504,44.063786837618,-0.028575736184385688,-0.012465579106117215,-0.12400539448420476,0.024619102478027344
2026-01-23 10:44:28.131987,1769136268,128453507,1,207197,0,1769136268,111794755,2,222863,0,1769136268,115116781,3,212877,0,1769136268,118463488,4,222078,4,1769136268,121786644,5,195090,0,1769136268,125127351,6,211212,0,1769136268,45940124,X6-tool2,-0.1532083232397806,2.9855240777259504,44.063786837618,-0.028575736184385688,-0.012465579106117215,-0.12400539448420476,0.024619102478027344
2026-01-23 10:44:28.167621,1769136268,148468316,1,207197,0,1769136268,151791832,2,222863,0,1769136268,155121449,3,212877,0,1769136268,158453665,4,222078,0,1769136268,161786472,5,195090,0,1769136268,165120858,6,211212,0,1769136268,145805893,X6-tool2,-0.12453835537076548,2.9735143116170852,44.05577586558969,-0.02813245978846837,-0.012976437567633536,-0.12401538817070765,0.025363922119140625
2026-01-23 10:44:28.202804,1769136268,188457993,1,207197,0,1769136268,191789669,2,222863,0,1769136268,195119006,3,212877,0,1769136268,198460182,4,222078,0,1769136268,201793809,5,195090,0,1769136268,185121236,6,211212,0,1769136268,145805893,X6-tool2,-0.12453835537076548,2.9735143116170852,44.05577586558969,-0.02813245978846837,-0.012976437567633536,-0.12401538817070765,0.025363922119140625
2026-01-23 10:44:28.237925,1769136268,228457341,1,207197,0,1769136268,231787687,2,222863,0,1769136268,235122863,3,212877,0,1769136268,218452801,4,222078,0,1769136268,221788817,5,195090,0,1769136268,225123594,6,211212,0,1769136268,145805893,X6-tool2,-0.12453835537076548,2.9735143116170852,44.05577586558969,-0.02813245978846837,-0.012976437567633536,-0.12401538817070765,0.025363922119140625
2026-01-23 10:44:28.272845,1769136268,268462918,1,207197,0,1769136268,271786784,2,222863,0,1769136268,255127062,3,212877,0,1769136268,258455928,4,222078,0,1769136268,261795185,5,195090,0,1769136268,265127021,6,211212,0,1769136268,244978348,X6-tool2,-0.0980125773127513,2.969587989431219,44.062669224911225,-0.028473955834445164,-0.013182310392965661,-0.12397008764288464,0.021783828735351562
2026-01-23 10:44:28.308067,1769136268,288527329,1,207197,0,1769136268,291787503,2,222863,0,1769136268,295122809,3,212877,0,1769136268,298456826,4,222078,0,1769136268,301772052,5,195090,0,1769136268,305121149,6,211212,0,1769136268,244978348,X6-tool2,-0.0980125773127513,2.969587989431219,44.062669224911225,-0.028473955834445164,-0.013182310392965661,-0.12397008764288464,0.021783828735351562
2026-01-23 10:44:28.343657,1769136268,328464854,1,207197,0,1769136268,331786580,2,222863,0,1769136268,335126467,3,212877,0,1769136268,338451143,4,222078,0,1769136268,341789719,5,195090,0,1769136268,325120377,6,211212,0,1769136268,244978348,X6-tool2,-0.0980125773127513,2.969587989431219,44.062669224911225,-0.028473955834445164,-0.013182310392965661,-0.12397008764288464,0.021783828735351562
2026-01-23 10:44:28.378600,1769136268,368462781,1,207197,0,1769136268,371787917,2,222863,0,1769136268,375127054,3,212877,0,1769136268,358454591,4,222078,0,1769136268,361793738,5,195090,0,1769136268,365117935,6,211212,0,1769136268,344705461,X6-tool2,-0.16944751284372667,2.9629786210670725,44.03175539781747,-0.028363201881708072,-0.013163830159436377,-0.12395117226840864,0.02466615103185177
2026-01-23 10:44:28.414405,1769136268,408464598,1,207197,0,1769136268,411791105,2,222863,0,1769136268,395188505,3,212877,0,1769136268,398463329,4,222078,0,1769136268,401773755,5,195090,0,1769136268,405137632,6,211212,0,1769136268,344705461,X6-tool2,-0.16944751284372667,2.9629786210670725,44.03175539781747,-0.028363201881708072,-0.013163830159436377,-0.12395117226840864,0.02466615103185177
2026-01-23 10:44:28.449941,1769136268,448463146,1,207197,0,1769136268,431799244,2,222863,0,1769136268,435120850,3,212877,0,1769136268,438453646,4,222078,0,1769136268,441866196,5,195090,0,1769136268,445206162,6,211212,0,1769136268,443937638,X6-tool2,-0.0997268109594525,2.9349688800708713,44.08937787223092,-0.028030148261521174,-0.012684182734030805,-0.12387283792848623,0.02169322967529297
2026-01-23 10:44:28.484755,1769136268,468496345,1,207197,0,1769136268,471800421,2,222863,0,1769136268,475165788,3,212877,0,1769136268,478475804,4,222078,0,1769136268,481805230,5,195090,0,1769136268,465132248,6,211212,0,1769136268,443937638,X6-tool2,-0.0997268109594525,2.9349688800708713,44.08937787223092,-0.028030148261521174,-0.012684182734030805,-0.12387283792848623,0.02169322967529297
2026-01-23 10:44:28.520251,1769136268,508489413,1,207197,0,1769136268,511803459,2,222863,0,1769136268,515127355,3,212877,0,1769136268,518452831,4,222078,0,1769136268,501773108,5,195090,0,1769136268,505147166,6,211212,0,1769136268,443937638,X6-tool2,-0.0997268109594525,2.9349688800708713,44.08937787223092,-0.028030148261521174,-0.012684182734030805,-0.12387283792848623,0.02169322967529297
2026-01-23 10:44:28.555287,1769136268,548494670,1,207197,0,1769136268,551803416,2,222863,0,1769136268,535124654,3,212877,0,1769136268,538488151,4,222078,0,1769136268,541818337,5,195090,0,1769136268,545094161,6,211212,0,1769136268,543530987,X6-tool2,-0.08420799879613095,2.9742726123921237,44.11108965616819,-0.028760705494097604,-0.012568476915662104,-0.12388214810489821,0.02161693572998047
2026-01-23 10:44:28.591023,1769136268,588484467,1,207197,0,1769136268,571845496,2,222863,0,1769136268,575179242,3,212877,0,1769136268,578476528,4,222078,0,1769136268,581795614,5,195090,0,1769136268,585127490,6,211212,0,1769136268,543530987,X6-tool2,-0.08420799879613095,2.9742726123921237,44.11108965616819,-0.028760705494097604,-0.012568476915662104,-0.12388214810489821,0.02161693572998047
2026-01-23 10:44:28.626373,1769136268,608487696,1,207197,0,1769136268,611796232,2,222863,0,1769136268,615145998,3,212877,0,1769136268,618487755,4,222078,0,1769136268,621786390,5,195090,0,1769136268,625132067,6,211212,0,1769136268,543530987,X6-tool2,-0.08420799879613095,2.9742726123921237,44.11108965616819,-0.028760705494097604,-0.012568476915662104,-0.12388214810489821,0.02161693572998047
2026-01-23 10:44:28.661501,1769136268,648490774,1,207197,0,1769136268,651793949,2,222863,0,1769136268,655134166,3,212877,0,1769136268,658481132,4,222078,0,1769136268,641777779,5,195090,0,1769136268,645536400,6,211212,0,1769136268,643132706,X6-tool2,-0.06532135786542011,2.975652551195895,44.11567082366906,-0.027657392778554196,-0.012782484809118892,-0.12405528485532236,0.0236790981143713
2026-01-23 10:44:28.696805,1769136268,688456039,1,207197,0,1769136268,691794016,2,222863,0,1769136268,695105002,3,212877,0,1769136268,678468981,4,222078,0,1769136268,681799007,5,195090,0,1769136268,685129143,6,211212,0,1769136268,643132706,X6-tool2,-0.06532135786542011,2.975652551195895,44.11567082366906,-0.027657392778554196,-0.012782484809118892,-0.12405528485532236,0.0236790981143713
2026-01-23 10:44:28.731873,1769136268,728459477,1,207197,0,1769136268,711814686,2,222863,0,1769136268,715152282,3,212877,0,1769136268,718457567,4,222078,0,1769136268,721791034,5,195090,0,1769136268,725102740,6,211212,0,1769136268,643132706,X6-tool2,-0.06532135786542011,2.975652551195895,44.11567082366906,-0.027657392778554196,-0.012782484809118892,-0.12405528485532236,0.0236790981143713
2026-01-23 10:44:28.767507,1769136268,748481417,1,207197,0,1769136268,751789302,2,222863,0,1769136268,755124199,3,212877,0,1769136268,758459395,4,222078,0,1769136268,761774691,5,195090,0,1769136268,765100527,6,211212,0,1769136268,742063572,X6-tool2,-0.10092763917730031,3.0059801105002775,44.095895725022224,-0.027665319788793743,-0.012816583205154636,-0.12406545476229809,0.02465343475341797
2026-01-23 10:44:28.803051,1769136268,788459593,1,207197,0,1769136268,791819120,2,222863,0,1769136268,795124426,3,212877,0,1769136268,798473513,4,222078,0,1769136268,801847411,5,195090,0,1769136268,785132207,6,211212,0,1769136268,742063572,X6-tool2,-0.10092763917730031,3.0059801105002775,44.095895725022224,-0.027665319788793743,-0.012816583205154636,-0.12406545476229809,0.02465343475341797
2026-01-23 10:44:28.837919,1769136268,828446210,1,207197,0,1769136268,831819727,2,222863,0,1769136268,835126033,3,212877,0,1769136268,818528323,4,222078,0,1769136268,821899581,5,195090,0,1769136268,825171786,6,211212,0,1769136268,742063572,X6-tool2,-0.10092763917730031,3.0059801105002775,44.095895725022224,-0.027665319788793743,-0.012816583205154636,-0.12406545476229809,0.02465343475341797
2026-01-23 10:44:28.873629,1769136268,868463328,1,207202,5,1769136268,871834205,2,222863,0,1769136268,855259336,3,212877,0,1769136268,858496719,4,222078,0,1769136268,861807055,5,195090,0,1769136268,865155132,6,211212,0,1769136268,841943981,X6-tool2,-0.06894881466614172,3.0119536703440684,44.101248218398624,-0.028339077256805064,-0.013069984163880255,-0.12387482906419063,0.02143096923828125
2026-01-23 10:44:28.908495,1769136268,888501808,1,207208,0,1769136268,891826734,2,222907,24,1769136268,895159080,3,212822,-23,1769136268,898509518,4,222012,-43,1769136268,901820813,5,195090,0,1769136268,905153499,6,211196,-2,1769136268,841943981,X6-tool2,-0.06894881466614172,3.0119536703440684,44.101248218398624,-0.028339077256805064,-0.013069984163880255,-0.12387482906419063,0.02143096923828125
2026-01-23 10:44:28.944264,1769136268,928520145,1,207219,7,1769136268,931799010,2,223011,20,1769136268,935151527,3,212662,-50,1769136268,938502304,4,221759,-84,1769136268,941833271,5,195090,0,1769136268,925159638,6,211179,-4,1769136268,941423927,X6-tool2,-0.12661146833111805,2.951629723408223,44.06259985724149,-0.028514259288011008,-0.012950772554831106,-0.1239357329898804,0.021769842132925987
2026-01-23 10:44:28.979494,1769136268,968489072,1,207241,10,1769136268,972040366,2,223143,32,1769136268,975165666,3,212404,-92,1769136268,978543573,4,221583,-44,1769136268,961809349,5,195090,0,1769136268,965160056,6,211124,-10,1769136268,941423927,X6-tool2,-0.12661146833111805,2.951629723408223,44.06259985724149,-0.028514259288011008,-0.012950772554831106,-0.1239357329898804,0.021769842132925987
2026-01-23 10:44:29.015057,1769136269,8462858,1,207257,0,1769136269,11778574,2,223275,35,1769136268,995128482,3,212278,-59,1769136268,998463549,4,221468,-59,1769136269,1780045,5,195084,0,1769136269,5128282,6,211025,-37,1769136268,941423927,X6-tool2,-0.12661146833111805,2.951629723408223,44.06259985724149,-0.028514259288011008,-0.012950772554831106,-0.1239357329898804,0.021769842132925987
2026-01-23 10:44:29.050609,1769136269,48479026,1,207285,0,1769136269,31804064,2,223358,42,1769136269,35146130,3,212058,-63,1769136269,38482926,4,221237,-63,1769136269,41870775,5,195084,0,1769136269,45170800,6,210965,-14,1769136269,40702354,X6-tool2,-0.07895301746048179,2.9557216204200087,44.10380515452844,-0.028442686833872924,-0.012914888724774599,-0.12388454230485887,0.022471746429800987
2026-01-23 10:44:29.085624,1769136269,68477515,1,207290,10,1769136269,71873673,2,223478,27,1769136269,75155768,3,211838,-43,1769136269,78559127,4,220957,-55,1769136269,81995397,5,195084,0,1769136269,85162547,6,210899,-8,1769136269,40702354,X6-tool2,-0.07895301746048179,2.9557216204200087,44.10380515452844,-0.028442686833872924,-0.012914888724774599,-0.12388454230485887,0.022471746429800987
2026-01-23 10:44:29.120877,1769136269,108466431,1,207312,1,1769136269,111968574,2,223610,32,1769136269,115153955,3,211657,-42,1769136269,118480891,4,220655,-90,1769136269,101823319,5,195090,0,1769136269,105184457,6,210866,-21,1769136269,40702354,X6-tool2,-0.07895301746048179,2.9557216204200087,44.10380515452844,-0.028442686833872924,-0.012914888724774599,-0.12388454230485887,0.022471746429800987
2026-01-23 10:44:29.155885,1769136269,148471339,1,207339,-5,1769136269,151825236,2,223731,33,1769136269,155148292,3,211459,-53,1769136269,138500960,4,220523,-71,1769136269,141823276,5,195090,0,1769136269,145206184,6,210773,-14,1769136269,141146512,X6-tool2,-0.10481453596889534,2.9770881527374926,44.0886663092052,-0.02835918192133652,-0.012679306745159621,-0.12389087429238486,0.02347532846033573
2026-01-23 10:44:29.191252,1769136269,188473536,1,207378,4,1769136269,171895987,2,223802,37,1769136269,175130550,3,211328,-68,1769136269,178514348,4,220226,-88,1769136269,181958798,5,195090,0,1769136269,185159520,6,210679,-23,1769136269,141146512,X6-tool2,-0.10481453596889534,2.9770881527374926,44.0886663092052,-0.02835918192133652,-0.012679306745159621,-0.12389087429238486,0.02347532846033573
2026-01-23 10:44:29.226448,1769136269,208477115,1,207400,12,1769136269,211826972,2,223907,26,1769136269,215133627,3,211053,-42,1769136269,218501905,4,219990,-56,1769136269,221843021,5,195090,0,1769136269,225155497,6,210613,-15,1769136269,141146512,X6-tool2,-0.10481453596889534,2.9770881527374926,44.0886663092052,-0.02835918192133652,-0.012679306745159621,-0.12389087429238486,0.02347532846033573
2026-01-23 10:44:29.261418,1769136269,248448151,1,207449,16,1769136269,251819468,2,224022,27,1769136269,255122864,3,210767,-76,1769136269,258485311,4,219749,-64,1769136269,241796498,5,195090,0,1769136269,245169116,6,210591,-11,1769136269,240225663,X6-tool2,-0.1381500774497406,2.9493053306496573,44.06337205383903,-0.02832705828237119,-0.013075229325962159,-0.12391006986862829,0.021315893158316612
2026-01-23 10:44:29.297227,1769136269,288481459,1,207499,8,1769136269,291820226,2,224105,16,1769136269,295149072,3,210586,-50,1769136269,278470559,4,219639,-56,1769136269,281992082,5,195095,0,1769136269,285151622,6,210547,-10,1769136269,240225663,X6-tool2,-0.1381500774497406,2.9493053306496573,44.06337205383903,-0.02832705828237119,-0.013075229325962159,-0.12391006986862829,0.021315893158316612
2026-01-23 10:44:29.332084,1769136269,328521767,1,207532,11,1769136269,311790083,2,224176,43,1769136269,315171531,3,210454,-69,1769136269,318490427,4,219397,-63,1769136269,321907216,5,195112,10,1769136269,325160540,6,210509,-9,1769136269,240225663,X6-tool2,-0.1381500774497406,2.9493053306496573,44.06337205383903,-0.02832705828237119,-0.013075229325962159,-0.12391006986862829,0.021315893158316612
2026-01-23 10:44:29.367595,1769136269,348486645,1,207548,9,1769136269,351797190,2,224319,42,1769136269,355135067,3,210234,-54,1769136269,358490374,4,219166,-64,1769136269,361804370,5,195128,10,1769136269,365128086,6,210454,-19,1769136269,340137593,X6-tool2,-0.13364463258090764,2.9615467098895305,44.05429175935855,-0.0280759455679355,-0.013541556462833726,-0.12373252440669419,0.019766807556152344
2026-01-23 10:44:29.402881,1769136269,388466081,1,207609,22,1769136269,391818218,2,224489,31,1769136269,395120744,3,210037,-52,1769136269,398481481,4,218941,-58,1769136269,401775476,5,195145,0,1769136269,385148965,6,210394,-30,1769136269,340137593,X6-tool2,-0.13364463258090764,2.9615467098895305,44.05429175935855,-0.0280759455679355,-0.013541556462833726,-0.12373252440669419,0.019766807556152344
2026-01-23 10:44:29.438003,1769136269,428499739,1,207664,9,1769136269,431802005,2,224599,33,1769136269,435143292,3,209806,-53,1769136269,418481609,4,218815,-66,1769136269,421799305,5,195156,8,1769136269,425153722,6,210344,-18,1769136269,340137593,X6-tool2,-0.13364463258090764,2.9615467098895305,44.05429175935855,-0.0280759455679355,-0.013541556462833726,-0.12373252440669419,0.019766807556152344
2026-01-23 10:44:29.474236,1769136269,468476076,1,207680,17,1769136269,471839553,2,224769,52,1769136269,455136950,3,209713,-44,1769136269,458497007,4,218573,-47,1769136269,461796682,5,195172,0,1769136269,465131589,6,210289,-10,1769136269,440132936,X6-tool2,-0.14362972332153656,2.977046116414239,44.068496791135146,-0.027864149969481562,-0.013859836997994802,-0.12375115978316244,0.025738080963492393
2026-01-23 10:44:29.510014,1769136269,508494793,1,207691,0,1769136269,491832682,2,224890,38,1769136269,495148737,3,209498,-64,1769136269,498486144,4,218353,-69,1769136269,501804589,5,195194,10,1769136269,505149456,6,210212,-29,1769136269,440132936,X6-tool2,-0.14362972332153656,2.977046116414239,44.068496791135146,-0.027864149969481562,-0.013859836997994802,-0.12375115978316244,0.025738080963492393
2026-01-23 10:44:29.544847,1769136269,528477341,1,207713,11,1769136269,531798168,2,225005,23,1769136269,535155905,3,209284,-45,1769136269,538474421,4,218117,-62,1769136269,541821658,5,195216,8,1769136269,525164716,6,210179,-14,1769136269,541172135,X6-tool2,-0.21263549204068838,2.913182597090374,44.00354067687828,-0.027801530114915155,-0.015133227927155952,-0.12368399354574414,0.02686087228357792
2026-01-23 10:44:29.580662,1769136269,568480138,1,207735,0,1769136269,571937059,2,225165,48,1769136269,575147222,3,209070,-63,1769136269,578472058,4,217859,-70,1769136269,561842647,5,195227,4,1769136269,565125461,6,210135,-10,1769136269,541172135,X6-tool2,-0.21263549204068838,2.913182597090374,44.00354067687828,-0.027801530114915155,-0.015133227927155952,-0.12368399354574414,0.02686087228357792
2026-01-23 10:44:29.616005,1769136269,608462305,1,207779,10,1769136269,611794811,2,225335,36,1769136269,615131438,3,208894,-35,1769136269,598463265,4,217722,-68,1769136269,601773951,5,195249,0,1769136269,605124768,6,210103,-10,1769136269,541172135,X6-tool2,-0.21263549204068838,2.913182597090374,44.00354067687828,-0.027801530114915155,-0.015133227927155952,-0.12368399354574414,0.02686087228357792
2026-01-23 10:44:29.650861,1769136269,648471722,1,207812,14,1769136269,631795390,2,225396,30,1769136269,635139237,3,208806,-50,1769136269,638453402,4,217408,-90,1769136269,641799209,5,195276,9,1769136269,645125795,6,210070,0,1769136269,640522885,X6-tool2,-0.19185844901545981,2.8772219237438486,44.062265137632494,-0.027464702522506455,-0.016077516186327603,-0.12327143947550052,0.024983087554574013
2026-01-23 10:44:29.686220,1769136269,668469911,1,207834,10,1769136269,671799087,2,225516,31,1769136269,675130824,3,208625,-48,1769136269,678459880,4,217167,-37,1769136269,681777986,5,195320,14,1769136269,685133473,6,210031,-14,1769136269,640522885,X6-tool2,-0.19185844901545981,2.8772219237438486,44.062265137632494,-0.027464702522506455,-0.016077516186327603,-0.12327143947550052,0.024983087554574013
2026-01-23 10:44:29.721034,1769136269,708466738,1,207878,11,1769136269,711815045,2,225670,35,1769136269,715134281,3,208416,-44,1769136269,718455307,4,216985,-42,1769136269,701796625,5,195353,13,1769136269,705122641,6,210015,-7,1769136269,640522885,X6-tool2,-0.19185844901545981,2.8772219237438486,44.062265137632494,-0.027464702522506455,-0.016077516186327603,-0.12327143947550052,0.024983087554574013
2026-01-23 10:44:29.755910,1769136269,748465515,1,207911,9,1769136269,751794321,2,225857,46,1769136269,755138788,3,208196,-63,1769136269,738456055,4,216898,-40,1769136269,741793172,5,195381,9,1769136269,745128478,6,209954,-13,1769136269,740399073,X6-tool2,-0.34373664063507264,2.8533961023335217,44.032531234170094,-0.026360490959104036,-0.019381426541278435,-0.1223970885700129,0.02949301339685917
2026-01-23 10:44:29.790719,1769136269,788465702,1,207949,7,1769136269,771799910,2,225950,50,1769136269,775128307,3,208092,-46,1769136269,778459963,4,216689,-52,1769136269,781792499,5,195408,3,1769136269,785130765,6,209910,-15,1769136269,740399073,X6-tool2,-0.34373664063507264,2.8533961023335217,44.032531234170094,-0.026360490959104036,-0.019381426541278435,-0.1223970885700129,0.02949301339685917
2026-01-23 10:44:29.825933,1769136269,808466971,1,207966,9,1769136269,811798127,2,226110,43,1769136269,815129144,3,207823,-73,1769136269,818458060,4,216453,-64,1769136269,821773186,5,195458,20,1769136269,825125083,6,209828,-26,1769136269,740399073,X6-tool2,-0.34373664063507264,2.8533961023335217,44.032531234170094,-0.026360490959104036,-0.019381426541278435,-0.1223970885700129,0.02949301339685917
2026-01-23 10:44:29.861040,1769136269,848466658,1,208004,9,1769136269,851801705,2,226291,43,1769136269,855131861,3,207614,-43,1769136269,858463417,4,216216,-70,1769136269,841796245,5,195469,7,1769136269,845129011,6,209811,-5,1769136269,840141407,X6-tool2,-0.4072359459626119,2.8457809987528204,44.075039362594666,-0.025157349504909696,-0.022166368867948295,-0.12173481808062588,0.027706146240234375
2026-01-23 10:44:29.896372,1769136269,888467795,1,208048,12,1769136269,891795161,2,226450,32,1769136269,895126968,3,207411,-48,1769136269,878463935,4,216079,-54,1769136269,881772831,5,195518,21,1769136269,885126278,6,209762,-16,1769136269,840141407,X6-tool2,-0.4072359459626119,2.8457809987528204,44.075039362594666,-0.025157349504909696,-0.022166368867948295,-0.12173481808062588,0.027706146240234375
2026-01-23 10:44:29.931207,1769136269,928460792,1,208109,12,1769136269,911793450,2,226500,26,1769136269,915132037,3,207312,-48,1769136269,918459103,4,215832,-66,1769136269,921796929,5,195579,18,1769136269,925121115,6,209740,-6,1769136269,840141407,X6-tool2,-0.4072359459626119,2.8457809987528204,44.075039362594666,-0.025157349504909696,-0.022166368867948295,-0.12173481808062588,0.027706146240234375
2026-01-23 10:44:29.966672,1769136269,948462221,1,208130,7,1769136269,951793277,2,226615,30,1769136269,955127403,3,207147,-40,1769136269,958452810,4,215596,-56,1769136269,961790166,5,195634,8,1769136269,965119732,6,209707,0,1769136269,940397549,X6-tool2,-0.5956024414151115,2.641911558168898,44.073171850678484,-0.021455431020082863,-0.02426661696632705,-0.12160538051462073,0.02897612191736698
2026-01-23 10:44:30.001712,1769136269,988466878,1,208180,10,1769136269,991791154,2,226747,26,1769136269,995126980,3,206966,-43,1769136269,998453737,4,215398,-54,1769136269,981792385,5,195650,4,1769136269,985116221,6,209691,-10,1769136269,940397549,X6-tool2,-0.5956024414151115,2.641911558168898,44.073171850678484,-0.021455431020082863,-0.02426661696632705,-0.12160538051462073,0.02897612191736698
2026-01-23 10:44:30.036907,1769136270,28468865,1,208229,12,1769136270,31800111,2,226895,29,1769136270,35126937,3,206796,-35,1769136270,18455895,4,215283,-56,1769136270,21799612,5,195699,11,1769136270,25119828,6,209658,-9,1769136269,940397549,X6-tool2,-0.5956024414151115,2.641911558168898,44.073171850678484,-0.021455431020082863,-0.02426661696632705,-0.12160538051462073,0.02897612191736698
2026-01-23 10:44:30.071964,1769136270,68465722,1,208290,16,1769136270,51790809,2,226967,29,1769136270,55128166,3,206724,-36,1769136270,58435661,4,215035,-59,1769136270,61794759,5,195754,14,1769136270,65121155,6,209614,-14,1769136270,40206695,X6-tool2,-0.6991299086272232,2.4964745198076805,44.06473480168147,-0.019687500256012742,-0.02712148592212366,-0.12126802557652025,0.023192724213004112
2026-01-23 10:44:30.107443,1769136270,88465410,1,208317,11,1769136270,91787526,2,227104,30,1769136270,95130603,3,206532,-55,1769136270,98454849,4,214772,-60,1769136270,101794346,5,195804,10,1769136270,105117982,6,209581,-8,1769136270,40206695,X6-tool2,-0.6991299086272232,2.4964745198076805,44.06473480168147,-0.019687500256012742,-0.02712148592212366,-0.12126802557652025,0.023192724213004112
2026-01-23 10:44:30.142397,1769136270,128464197,1,208361,12,1769136270,131769592,2,227285,65,1769136270,135128410,3,206318,-48,1769136270,138455266,4,214541,-52,1769136270,141795533,5,195864,17,1769136270,125122750,6,209559,-10,1769136270,140459186,X6-tool2,-0.8105615255612463,2.365452681558282,44.09447541692639,-0.017682353731001126,-0.02876414670206995,-0.12067344453120338,0.030063947662711143
2026-01-23 10:44:30.177611,1769136270,168441423,1,208405,6,1769136270,171772820,2,227499,35,1769136270,175130247,3,206153,-46,1769136270,158461255,4,214420,-49,1769136270,161794371,5,195875,0,1769136270,165122607,6,209526,-10,1769136270,140459186,X6-tool2,-0.8105615255612463,2.365452681558282,44.09447541692639,-0.017682353731001126,-0.02876414670206995,-0.12067344453120338,0.030063947662711143
2026-01-23 10:44:30.212442,1769136270,208469981,1,208438,3,1769136270,211801338,2,227664,45,1769136270,195127545,3,206043,-60,1769136270,198507073,4,214217,-38,1769136270,201797268,5,195936,29,1769136270,205133045,6,209465,-16,1769136270,140459186,X6-tool2,-0.8105615255612463,2.365452681558282,44.09447541692639,-0.017682353731001126,-0.02876414670206995,-0.12067344453120338,0.030063947662711143
2026-01-23 10:44:30.247615,1769136270,228462579,1,208466,12,1769136270,231793705,2,227763,52,1769136270,235126002,3,205878,-42,1769136270,238461858,4,214041,-40,1769136270,241800515,5,195991,18,1769136270,245125961,6,209443,-6,1769136270,240605284,X6-tool2,-0.9547714192725376,2.272682259782583,44.04400569409039,-0.015017568675868549,-0.034037983167052234,-0.11960793940898586,0.022099176421761513
