timestamp,out_1_header.stamp.sec,out_1_header.stamp.nanosec,out_1_header.frame_id,out_1_val,out_1_speed,out_2_header.stamp.sec,out_2_header.stamp.nanosec,out_2_header.frame_id,out_2_val,out_2_speed,out_3_header.stamp.sec,out_3_header.stamp.nanosec,out_3_header.frame_id,out_3_val,out_3_speed,out_4_header.stamp.sec,out_4_header.stamp.nanosec,out_4_header.frame_id,out_4_val,out_4_speed,out_5_header.stamp.sec,out_5_header.stamp.nanosec,out_5_header.frame_id,out_5_val,out_5_speed,out_6_header.stamp.sec,out_6_header.stamp.nanosec,out_6_header.frame_id,out_6_val,out_6_speed,x6position_pose_rp[0],x6position_pose_rp[1],x6position_pose_rp[2],x6position_pose_rp[3],x6position_pose_rp[4],x6position_pose_rp[5],x6position_joints[0],x6position_joints[1],x6position_joints[2],x6position_joints[3],x6position_joints[4],x6position_joints[5],aimooe_coord_header.stamp.sec,aimooe_coord_header.stamp.nanosec,aimooe_coord_header.frame_id,aimooe_coord_position.x,aimooe_coord_position.y,aimooe_coord_position.z,aimooe_coord_orientation.x,aimooe_coord_orientation.y,aimooe_coord_orientation.z,aimooe_coord_mean_error
2026-01-14 16:14:11.698163,1768378451,695859492,1,156379,0,1768378451,679190648,2,148052,0,1768378451,682573695,3,166800,0,1768378451,685863048,4,160845,0,1768378451,689214044,5,160164,0,1768378451,692528558,6,145184,0,0.0001142881010309793,-0.00019459005852695554,45.00041198730469,0.0011686694342643023,0.0006986531661823392,0.0007707766490057111,43.09621047973633,53.03549575805664,43.09633255004883,53.035003662109375,43.0932502746582,53.03453063964844,1768378451,604579843,X6-tool2,-0.1580905123365373,0.22819679307665708,44.58854387539755,0.01269637215492574,0.013810642300674868,0.0316022815524349,0.06087652966380119
2026-01-14 16:14:11.741795,1768378451,735880492,1,156379,0,1768378451,739215197,2,148052,0,1768378451,722549343,3,166800,0,1768378451,725884248,4,160845,0,1768378451,729224363,5,160164,0,1768378451,732548107,6,145184,0,0.0001142881010309793,-0.00019459005852695554,45.00041198730469,0.0011686694342643023,0.0006986531661823392,0.0007707766490057111,43.09621047973633,53.03549575805664,43.09633255004883,53.035003662109375,43.0932502746582,53.03453063964844,1768378451,704448444,X6-tool2,-0.13554698529204415,0.2171558130919926,44.55865424953736,0.012547833747671428,0.013244912165060642,0.031682885987390164,0.06062030792236328
2026-01-14 16:14:11.777946,1768378451,775904582,1,156379,0,1768378451,759219126,2,148052,0,1768378451,762606614,3,166800,0,1768378451,765882027,4,160845,0,1768378451,769242602,5,160164,0,1768378451,772559656,6,145179,0,0.0001142881010309793,-0.00019459005852695554,45.00041198730469,0.0011686694342643023,0.0006986531661823392,0.0007707766490057111,43.09621047973633,53.03549575805664,43.09633255004883,53.035003662109375,43.0932502746582,53.03453063964844,1768378451,704448444,X6-tool2,-0.13554698529204415,0.2171558130919926,44.55865424953736,0.012547833747671428,0.013244912165060642,0.031682885987390164,0.06062030792236328
2026-01-14 16:14:11.813946,1768378451,795937082,1,156379,0,1768378451,799232486,2,148052,0,1768378451,802604232,3,166800,0,1768378451,805897856,4,160845,0,1768378451,809268362,5,160164,0,1768378451,812618998,6,145179,0,-0.0010659071849659085,0.0004590779426507652,45.0009880065918,0.0011686694342643023,0.0006986531661823392,0.0007707766490057111,43.09621047973633,53.03549575805664,43.09633255004883,53.035003662109375,43.0932502746582,53.03953170776367,1768378451,804555805,X6-tool2,-0.16987638642381386,0.24223431063155385,44.63632717979136,0.013278666527933258,0.01422886082628521,0.03159734614829477,0.06603876501321793
2026-01-14 16:14:11.848981,1768378451,835908460,1,156379,0,1768378451,839276676,2,148052,0,1768378451,842605511,3,166800,0,1768378451,845907895,4,160845,0,1768378451,829280722,5,160164,0,1768378451,832614577,6,145179,0,-0.0010659071849659085,0.0004590779426507652,45.0009880065918,0.0011686694342643023,0.0006986531661823392,0.0007707766490057111,43.09621047973633,53.03549575805664,43.09633255004883,53.035003662109375,43.0932502746582,53.03953170776367,1768378451,804555805,X6-tool2,-0.16987638642381386,0.24223431063155385,44.63632717979136,0.013278666527933258,0.01422886082628521,0.03159734614829477,0.06603876501321793
2026-01-14 16:14:11.884428,1768378451,875935680,1,156379,0,1768378451,879241244,2,148052,0,1768378451,882606080,3,166800,0,1768378451,865909054,4,160845,0,1768378451,869266220,5,160164,0,1768378451,872553373,6,145179,0,-0.0010659071849659085,0.0004590779426507652,45.0009880065918,0.0011686694342643023,0.0006986531661823392,0.0007707766490057111,43.09621047973633,53.03549575805664,43.09633255004883,53.035003662109375,43.0932502746582,53.03953170776367,1768378451,804555805,X6-tool2,-0.16987638642381386,0.24223431063155385,44.63632717979136,0.013278666527933258,0.01422886082628521,0.03159734614829477,0.06603876501321793
2026-01-14 16:14:11.919418,1768378451,915934478,1,156379,0,1768378451,899238563,2,148052,0,1768378451,902604749,3,166800,0,1768378451,905902863,4,160845,0,1768378451,909271049,5,160164,0,1768378451,912568383,6,145179,0,-0.0010659071849659085,0.0004590779426507652,45.0009880065918,0.0011686694342643023,0.0006986531661823392,0.0007707766490057111,43.09621047973633,53.03549575805664,43.09633255004883,53.035003662109375,43.0932502746582,53.03953170776367,1768378451,904402906,X6-tool2,-0.17114405552530018,0.24842553517608437,44.597039130385845,0.01303761118455647,0.014216728580872003,0.03137752637651352,0.06547101587057114
2026-01-14 16:14:11.955253,1768378451,935937298,1,156379,0,1768378451,939234722,2,148052,0,1768378451,942605748,3,166800,0,1768378451,945903852,4,160845,0,1768378451,949269358,5,160164,0,1768378451,952576891,6,145179,0,-0.0010659071849659085,0.0004590779426507652,45.0009880065918,0.0011686694342643023,0.0006986531661823392,0.0007707766490057111,43.09621047973633,53.03549575805664,43.09633255004883,53.035003662109375,43.0932502746582,53.03953170776367,1768378451,904402906,X6-tool2,-0.17114405552530018,0.24842553517608437,44.597039130385845,0.01303761118455647,0.014216728580872003,0.03137752637651352,0.06547101587057114
2026-01-14 16:14:11.991199,1768378451,975936087,1,156379,0,1768378451,979234830,2,148052,0,1768378451,982606767,3,166800,0,1768378451,985899040,4,160845,0,1768378451,989270716,5,160164,0,1768378451,972569641,6,145179,0,-0.0010659071849659085,0.0004590779426507652,45.0009880065918,0.0011686694342643023,0.0006986531661823392,0.0007707766490057111,43.09621047973633,53.03549575805664,43.09633255004883,53.035003662109375,43.0932502746582,53.03953170776367,1768378451,904402906,X6-tool2,-0.17114405552530018,0.24842553517608437,44.597039130385845,0.01303761118455647,0.014216728580872003,0.03137752637651352,0.06547101587057114
2026-01-14 16:14:12.028990,1768378452,15936346,1,156379,0,1768378452,19237029,2,148052,0,1768378452,22604266,3,166800,0,1768378452,25907509,4,160845,0,1768378452,9270436,5,160164,0,1768378452,12563709,6,145179,0,-0.0010659071849659085,0.0004590779426507652,45.0009880065918,0.0011686694342643023,0.0006986531661823392,0.0007707766490057111,43.09621047973633,53.03549575805664,43.09633255004883,53.035003662109375,43.0932502746582,53.03953170776367,1768378452,4345571,X6-tool2,-0.1556288363359347,0.23044891241861035,44.60021875274681,0.01283351855737369,0.013875091138316387,0.03154314433479912,0.06465498358011246
2026-01-14 16:14:12.065147,1768378452,55936584,1,156379,0,1768378452,59215677,2,148052,0,1768378452,62605754,3,166800,0,1768378452,45901098,4,160845,0,1768378452,49269964,5,160164,0,1768378452,52565078,6,145179,0,-0.0010659071849659085,0.0004590779426507652,45.0009880065918,0.0011686694342643023,0.0006986531661823392,0.0007707766490057111,43.09621047973633,53.03549575805664,43.09633255004883,53.035003662109375,43.0932502746582,53.03953170776367,1768378452,4345571,X6-tool2,-0.1556288363359347,0.23044891241861035,44.60021875274681,0.01283351855737369,0.013875091138316387,0.03154314433479912,0.06465498358011246
2026-01-14 16:14:12.101192,1768378452,95887391,1,156379,0,1768378452,99226036,2,148052,0,1768378452,82587032,3,166800,0,1768378452,85905847,4,160845,0,1768378452,89226531,5,160164,0,1768378452,92552866,6,145179,0,-0.0010659071849659085,0.0004590779426507652,45.0009880065918,0.0011686694342643023,0.0006986531661823392,0.0007707766490057111,43.09621047973633,53.03549575805664,43.09633255004883,53.035003662109375,43.0932502746582,53.03953170776367,1768378452,4345571,X6-tool2,-0.1556288363359347,0.23044891241861035,44.60021875274681,0.01283351855737369,0.013875091138316387,0.03154314433479912,0.06465498358011246
2026-01-14 16:14:12.136450,1768378452,135864969,1,156379,0,1768378452,119222225,2,148052,0,1768378452,122549610,3,166800,0,1768378452,125883575,4,160845,0,1768378452,129219150,5,160159,0,1768378452,132548954,6,145179,0,-0.0010659071849659085,0.0004590779426507652,45.0009880065918,0.0011686694342643023,0.0006986531661823392,0.0007707766490057111,43.09621047973633,53.03549575805664,43.09633255004883,53.035003662109375,43.09825134277344,53.03953170776367,1768378452,104632988,X6-tool2,-0.14853836253695785,0.23243872309934321,44.573642336394975,0.012805099330184273,0.013646442387478771,0.03154846576292502,0.06851577758789062
2026-01-14 16:14:12.171536,1768378452,155881908,1,156379,0,1768378452,159220454,2,148052,0,1768378452,162547708,3,166800,0,1768378452,165880153,4,160845,0,1768378452,169212998,5,160159,0,1768378452,152550914,6,145179,0,-0.0010659071849659085,0.0004590779426507652,45.0009880065918,0.0011686694342643023,0.0006986531661823392,0.0007707766490057111,43.09621047973633,53.03549575805664,43.09633255004883,53.035003662109375,43.09825134277344,53.03953170776367,1768378452,104632988,X6-tool2,-0.14853836253695785,0.23243872309934321,44.573642336394975,0.012805099330184273,0.013646442387478771,0.03154846576292502,0.06851577758789062
2026-01-14 16:14:12.207525,1768378452,195905448,1,156379,0,1768378452,199234563,2,148052,0,1768378452,202604469,3,166800,0,1768378452,205897613,4,160845,0,1768378452,189248999,5,160159,0,1768378452,192560203,6,145179,0,-0.0010659071849659085,0.0004590779426507652,45.0009880065918,0.0011686694342643023,0.0006986531661823392,0.0007707766490057111,43.09621047973633,53.03549575805664,43.09633255004883,53.035003662109375,43.09825134277344,53.03953170776367,1768378452,204421947,X6-tool2,-0.14355484273904145,0.25252911481226736,44.6480362334412,0.013154081152404013,0.013845223966468746,0.031618541108679406,0.06385008245706558
2026-01-14 16:14:12.242484,1768378452,235892316,1,156379,0,1768378452,239217511,2,148052,0,1768378452,222604518,3,166800,0,1768378452,225899722,4,160845,0,1768378452,229267808,5,160159,0,1768378452,232564841,6,145179,0,-0.0010659071849659085,0.0004590779426507652,45.0009880065918,0.0011686694342643023,0.0006986531661823392,0.0007707766490057111,43.09621047973633,53.03549575805664,43.09633255004883,53.035003662109375,43.09825134277344,53.03953170776367,1768378452,204421947,X6-tool2,-0.14355484273904145,0.25252911481226736,44.6480362334412,0.013154081152404013,0.013845223966468746,0.031618541108679406,0.06385008245706558
2026-01-14 16:14:12.278007,1768378452,275883264,1,156379,0,1768378452,259217200,2,148052,0,1768378452,262555745,3,166800,0,1768378452,265879849,4,160845,0,1768378452,269216965,5,160159,0,1768378452,272546009,6,145179,0,-0.0010659071849659085,0.0004590779426507652,45.0009880065918,0.0011686694342643023,0.0006986531661823392,0.0007707766490057111,43.09621047973633,53.03549575805664,43.09633255004883,53.035003662109375,43.09825134277344,53.03953170776367,1768378452,204421947,X6-tool2,-0.14355484273904145,0.25252911481226736,44.6480362334412,0.013154081152404013,0.013845223966468746,0.031618541108679406,0.06385008245706558
2026-01-14 16:14:12.313954,1768378452,295935235,1,156379,0,1768378452,299232039,2,148052,0,1768378452,302604665,3,166800,0,1768378452,305881308,4,160845,0,1768378452,309253514,5,160159,0,1768378452,312547108,6,145179,0,-0.0010659071849659085,0.0004590779426507652,45.0009880065918,0.0011686694342643023,0.0006986531661823392,0.0007707766490057111,43.09621047973633,53.03549575805664,43.09633255004883,53.035003662109375,43.09825134277344,53.03953170776367,1768378452,304535158,X6-tool2,-0.1694894384443385,0.24413926582236675,44.62378378755407,0.013052177065470882,0.014167642201549894,0.03150727563463883,0.0632111206650734
2026-01-14 16:14:12.349151,1768378452,335893503,1,156379,0,1768378452,339218597,2,148052,0,1768378452,342557662,3,166800,0,1768378452,345879117,4,160845,0,1768378452,329267924,5,160159,0,1768378452,332563908,6,145179,0,-0.0010659071849659085,0.0004590779426507652,45.0009880065918,0.0011686694342643023,0.0006986531661823392,0.0007707766490057111,43.09621047973633,53.03549575805664,43.09633255004883,53.035003662109375,43.09825134277344,53.03953170776367,1768378452,304535158,X6-tool2,-0.1694894384443385,0.24413926582236675,44.62378378755407,0.013052177065470882,0.014167642201549894,0.03150727563463883,0.0632111206650734
2026-01-14 16:14:12.384568,1768378452,375934553,1,156379,0,1768378452,379235626,2,148052,0,1768378452,382606073,3,166800,0,1768378452,365892376,4,160845,0,1768378452,369265513,5,160159,0,1768378452,372557646,6,145179,0,-0.0010659071849659085,0.0004590779426507652,45.0009880065918,0.0011686694342643023,0.0006986531661823392,0.0007707766490057111,43.09621047973633,53.03549575805664,43.09633255004883,53.035003662109375,43.09825134277344,53.03953170776367,1768378452,304535158,X6-tool2,-0.1694894384443385,0.24413926582236675,44.62378378755407,0.013052177065470882,0.014167642201549894,0.03150727563463883,0.0632111206650734
2026-01-14 16:14:12.419546,1768378452,415935151,1,156379,0,1768378452,399237356,2,148052,0,1768378452,402604272,3,166800,0,1768378452,405900815,4,160845,0,1768378452,409237131,5,160159,0,1768378452,412561435,6,145179,0,-0.0010659071849659085,0.0004590779426507652,45.0009880065918,0.0011686694342643023,0.0006986531661823392,0.0007707766490057111,43.09621047973633,53.03549575805664,43.09633255004883,53.035003662109375,43.09825134277344,53.03953170776367,1768378452,404600727,X6-tool2,-0.13609589577262485,0.2593960826620745,44.60114590753882,0.013401804335696937,0.013476575638801943,0.03144942825601535,0.06098620221018791
2026-01-14 16:14:12.455160,1768378452,435892569,1,156379,0,1768378452,439218894,2,148052,0,1768378452,442604191,3,166800,0,1768378452,445880233,4,160845,0,1768378452,449268930,5,160159,0,1768378452,452545333,6,145179,0,-0.0010659071849659085,0.0004590779426507652,45.0009880065918,0.0011686694342643023,0.0006986531661823392,0.0007707766490057111,43.09621047973633,53.03549575805664,43.09633255004883,53.035003662109375,43.09825134277344,53.03953170776367,1768378452,404600727,X6-tool2,-0.13609589577262485,0.2593960826620745,44.60114590753882,0.013401804335696937,0.013476575638801943,0.03144942825601535,0.06098620221018791
2026-01-14 16:14:12.490402,1768378452,479219642,1,156313,-31,1768378452,482547097,2,148052,0,1768378452,485888712,3,166745,-25,1768378452,489221647,4,160642,-65,1768378452,472559663,5,160192,23,1768378452,475882457,6,145223,26,0.012805193662643433,0.00879969447851181,45.007938385009766,0.0037857512943446636,0.015554937534034252,0.011532628908753395,43.09621047973633,53.03549575805664,43.107330322265625,53.09500503540039,43.09825134277344,53.03953170776367,1768378452,404600727,X6-tool2,-0.13609589577262485,0.2593960826620745,44.60114590753882,0.013401804335696937,0.013476575638801943,0.03144942825601535,0.06098620221018791
2026-01-14 16:14:12.525356,1768378452,519198000,1,156165,-38,1768378452,522546636,2,148046,0,1768378452,505861580,3,166707,-20,1768378452,509219696,4,160488,-82,1768378452,512534100,5,160280,23,1768378452,515879636,6,145393,42,0.11241922527551651,0.031110085546970367,45.02742385864258,-0.01927304081618786,0.0606684535741806,0.012057894840836525,43.23320770263672,53.04149627685547,43.1893310546875,53.392005920410156,43.0212516784668,52.90753173828125,1768378452,504725368,X6-tool2,-0.12298451296621468,0.24856204735803517,44.63780928829054,0.013427961557243582,0.013994710264075656,0.03110408943636883,0.060237884521484375
2026-01-14 16:14:12.561101,1768378452,559220550,1,156022,-33,1768378452,542559995,2,148046,0,1768378452,545886730,3,166619,-23,1768378452,549224585,4,160214,-56,1768378452,552556110,5,160367,20,1768378452,555885945,6,145563,39,0.21387360990047455,0.04750281572341919,45.039337158203125,-0.041611600667238235,0.09301918745040894,-0.004786920268088579,43.38121032714844,53.04149627685547,43.2773323059082,53.6660041809082,42.928253173828125,52.7435302734375,1768378452,504725368,X6-tool2,-0.12298451296621468,0.24856204735803517,44.63780928829054,0.013427961557243582,0.013994710264075656,0.03110408943636883,0.060237884521484375
2026-01-14 16:14:12.596753,1768378452,579217739,1,155945,-43,1768378452,582602825,2,148041,0,1768378452,585905619,3,166514,-29,1768378452,589271135,4,159988,-48,1768378452,592566579,5,160483,30,1768378452,595937415,6,145728,47,0.2622406482696533,0.05128192529082298,45.04317855834961,-0.044314343482255936,0.10482019186019897,-0.022660456597805023,43.453208923339844,53.0464973449707,43.32733154296875,53.78700637817383,42.89025115966797,52.6555290222168,1768378452,504725368,X6-tool2,-0.12298451296621468,0.24856204735803517,44.63780928829054,0.013427961557243582,0.013994710264075656,0.03110408943636883,0.060237884521484375
2026-01-14 16:14:12.632080,1768378452,619214697,1,155764,-50,1768378452,622535042,2,148035,0,1768378452,625883057,3,166410,-27,1768378452,629199371,4,159769,-60,1768378452,612548388,5,160543,32,1768378452,615872282,6,145822,42,0.3486422896385193,0.05672261118888855,45.04769515991211,-0.0729224756360054,0.09199551492929459,-0.061670828610658646,43.617210388183594,53.05249786376953,43.43733215332031,53.99600601196289,42.774253845214844,52.49053192138672,1768378452,604590829,X6-tool2,0.010666916264295024,0.2340519923262344,44.62033621113628,0.014838294585224288,0.01522494432549774,0.03186903226939764,0.06722386926412582
2026-01-14 16:14:12.667616,1768378452,659217426,1,155594,-39,1768378452,662553581,2,148024,0,1768378452,665881976,3,166306,-27,1768378452,649197741,4,159648,-62,1768378452,652526505,5,160697,21,1768378452,655887211,6,145986,36,0.44209030270576477,0.06535594165325165,45.05411911010742,-0.11998668313026428,0.08107069879770279,-0.08659857511520386,43.8042106628418,53.0574951171875,43.53633117675781,54.23200607299805,42.63125228881836,52.32052993774414,1768378452,604590829,X6-tool2,0.010666916264295024,0.2340519923262344,44.62033621113628,0.014838294585224288,0.01522494432549774,0.03186903226939764,0.06722386926412582
2026-01-14 16:14:12.702574,1768378452,699219425,1,155418,-45,1768378452,682550250,2,148019,-7,1768378452,685880585,3,166256,-31,1768378452,689223760,4,159401,-66,1768378452,692550985,5,160812,30,1768378452,695882639,6,146135,37,0.5354070067405701,0.07501532137393951,45.063232421875,-0.14870178699493408,0.07615914940834045,-0.10265214741230011,43.969207763671875,53.06849670410156,43.64033126831055,54.47900390625,42.505252838134766,52.16053009033203,1768378452,604590829,X6-tool2,0.010666916264295024,0.2340519923262344,44.62033621113628,0.014838294585224288,0.01522494432549774,0.03186903226939764,0.06722386926412582
2026-01-14 16:14:12.738404,1768378452,719218164,1,155330,-49,1768378452,722534608,2,148013,-10,1768378452,725879953,3,166152,-22,1768378452,729217068,4,159120,-67,1768378452,732547033,5,160944,38,1768378452,735863627,6,146283,35,0.6346072554588318,0.09131765365600586,45.075740814208984,-0.1817341446876526,0.08439445495605469,-0.111913301050663,44.14521026611328,53.07449722290039,43.74433135986328,54.760005950927734,42.38425064086914,52.00653076171875,1768378452,704427570,X6-tool2,0.20577630594920973,0.18855163884034085,44.70097409667586,0.01564123441313005,0.01710891462744691,0.03358257562395336,0.06536865234375
2026-01-14 16:14:12.774112,1768378452,759217403,1,155176,-32,1768378452,762554637,2,148002,0,1768378452,765879962,3,166042,-27,1768378452,769216067,4,158813,-91,1768378452,772546692,5,161131,34,1768378452,755882277,6,146365,47,0.6830042004585266,0.0998452752828598,45.08293914794922,-0.19765454530715942,0.08052124828100204,-0.10833307355642319,44.227210998535156,53.079498291015625,43.79933166503906,54.90200424194336,42.31325149536133,51.93553161621094,1768378452,704427570,X6-tool2,0.20577630594920973,0.18855163884034085,44.70097409667586,0.01564123441313005,0.01710891462744691,0.03358257562395336,0.06536865234375
2026-01-14 16:14:12.809116,1768378452,799272503,1,155017,-42,1768378452,802547616,2,147991,-9,1768378452,805938403,3,165938,-28,1768378452,789215886,4,158665,-66,1768378452,792549461,5,161197,34,1768378452,795882086,6,146547,48,0.7924819588661194,0.11668211221694946,45.096710205078125,-0.22031262516975403,0.06542761623859406,-0.07316078245639801,44.370208740234375,53.09049606323242,43.90433120727539,55.215003967285156,42.126251220703125,51.76552963256836,1768378452,804598663,X6-tool2,0.4049547853576225,0.16875379325869763,44.80024593179435,0.01710805192816979,0.018592575500560593,0.036525397922558135,0.06208324432373047
2026-01-14 16:14:12.845239,1768378452,839258611,1,154819,-30,1768378452,842558495,2,147980,0,1768378452,825952552,3,165872,-33,1768378452,829276097,4,158390,-80,1768378452,832601402,5,161356,40,1768378452,835903355,6,146728,41,0.8970226645469666,0.12588141858577728,45.10379409790039,-0.2411157339811325,0.054951928555965424,-0.08907542377710342,44.55120849609375,53.101497650146484,44.024330139160156,55.49000549316406,41.983253479003906,51.578529357910156,1768378452,804598663,X6-tool2,0.4049547853576225,0.16875379325869763,44.80024593179435,0.01710805192816979,0.018592575500560593,0.036525397922558135,0.06208324432373047
2026-01-14 16:14:12.881209,1768378452,879272680,1,154666,-43,1768378452,862562404,2,147975,-5,1768378452,865935530,3,165745,-29,1768378452,869210583,4,158099,-75,1768378452,872602451,5,161510,43,1768378452,875896934,6,146926,49,1.003273367881775,0.13781222701072693,45.11274719238281,-0.26010704040527344,0.04353943094611168,-0.09422197192907333,44.73320770263672,53.11249542236328,44.15133285522461,55.781005859375,41.82925033569336,51.39752960205078,1768378452,804598663,X6-tool2,0.4049547853576225,0.16875379325869763,44.80024593179435,0.01710805192816979,0.018592575500560593,0.036525397922558135,0.06208324432373047
2026-01-14 16:14:12.916623,1768378452,899269259,1,154583,-40,1768378452,902565773,2,147958,-5,1768378452,905935739,3,165630,-23,1768378452,909241153,4,157808,-69,1768378452,912602119,5,161647,30,1768378452,915901473,6,147140,53,1.1169766187667847,0.14326125383377075,45.11753845214844,-0.25984010100364685,0.02661926858127117,-0.09647974371910095,44.892208099365234,53.12949752807617,44.26633071899414,56.07200622558594,41.67625045776367,51.18252944946289,1768378452,904551247,X6-tool2,0.61763264592672,0.16501476843749438,44.83938436337273,0.020024694081317206,0.01941963499713026,0.03821503277832332,0.06559339910745621
2026-01-14 16:14:12.952110,1768378452,939271768,1,154413,-41,1768378452,942569512,2,147947,-3,1768378452,945935828,3,165547,-21,1768378452,949241691,4,157516,-76,1768378452,932569767,5,161719,37,1768378452,935875531,6,147250,57,1.1735849380493164,0.14780497550964355,45.120086669921875,-0.2640301287174225,0.04181111976504326,-0.09749560803174973,44.97420883178711,53.13449478149414,44.31032943725586,56.221004486083984,41.610252380371094,51.078529357910156,1768378452,904551247,X6-tool2,0.61763264592672,0.16501476843749438,44.83938436337273,0.020024694081317206,0.01941963499713026,0.03821503277832332,0.06559339910745621
2026-01-14 16:14:12.987964,1768378452,979274127,1,154270,-39,1768378452,982595611,2,147936,0,1768378452,985938297,3,165454,-25,1768378452,969254611,4,157385,-64,1768378452,972603827,5,161862,41,1768378452,975926221,6,147497,56,1.2877215147018433,0.1494494378566742,45.118839263916016,-0.26024848222732544,0.05523092672228813,-0.1017296090722084,45.12820816040039,53.1454963684082,44.392330169677734,56.4950065612793,41.46725082397461,50.842529296875,1768378452,904551247,X6-tool2,0.61763264592672,0.16501476843749438,44.83938436337273,0.020024694081317206,0.01941963499713026,0.03821503277832332,0.06559339910745621
2026-01-14 16:14:13.024354,1768378453,19275125,1,154122,-35,1768378453,22592779,2,147925,0,1768378453,5938776,3,165405,-21,1768378453,9258420,4,157104,-63,1768378453,12605595,5,162026,37,1768378453,15900459,6,147717,55,1.4017513990402222,0.1524275243282318,45.118289947509766,-0.25372499227523804,0.06115259602665901,-0.103803850710392,45.28221130371094,53.156497955322266,44.491329193115234,56.776004791259766,41.31325149536133,50.61153030395508,1768378453,4372087,X6-tool2,0.9256644603750326,0.16391297901557855,44.86827006385799,0.020374275690205713,0.01914723291065995,0.037441385220040084,0.06305821985006332
2026-01-14 16:14:13.059999,1768378453,59260073,1,153968,-32,1768378453,42592659,2,147914,0,1768378453,45939054,3,165311,-24,1768378453,49259689,4,156857,-67,1768378453,52606294,5,162202,44,1768378453,55924988,6,147958,55,1.5066874027252197,0.1497524529695511,45.115264892578125,-0.2484881430864334,0.03761806711554527,-0.10305579006671906,45.425209045410156,53.17349624633789,44.585330963134766,57.023006439208984,41.148250579833984,50.386531829833984,1768378453,4372087,X6-tool2,0.9256644603750326,0.16391297901557855,44.86827006385799,0.020374275690205713,0.01914723291065995,0.037441385220040084,0.06305821985006332
2026-01-14 16:14:13.095026,1768378453,79224081,1,153896,-43,1768378453,82576697,2,147898,-4,1768378453,85939343,3,165229,-15,1768378453,89242736,4,156588,-63,1768378453,92575041,5,162361,46,1768378453,75907117,6,148074,55,1.563925862312317,0.14860868453979492,45.1121940612793,-0.2484881430864334,0.03761806711554527,-0.10305579006671906,45.50720977783203,53.178497314453125,44.629329681396484,57.155006408691406,41.05525207519531,50.26053237915039,1768378453,4372087,X6-tool2,0.9256644603750326,0.16391297901557855,44.86827006385799,0.020374275690205713,0.01914723291065995,0.037441385220040084,0.06305821985006332
2026-01-14 16:14:13.131519,1768378453,119274581,1,153754,-28,1768378453,122596536,2,147881,-8,1768378453,125936651,3,165163,-16,1768378453,129260115,4,156297,-76,1768378453,112602721,5,162438,37,1768378453,115926446,6,148299,65,1.675360918045044,0.1482703685760498,45.11012649536133,-0.24081945419311523,0.033258553594350815,-0.08909395337104797,45.650211334228516,53.19549560546875,44.706329345703125,57.42900466918945,40.8962516784668,50.0295295715332,1768378453,104370713,X6-tool2,1.229124343034013,0.12734447181578906,44.9373625972936,0.020971030162216034,0.018931358517060622,0.03717200332677365,0.06319745630025864
2026-01-14 16:14:13.166674,1768378453,159273090,1,153622,-41,1768378453,162562073,2,147859,-10,1768378453,165938449,3,165108,-16,1768378453,149243774,4,156138,-72,1768378453,152574789,5,162603,48,1768378453,155921874,6,148508,58,1.7919864654541016,0.1527777463197708,45.113182067871094,-0.2281048446893692,0.060191810131073,-0.049097370356321335,45.78221130371094,53.21749496459961,44.761329650878906,57.74200439453125,40.74725341796875,49.809532165527344,1768378453,104370713,X6-tool2,1.229124343034013,0.12734447181578906,44.9373625972936,0.020971030162216034,0.018931358517060622,0.03717200332677365,0.06319745630025864
2026-01-14 16:14:13.202081,1768378453,199274278,1,153441,-47,1768378453,182595063,2,147849,-10,1768378453,185939358,3,165081,-10,1768378453,189255003,4,155797,-109,1768378453,192605328,5,162751,36,1768378453,195927763,6,148705,54,1.9087892770767212,0.1638612598180771,45.12101364135742,-0.23943257331848145,0.07993624359369278,0.007498599588871002,45.947208404541016,53.238494873046875,44.815330505371094,58.083003997802734,40.57725143432617,49.61153030395508,1768378453,104370713,X6-tool2,1.229124343034013,0.12734447181578906,44.9373625972936,0.020971030162216034,0.018931358517060622,0.03717200332677365,0.06319745630025864
2026-01-14 16:14:13.238102,1768378453,219272267,1,153320,-51,1768378453,222590402,2,147821,-6,1768378453,225935537,3,165009,-17,1768378453,229256961,4,155500,-65,1768378453,232602977,5,162883,27,1768378453,235902360,6,148914,53,2.018162965774536,0.16550274193286896,45.12354278564453,-0.2550254166126251,0.09268327802419662,0.018519289791584015,46.155208587646484,53.26649475097656,44.887332916259766,58.3800048828125,40.43425369262695,49.40353012084961,1768378453,212641889,X6-tool2,1.4876448381498277,0.12348033262644614,44.8537028634262,0.021080907184226765,0.019379951334800045,0.03767946341816707,0.06710179895162582
2026-01-14 16:14:13.274113,1768378453,259286826,1,153116,-44,1768378453,262621561,2,147799,-10,1768378453,265953016,3,164921,-22,1768378453,269285071,4,155220,-68,1768378453,272616556,5,162999,29,1768378453,255957022,6,149024,57,2.0701563358306885,0.16692544519901276,45.12432098388672,-0.2578616738319397,0.09855328500270844,0.016339093446731567,46.25421142578125,53.277496337890625,44.931331634521484,58.522003173828125,40.37425231933594,49.30453109741211,1768378453,212641889,X6-tool2,1.4876448381498277,0.12348033262644614,44.8537028634262,0.021080907184226765,0.019379951334800045,0.03767946341816707,0.06710179895162582
2026-01-14 16:14:13.309119,1768378453,299285275,1,152930,-54,1768378453,302619400,2,147777,-4,1768378453,305953354,3,164828,-21,1768378453,289284680,4,155078,-75,1768378453,292623065,5,163065,37,1768378453,295954170,6,149222,50,2.1754729747772217,0.16751694679260254,45.12358856201172,-0.258640855550766,0.10827437043190002,0.00582337798550725,46.44620895385742,53.299495697021484,45.01933288574219,58.802005767822266,40.25825119018555,49.09553146362305,1768378453,212641889,X6-tool2,1.4876448381498277,0.12348033262644614,44.8537028634262,0.021080907184226765,0.019379951334800045,0.03767946341816707,0.06710179895162582
2026-01-14 16:14:13.344412,1768378453,339287673,1,152732,-51,1768378453,342616038,2,147750,0,1768378453,325954804,3,164784,-21,1768378453,329283719,4,154808,-63,1768378453,332617093,5,163202,33,1768378453,335952318,6,149442,59,2.276897430419922,0.16736319661140442,45.122230529785156,-0.258640855550766,0.10827437043190002,0.00582337798550725,46.63920974731445,53.321495056152344,45.11233139038086,59.07200622558594,40.12725067138672,48.89253234863281,1768378453,312364955,X6-tool2,1.781463565556892,0.15517578769161797,44.89610159887112,0.021700401089906323,0.018516022495828826,0.03723934979338266,0.06322383880615234
2026-01-14 16:14:13.379405,1768378453,359288592,1,152644,-42,1768378453,362621128,2,147739,-8,1768378453,365951932,3,164713,-19,1768378453,369284577,4,154523,-75,1768378453,372617582,5,163334,30,1768378453,375952887,6,149683,58,2.3872785568237305,0.16344858705997467,45.11831283569336,-0.25466489791870117,0.12358520179986954,0.008877336978912354,46.83121109008789,53.34849548339844,45.18333053588867,59.35700607299805,39.9842529296875,48.661529541015625,1768378453,312364955,X6-tool2,1.781463565556892,0.15517578769161797,44.89610159887112,0.021700401089906323,0.018516022495828826,0.03723934979338266,0.06322383880615234
2026-01-14 16:14:13.415053,1768378453,399274810,1,152474,-39,1768378453,402602035,2,147711,-2,1768378453,405910079,3,164641,-21,1768378453,409269225,4,154215,-75,1768378453,412577749,5,163477,43,1768378453,395945086,6,149799,53,2.444772720336914,0.15892750024795532,45.11508560180664,-0.24069130420684814,0.1379869431257248,0.010629621334373951,46.9132080078125,53.36549758911133,45.216331481933594,59.500003814697266,39.92325210571289,48.53553009033203,1768378453,411864312,X6-tool2,2.0190599048517366,0.0655592965466147,44.94056821792898,0.02078866259799845,0.01945680713343116,0.0367401342124705,0.0600687675178051
2026-01-14 16:14:13.451614,1768378453,439216707,1,152298,-40,1768378453,442601064,2,147667,-10,1768378453,445886236,3,164559,-21,1768378453,449259413,4,153951,-60,1768378453,432546897,5,163564,50,1768378453,435933023,6,150057,64,2.5580573081970215,0.15190815925598145,45.1098518371582,-0.22201767563819885,0.1483670473098755,0.01987537555396557,47.089210510253906,53.398494720458984,45.293331146240234,59.7910041809082,39.780250549316406,48.29352951049805,1768378453,411864312,X6-tool2,2.0190599048517366,0.0655592965466147,44.94056821792898,0.02078866259799845,0.01945680713343116,0.0367401342124705,0.0600687675178051
2026-01-14 16:14:13.486740,1768378453,479236196,1,152155,-36,1768378453,482602722,2,147590,-18,1768378453,485900955,3,164454,-32,1768378453,469268752,4,153820,-68,1768378453,472569816,5,163762,43,1768378453,475933742,6,150304,68,2.6676223278045654,0.13451363146305084,45.1038818359375,-0.20191144943237305,0.10533147305250168,0.05179765075445175,47.24821090698242,53.453495025634766,45.38133239746094,60.06000518798828,39.57225036621094,48.046531677246094,1768378453,411864312,X6-tool2,2.0190599048517366,0.0655592965466147,44.94056821792898,0.02078866259799845,0.01945680713343116,0.0367401342124705,0.0600687675178051
2026-01-14 16:14:13.521800,1768378453,519215154,1,151996,-21,1768378453,502601431,2,147557,-12,1768378453,505882524,3,164372,-42,1768378453,509268071,4,153523,-70,1768378453,512544704,5,163949,44,1768378453,515936051,6,150562,53,2.786050796508789,0.11118669807910919,45.09965133666992,-0.13871245086193085,0.06400218605995178,0.05247486010193825,47.39720916748047,53.530494689941406,45.524330139160156,60.35700607299805,39.40725326538086,47.78253173828125,1768378453,511288176,X6-tool2,2.350692420841214,0.046974024713294024,44.885701658968394,0.022897221369614217,0.020321834402584504,0.03726601780012685,0.06284967809915543
2026-01-14 16:14:13.557804,1768378453,539214403,1,151974,0,1768378453,542563628,2,147497,-6,1768378453,545881252,3,164323,0,1768378453,549200446,4,153364,-6,1768378453,552547362,5,164152,31,1768378453,555864656,6,150793,61,2.871889114379883,0.07877615839242935,45.08465576171875,-0.11420337110757828,0.005765164270997047,0.08167710155248642,47.5012092590332,53.59049606323242,45.57332992553711,60.51600646972656,39.1982536315918,47.54153060913086,1768378453,511288176,X6-tool2,2.350692420841214,0.046974024713294024,44.885701658968394,0.022897221369614217,0.020321834402584504,0.03726601780012685,0.06284967809915543
2026-01-14 16:14:13.593983,1768378453,579210931,1,151968,0,1768378453,582553666,2,147480,-5,1768378453,585882171,3,164317,0,1768378453,589223596,4,153358,0,1768378453,592545061,5,164284,13,1768378453,575886846,6,150914,68,2.8994669914245605,0.059813566505908966,45.06941604614258,-0.09796573966741562,-0.02541619911789894,0.08346276730298996,47.50720977783203,53.601497650146484,45.57933044433594,60.522003173828125,39.10525131225586,47.42552947998047,1768378453,511288176,X6-tool2,2.350692420841214,0.046974024713294024,44.885701658968394,0.022897221369614217,0.020321834402584504,0.03726601780012685,0.06284967809915543
2026-01-14 16:14:13.628961,1768378453,619209909,1,151968,0,1768378453,622552414,2,147464,0,1768378453,625880559,3,164317,0,1768378453,609219165,4,153358,0,1768378453,612544610,5,164295,0,1768378453,615883115,6,151139,54,2.9532716274261475,0.02129116654396057,45.036590576171875,-0.05203068628907204,-0.05122601240873337,0.06626840680837631,47.50720977783203,53.61849594116211,45.57933044433594,60.522003173828125,38.97325134277344,47.18952941894531,1768378453,610802344,X6-tool2,2.5277531073938757,-0.05973893035692783,44.829395344767725,0.024249140914151635,0.0225143911398096,0.038746335144940774,0.06037712097167969
2026-01-14 16:14:13.665203,1768378453,659214518,1,151968,0,1768378453,662559733,2,147458,-5,1768378453,645886709,3,164317,0,1768378453,649196203,4,153358,0,1768378453,652549018,5,164301,0,1768378453,655883703,6,151227,6,2.9945969581604004,-0.007693496998399496,45.011009216308594,0.0026402261573821306,-0.020963754504919052,0.01745964027941227,47.50720977783203,53.62949752807617,45.57933044433594,60.522003173828125,38.95625305175781,47.00852966308594,1768378453,610802344,X6-tool2,2.5277531073938757,-0.05973893035692783,44.829395344767725,0.024249140914151635,0.0225143911398096,0.038746335144940774,0.06037712097167969
2026-01-14 16:14:13.700864,1768378453,699212136,1,151968,0,1768378453,682552782,2,147453,-2,1768378453,685881327,3,164317,0,1768378453,689217972,4,153358,0,1768378453,692545127,5,164301,0,1768378453,695882741,6,151232,0,2.9996337890625,-0.012321468442678452,45.00830078125,0.007889432832598686,-0.017002662643790245,0.012013815343379974,47.50720977783203,53.63449478149414,45.57933044433594,60.522003173828125,38.95625305175781,46.98653030395508,1768378453,610802344,X6-tool2,2.5277531073938757,-0.05973893035692783,44.829395344767725,0.024249140914151635,0.0225143911398096,0.038746335144940774,0.06037712097167969
2026-01-14 16:14:13.735828,1768378453,719212845,1,151968,0,1768378453,722584132,2,147448,0,1768378453,725884385,3,164317,0,1768378453,729212510,4,153358,0,1768378453,732547885,5,164301,0,1768378453,715883431,6,151232,0,2.999647617340088,-0.013825626112520695,45.00886154174805,0.007889432832598686,-0.017002662643790245,0.012013815343379974,47.50720977783203,53.639495849609375,45.57933044433594,60.522003173828125,38.95625305175781,46.98653030395508,1768378453,710267091,X6-tool2,2.5808126940542393,-0.061355487705491284,44.811257507898475,0.024438219707650914,0.023076485267655048,0.03850154132870306,0.06411552429199219
2026-01-14 16:14:13.771617,1768378453,759218224,1,151968,0,1768378453,762554199,2,147442,0,1768378453,765879594,3,164317,0,1768378453,769218489,4,153358,0,1768378453,752548424,5,164301,0,1768378453,755886800,6,151232,0,2.999664306640625,-0.015630535781383514,45.00953674316406,0.013806648552417755,-0.018778249621391296,0.013907717540860176,47.50720977783203,53.6454963684082,45.57933044433594,60.522003173828125,38.95625305175781,46.98653030395508,1768378453,710267091,X6-tool2,2.5808126940542393,-0.061355487705491284,44.811257507898475,0.024438219707650914,0.023076485267655048,0.03850154132870306,0.06411552429199219
2026-01-14 16:14:13.808168,1768378453,799214853,1,151968,0,1768378453,802548667,2,147442,0,1768378453,805881992,3,164317,0,1768378453,789218508,4,153358,0,1768378453,792545402,5,164301,0,1768378453,795883207,6,151232,0,2.999664306640625,-0.015630535781383514,45.00953674316406,0.013806648552417755,-0.018778249621391296,0.013907717540860176,47.50720977783203,53.6454963684082,45.57933044433594,60.522003173828125,38.95625305175781,46.98653030395508,1768378453,710267091,X6-tool2,2.5808126940542393,-0.061355487705491284,44.811257507898475,0.024438219707650914,0.023076485267655048,0.03850154132870306,0.06411552429199219
2026-01-14 16:14:13.843649,1768378453,839221741,1,151968,0,1768378453,842551236,2,147442,0,1768378453,825879001,3,164317,0,1768378453,829218636,4,153358,0,1768378453,832547841,5,164301,0,1768378453,835887246,6,151232,0,2.999664306640625,-0.015630535781383514,45.00953674316406,0.013806648552417755,-0.018778249621391296,0.013907717540860176,47.50720977783203,53.6454963684082,45.57933044433594,60.522003173828125,38.95625305175781,46.98653030395508,1768378453,809599011,X6-tool2,2.6047626141102205,-0.05823375888349603,44.76783762223507,0.024665547055463807,0.022262645347244994,0.03854935013672891,0.06446298211812973
2026-01-14 16:14:13.878995,1768378453,859206530,1,151968,0,1768378453,862549705,2,147442,0,1768378453,865882440,3,164323,0,1768378453,869204114,4,153358,0,1768378453,872546229,5,164301,0,1768378453,875884825,6,151238,0,3.0010344982147217,-0.016482776030898094,45.008644104003906,0.013806648552417755,-0.018778249621391296,0.013907717540860176,47.50720977783203,53.6454963684082,45.57332992553711,60.522003173828125,38.95625305175781,46.98052978515625,1768378453,809599011,X6-tool2,2.6047626141102205,-0.05823375888349603,44.76783762223507,0.024665547055463807,0.022262645347244994,0.03854935013672891,0.06446298211812973
2026-01-14 16:14:13.914698,1768378453,899215709,1,151968,0,1768378453,902533893,2,147442,0,1768378453,905879898,3,164323,0,1768378453,909217633,4,153358,0,1768378453,912545998,5,164301,0,1768378453,895864743,6,151238,0,3.0010344982147217,-0.016482776030898094,45.008644104003906,0.013806648552417755,-0.018778249621391296,0.013907717540860176,47.50720977783203,53.6454963684082,45.57332992553711,60.522003173828125,38.95625305175781,46.98052978515625,1768378453,909227543,X6-tool2,2.569379966186885,-0.054234973287995494,44.8257439669507,0.02451802451220541,0.023264156525022152,0.03848948945221544,0.06610107421875
2026-01-14 16:14:13.950009,1768378453,939212387,1,151968,0,1768378453,942552782,2,147442,0,1768378453,945882657,3,164323,0,1768378453,949214962,4,153358,0,1768378453,932548147,5,164301,0,1768378453,935883422,6,151238,0,3.0010344982147217,-0.016482776030898094,45.008644104003906,0.013806648552417755,-0.018778249621391296,0.013907717540860176,47.50720977783203,53.6454963684082,45.57332992553711,60.522003173828125,38.95625305175781,46.98052978515625,1768378453,909227543,X6-tool2,2.569379966186885,-0.054234973287995494,44.8257439669507,0.02451802451220541,0.023264156525022152,0.03848948945221544,0.06610107421875
2026-01-14 16:14:13.985905,1768378453,979218285,1,151968,0,1768378453,982547480,2,147442,0,1768378453,965878666,3,164323,0,1768378453,969214440,4,153358,0,1768378453,972549216,5,164295,-5,1768378453,975881770,6,151238,0,3.0010344982147217,-0.016482776030898094,45.008644104003906,0.013806648552417755,-0.018778249621391296,0.013907717540860176,47.50720977783203,53.6454963684082,45.57332992553711,60.522003173828125,38.95625305175781,46.98052978515625,1768378453,909227543,X6-tool2,2.569379966186885,-0.054234973287995494,44.8257439669507,0.02451802451220541,0.023264156525022152,0.03848948945221544,0.06610107421875
2026-01-14 16:14:14.021492,1768378454,19214814,1,151968,0,1768378454,2603921,2,147442,0,1768378454,5898335,3,164323,0,1768378454,9270291,4,153358,2,1768378454,12564924,5,164301,0,1768378454,15934841,6,151238,0,3.0010344982147217,-0.016482776030898094,45.008644104003906,0.015510081313550472,-0.010623853653669357,0.012238596566021442,47.50720977783203,53.6454963684082,45.57332992553711,60.522003173828125,38.95625305175781,46.98052978515625,1768378454,8535634,X6-tool2,2.607506679711085,-0.07107865751253765,44.79095075832711,0.024136313435461555,0.02241430938232905,0.03853175839422187,0.06283219903707504
2026-01-14 16:14:14.056539,1768378454,39239243,1,151968,0,1768378454,42559498,2,147442,0,1768378454,45878022,3,164323,0,1768378454,49221668,4,153364,0,1768378454,52561142,5,164301,0,1768378454,55889058,6,151238,0,2.9998812675476074,-0.017215628176927567,45.008148193359375,0.015510081313550472,-0.010623853653669357,0.012238596566021442,47.50720977783203,53.6454963684082,45.57332992553711,60.51600646972656,38.95625305175781,46.98052978515625,1768378454,8535634,X6-tool2,2.607506679711085,-0.07107865751253765,44.79095075832711,0.024136313435461555,0.02241430938232905,0.03853175839422187,0.06283219903707504
2026-01-14 16:14:14.091767,1768378454,79228932,1,151968,0,1768378454,82602538,2,147442,0,1768378454,85901012,3,164323,0,1768378454,89268848,4,153364,0,1768378454,72552551,5,164295,0,1768378454,75936568,6,151238,0,2.9998812675476074,-0.017215628176927567,45.008148193359375,0.015510081313550472,-0.010623853653669357,0.012238596566021442,47.50720977783203,53.6454963684082,45.57332992553711,60.51600646972656,38.95625305175781,46.98052978515625,1768378454,8535634,X6-tool2,2.607506679711085,-0.07107865751253765,44.79095075832711,0.024136313435461555,0.02241430938232905,0.03853175839422187,0.06283219903707504
2026-01-14 16:14:14.127337,1768378454,119241750,1,151968,0,1768378454,122604306,2,147442,0,1768378454,125901210,3,164323,0,1768378454,109266887,4,153364,0,1768378454,112566561,5,164295,0,1768378454,115934576,6,151238,0,2.9998812675476074,-0.017215628176927567,45.008148193359375,0.015510081313550472,-0.010623853653669357,0.012238596566021442,47.50720977783203,53.6454963684082,45.57332992553711,60.51600646972656,38.96225357055664,46.98052978515625,1768378454,108234818,X6-tool2,2.5882500873832326,-0.07811014374561112,44.795204069605674,0.02414317333164864,0.022713096991737142,0.03860083266680989,0.06365013122558594
2026-01-14 16:14:14.162342,1768378454,159240069,1,151968,0,1768378454,142601195,2,147442,0,1768378454,145902009,3,164323,0,1768378454,149267585,4,153364,0,1768378454,152591280,5,164295,0,1768378454,155934514,6,151238,0,2.9998812675476074,-0.017215628176927567,45.008148193359375,0.015510081313550472,-0.010623853653669357,0.012238596566021442,47.50720977783203,53.6454963684082,45.57332992553711,60.51600646972656,38.96225357055664,46.98052978515625,1768378454,108234818,X6-tool2,2.5882500873832326,-0.07811014374561112,44.795204069605674,0.02414317333164864,0.022713096991737142,0.03860083266680989,0.06365013122558594
2026-01-14 16:14:14.198002,1768378454,179230907,1,151968,0,1768378454,182601564,2,147442,0,1768378454,185924088,3,164323,0,1768378454,189267743,4,153364,5,1768378454,192568267,5,164295,0,1768378454,195933983,6,151238,0,2.9998812675476074,-0.017215628176927567,45.008148193359375,0.015510081313550472,-0.010623853653669357,0.012238596566021442,47.50720977783203,53.6454963684082,45.57332992553711,60.51600646972656,38.96225357055664,46.98052978515625,1768378454,108234818,X6-tool2,2.5882500873832326,-0.07811014374561112,44.795204069605674,0.02414317333164864,0.022713096991737142,0.03860083266680989,0.06365013122558594
2026-01-14 16:14:14.233323,1768378454,219234446,1,151968,0,1768378454,222602922,2,147442,0,1768378454,225924126,3,164323,0,1768378454,229236470,4,153364,0,1768378454,232564955,5,164295,0,1768378454,215932372,6,151238,0,2.9998812675476074,-0.017215628176927567,45.008148193359375,0.015510081313550472,-0.010623853653669357,0.012238596566021442,47.50720977783203,53.6454963684082,45.57332992553711,60.51600646972656,38.96225357055664,46.98052978515625,1768378454,207667903,X6-tool2,2.583628006834372,-0.05877037523990346,44.80618061922438,0.02445816265808967,0.022821908945407962,0.0385725216388392,0.06480852514505386
2026-01-14 16:14:14.268509,1768378454,259222653,1,151968,0,1768378454,262588190,2,147442,0,1768378454,265905664,3,164323,0,1768378454,249252060,4,153364,0,1768378454,252545644,5,164295,0,1768378454,255902159,6,151238,0,2.9998812675476074,-0.017215628176927567,45.008148193359375,0.015510081313550472,-0.010623853653669357,0.012238596566021442,47.50720977783203,53.6454963684082,45.57332992553711,60.51600646972656,38.96225357055664,46.98052978515625,1768378454,207667903,X6-tool2,2.583628006834372,-0.05877037523990346,44.80618061922438,0.02445816265808967,0.022821908945407962,0.0385725216388392,0.06480852514505386
2026-01-14 16:14:14.304350,1768378454,299237713,1,151968,0,1768378454,302604368,2,147448,0,1768378454,285921804,3,164323,0,1768378454,289267559,4,153364,0,1768378454,292573833,5,164295,0,1768378454,295934478,6,151238,0,2.9998812675476074,-0.017215628176927567,45.008148193359375,0.015510081313550472,-0.010623853653669357,0.012238596566021442,47.50720977783203,53.6454963684082,45.57332992553711,60.51600646972656,38.96225357055664,46.98052978515625,1768378454,207667903,X6-tool2,2.583628006834372,-0.05877037523990346,44.80618061922438,0.02445816265808967,0.022821908945407962,0.0385725216388392,0.06480852514505386
2026-01-14 16:14:14.339488,1768378454,319235591,1,151968,0,1768378454,322609438,2,147448,0,1768378454,325924642,3,164323,0,1768378454,329269257,4,153364,0,1768378454,332570631,5,164295,0,1768378454,335933517,6,151238,0,2.9998645782470703,-0.015410728752613068,45.00747299194336,0.015510081313550472,-0.010623853653669357,0.012238596566021442,47.50720977783203,53.639495849609375,45.57332992553711,60.51600646972656,38.96225357055664,46.98052978515625,1768378454,307224571,X6-tool2,2.622254111486332,-0.09226788953196938,44.76454302618559,0.023781933053933692,0.022019008281859133,0.038551535865362606,0.06427320092916489
2026-01-14 16:14:14.375537,1768378454,359239250,1,151968,0,1768378454,362599596,2,147448,5,1768378454,365922120,3,164323,0,1768378454,369270016,4,153364,0,1768378454,372567229,5,164295,0,1768378454,355934776,6,151238,0,2.9998645782470703,-0.015410728752613068,45.00747299194336,0.015510081313550472,-0.010623853653669357,0.012238596566021442,47.50720977783203,53.639495849609375,45.57332992553711,60.51600646972656,38.96225357055664,46.98052978515625,1768378454,307224571,X6-tool2,2.622254111486332,-0.09226788953196938,44.76454302618559,0.023781933053933692,0.022019008281859133,0.038551535865362606,0.06427320092916489
2026-01-14 16:14:14.411340,1768378454,399216917,1,151968,0,1768378454,402599254,2,147448,0,1768378454,405937269,3,164323,0,1768378454,409233202,4,153364,0,1768378454,392542817,5,164295,0,1768378454,395929934,6,151238,0,2.9998645782470703,-0.015410728752613068,45.00747299194336,0.015510081313550472,-0.010623853653669357,0.012238596566021442,47.50720977783203,53.639495849609375,45.57332992553711,60.51600646972656,38.96225357055664,46.98052978515625,1768378454,406453449,X6-tool2,2.5961649806018787,-0.07390332111892245,44.78925901755766,0.024240294658454457,0.022482970795710065,0.038577407348023264,0.06356557458639145
2026-01-14 16:14:14.447327,1768378454,439211645,1,151968,0,1768378454,442545690,2,147448,0,1768378454,445861194,3,164323,0,1768378454,429222391,4,153364,0,1768378454,432547366,5,164295,0,1768378454,435900001,6,151238,0,2.9998645782470703,-0.015410728752613068,45.00747299194336,0.015510081313550472,-0.010623853653669357,0.012238596566021442,47.50720977783203,53.639495849609375,45.57332992553711,60.51600646972656,38.96225357055664,46.98052978515625,1768378454,406453449,X6-tool2,2.5961649806018787,-0.07390332111892245,44.78925901755766,0.024240294658454457,0.022482970795710065,0.038577407348023264,0.06356557458639145
2026-01-14 16:14:14.482566,1768378454,479210923,1,151968,0,1768378454,462557040,2,147448,0,1768378454,465920746,3,164323,0,1768378454,469218389,4,153364,0,1768378454,472591115,5,164295,0,1768378454,475911330,6,151238,0,2.9998645782470703,-0.015410728752613068,45.00747299194336,0.015510081313550472,-0.010623853653669357,0.012238596566021442,47.50720977783203,53.639495849609375,45.57332992553711,60.51600646972656,38.96225357055664,46.98052978515625,1768378454,406453449,X6-tool2,2.5961649806018787,-0.07390332111892245,44.78925901755766,0.024240294658454457,0.022482970795710065,0.038577407348023264,0.06356557458639145
2026-01-14 16:14:14.518076,1768378454,499218923,1,151968,0,1768378454,502561328,2,147448,0,1768378454,505881812,3,164323,0,1768378454,509209467,4,153364,0,1768378454,512561333,5,164295,0,1768378454,515875197,6,151238,0,2.9998645782470703,-0.015410728752613068,45.00747299194336,0.015510081313550472,-0.010623853653669357,0.012238596566021442,47.50720977783203,53.639495849609375,45.57332992553711,60.51600646972656,38.96225357055664,46.98052978515625,1768378454,506216595,X6-tool2,2.5949262890458153,-0.0801397760736145,44.77355654340249,0.023824970543880608,0.02264499119984648,0.038518588096307683,0.06556288152933121
2026-01-14 16:14:14.553173,1768378454,539226101,1,151968,0,1768378454,542528235,2,147453,0,1768378454,545869240,3,164323,0,1768378454,549194585,4,153364,0,1768378454,552533020,5,164295,0,1768378454,535915658,6,151238,0,2.9998645782470703,-0.015410728752613068,45.00747299194336,0.015510081313550472,-0.010623853653669357,0.012238596566021442,47.50720977783203,53.639495849609375,45.57332992553711,60.51600646972656,38.96225357055664,46.98052978515625,1768378454,506216595,X6-tool2,2.5949262890458153,-0.0801397760736145,44.77355654340249,0.023824970543880608,0.02264499119984648,0.038518588096307683,0.06556288152933121
2026-01-14 16:14:14.588472,1768378454,579216520,1,151968,0,1768378454,582573465,2,147453,0,1768378454,585888119,3,164323,0,1768378454,569191264,4,153364,0,1768378454,572527499,5,164295,0,1768378454,575868664,6,151238,0,2.9998505115509033,-0.013906581327319145,45.00691223144531,0.011991571635007858,-0.010217854753136635,0.007789319381117821,47.50720977783203,53.63449478149414,45.57332992553711,60.51600646972656,38.96225357055664,46.98052978515625,1768378454,506216595,X6-tool2,2.5949262890458153,-0.0801397760736145,44.77355654340249,0.023824970543880608,0.02264499119984648,0.038518588096307683,0.06556288152933121
2026-01-14 16:14:14.624020,1768378454,619222028,1,151968,0,1768378454,622553243,2,147453,0,1768378454,605894279,3,164323,0,1768378454,609197202,4,153364,0,1768378454,612567758,5,164295,0,1768378454,615861302,6,151238,0,2.9998505115509033,-0.013906581327319145,45.00691223144531,0.011991571635007858,-0.010217854753136635,0.007789319381117821,47.50720977783203,53.63449478149414,45.57332992553711,60.51600646972656,38.96225357055664,46.98052978515625,1768378454,605353328,X6-tool2,2.600298567224048,-0.05769930481953016,44.82993661974355,0.024476569383451833,0.02266795523286441,0.038487999848426414,0.06463368982076645
2026-01-14 16:14:14.659467,1768378454,639253258,1,151968,0,1768378454,642556102,2,147453,0,1768378454,645907147,3,164323,0,1768378454,649200221,4,153364,0,1768378454,652559387,5,164295,0,1768378454,655864770,6,151238,0,2.9998505115509033,-0.013906581327319145,45.00691223144531,0.011991571635007858,-0.010217854753136635,0.007789319381117821,47.50720977783203,53.63449478149414,45.57332992553711,60.51600646972656,38.96225357055664,46.98052978515625,1768378454,605353328,X6-tool2,2.600298567224048,-0.05769930481953016,44.82993661974355,0.024476569383451833,0.02266795523286441,0.038487999848426414,0.06463368982076645
2026-01-14 16:14:14.695451,1768378454,679231515,1,151968,0,1768378454,682568091,2,147453,0,1768378454,685921606,3,164323,0,1768378454,689217120,4,153364,0,1768378454,692558795,5,164295,0,1768378454,675886161,6,151238,0,2.9998505115509033,-0.013906581327319145,45.00691223144531,0.011991571635007858,-0.010217854753136635,0.007789319381117821,47.50720977783203,53.63449478149414,45.57332992553711,60.51600646972656,38.96225357055664,46.98052978515625,1768378454,605353328,X6-tool2,2.600298567224048,-0.05769930481953016,44.82993661974355,0.024476569383451833,0.02266795523286441,0.038487999848426414,0.06463368982076645
2026-01-14 16:14:14.731076,1768378454,719219254,1,151968,0,1768378454,722643692,2,147458,0,1768378454,725884163,3,164323,0,1768378454,729141655,4,153364,0,1768378454,712558234,5,164295,0,1768378454,715916250,6,151238,0,2.9998366832733154,-0.012402373366057873,45.006351470947266,0.011991571635007858,-0.010217854753136635,0.007789319381117821,47.50720977783203,53.62949752807617,45.57332992553711,60.51600646972656,38.96225357055664,46.98052978515625,1768378454,705162237,X6-tool2,2.6034580746207885,-0.0521315803522218,44.78832350214267,0.024563905621067278,0.02247188523201374,0.03835168576868368,0.0643301010131836
2026-01-14 16:14:14.767547,1768378454,759213411,1,151968,0,1768378454,762553366,2,147458,0,1768378454,765919683,3,164323,0,1768378454,749213887,4,153364,0,1768378454,752638475,5,164295,0,1768378454,755886647,6,151238,0,2.9998366832733154,-0.012402373366057873,45.006351470947266,0.011991571635007858,-0.010217854753136635,0.007789319381117821,47.50720977783203,53.62949752807617,45.57332992553711,60.51600646972656,38.96225357055664,46.98052978515625,1768378454,705162237,X6-tool2,2.6034580746207885,-0.0521315803522218,44.78832350214267,0.024563905621067278,0.02247188523201374,0.03835168576868368,0.0643301010131836
2026-01-14 16:14:14.802816,1768378454,799222030,1,151968,0,1768378454,782533515,2,147458,0,1768378454,785889961,3,164323,0,1768378454,789222975,4,153364,0,1768378454,792493948,5,164295,0,1768378454,795921866,6,151238,0,2.9998366832733154,-0.012402373366057873,45.006351470947266,0.011991571635007858,-0.010217854753136635,0.007789319381117821,47.50720977783203,53.62949752807617,45.57332992553711,60.51600646972656,38.96225357055664,46.98052978515625,1768378454,705162237,X6-tool2,2.6034580746207885,-0.0521315803522218,44.78832350214267,0.024563905621067278,0.02247188523201374,0.03835168576868368,0.0643301010131836
2026-01-14 16:14:14.838386,1768378454,819219799,1,151974,0,1768378454,822558454,2,147458,0,1768378454,825878368,3,164328,0,1768378454,829228014,4,153364,0,1768378454,832529378,5,164295,0,1768378454,835873833,6,151238,0,2.9998366832733154,-0.012402373366057873,45.006351470947266,0.011991571635007858,-0.010217854753136635,0.007789319381117821,47.5012092590332,53.62949752807617,45.56833267211914,60.51600646972656,38.96225357055664,46.98052978515625,1768378454,804399414,X6-tool2,2.5961635332908433,-0.053390722671423356,44.83449228809918,0.024515165004638722,0.02277926259470187,0.038408196882733336,0.06325753778219223
2026-01-14 16:14:14.874516,1768378454,859231558,1,151974,0,1768378454,862584803,2,147464,0,1768378454,865892547,3,164328,0,1768378454,869294135,4,153364,0,1768378454,872555157,5,164295,0,1768378454,855902453,6,151238,0,2.9998199939727783,-0.010597246699035168,45.00567626953125,0.011991571635007858,-0.010217854753136635,0.007789319381117821,47.5012092590332,53.623497009277344,45.56833267211914,60.51600646972656,38.96225357055664,46.98052978515625,1768378454,804399414,X6-tool2,2.5961635332908433,-0.053390722671423356,44.83449228809918,0.024515165004638722,0.02277926259470187,0.038408196882733336,0.06325753778219223
2026-01-14 16:14:14.910141,1768378454,899194405,1,151974,0,1768378454,902558080,2,147464,0,1768378454,905901766,3,164328,0,1768378454,909220450,4,153364,0,1768378454,892551666,5,164295,0,1768378454,895896911,6,151238,0,2.9998199939727783,-0.010597246699035168,45.00567626953125,0.011991571635007858,-0.010217854753136635,0.007789319381117821,47.5012092590332,53.623497009277344,45.56833267211914,60.51600646972656,38.96225357055664,46.98052978515625,1768378454,904434971,X6-tool2,2.5903501259539126,-0.06399550313978236,44.787705867367606,0.024025554491853077,0.022769435126527744,0.03850311302961615,0.06256643682718277
2026-01-14 16:14:14.945561,1768378454,939228824,1,151974,0,1768378454,942656113,2,147464,0,1768378454,925891305,3,164328,0,1768378454,929221099,4,153364,0,1768378454,932576745,5,164295,0,1768378454,935973552,6,151238,0,2.9998199939727783,-0.010597246699035168,45.00567626953125,0.011991571635007858,-0.010217854753136635,0.007789319381117821,47.5012092590332,53.623497009277344,45.56833267211914,60.51600646972656,38.96225357055664,46.98052978515625,1768378454,904434971,X6-tool2,2.5903501259539126,-0.06399550313978236,44.787705867367606,0.024025554491853077,0.022769435126527744,0.03850311302961615,0.06256643682718277
2026-01-14 16:14:14.981730,1768378454,979204352,1,151974,0,1768378454,962565898,2,147464,0,1768378454,965872842,3,164328,0,1768378454,969220288,4,153364,0,1768378454,972530512,5,164295,0,1768378454,975975930,6,151238,0,2.9998199939727783,-0.010597246699035168,45.00567626953125,0.011991571635007858,-0.010217854753136635,0.007789319381117821,47.5012092590332,53.623497009277344,45.56833267211914,60.51600646972656,38.96225357055664,46.98052978515625,1768378454,904434971,X6-tool2,2.5903501259539126,-0.06399550313978236,44.787705867367606,0.024025554491853077,0.022769435126527744,0.03850311302961615,0.06256643682718277
2026-01-14 16:14:15.017568,1768378454,999198581,1,151974,0,1768378455,2541226,2,147469,0,1768378455,5808208,3,164328,0,1768378455,9194135,4,153364,0,1768378455,12558671,5,164295,0,1768378455,15874535,6,151238,0,2.9998059272766113,-0.009092909283936024,45.00511169433594,0.011991571635007858,-0.010217854753136635,0.007789319381117821,47.5012092590332,53.61849594116211,45.56833267211914,60.51600646972656,38.96225357055664,46.98052978515625,1768378455,4441497,X6-tool2,2.5903026876673216,-0.07512385198058723,44.77798301576272,0.023779650785303988,0.022777849272669876,0.03844894063448099,0.06369177252054214
