timestamp,out_1_header.stamp.sec,out_1_header.stamp.nanosec,out_1_header.frame_id,out_1_val,out_1_speed,out_2_header.stamp.sec,out_2_header.stamp.nanosec,out_2_header.frame_id,out_2_val,out_2_speed,out_3_header.stamp.sec,out_3_header.stamp.nanosec,out_3_header.frame_id,out_3_val,out_3_speed,out_4_header.stamp.sec,out_4_header.stamp.nanosec,out_4_header.frame_id,out_4_val,out_4_speed,out_5_header.stamp.sec,out_5_header.stamp.nanosec,out_5_header.frame_id,out_5_val,out_5_speed,out_6_header.stamp.sec,out_6_header.stamp.nanosec,out_6_header.frame_id,out_6_val,out_6_speed,aimooe_coord_header.stamp.sec,aimooe_coord_header.stamp.nanosec,aimooe_coord_header.frame_id,aimooe_coord_position.x,aimooe_coord_position.y,aimooe_coord_position.z,aimooe_coord_orientation.x,aimooe_coord_orientation.y,aimooe_coord_orientation.z,aimooe_coord_mean_error
2026-01-23 10:42:49.998285,1769136169,991813367,1,200698,0,1769136169,995166346,2,216431,0,1769136169,978455743,3,197633,0,1769136169,981837304,4,205208,0,1769136169,985136821,5,184565,0,1769136169,988502400,6,194002,0,1769136169,940677652,X6-tool2,-0.1581246746069557,-0.3945713407293684,41.80923871343945,-0.06002421430610363,0.02004000615358796,-0.08980924803478861,0.0261713657528162
2026-01-23 10:42:50.043305,1769136170,31807087,1,200698,0,1769136170,35117974,2,216431,0,1769136170,38460193,3,197633,0,1769136170,41839473,4,205208,0,1769136170,25155901,5,184565,0,1769136170,28493919,6,194002,0,1769136170,40839547,X6-tool2,-0.18819950155665235,-0.365388273984184,41.779504072283,-0.05984719652246331,0.019898041567888554,-0.08959115009705859,0.026618003845214844
2026-01-23 10:42:50.079127,1769136170,71793466,1,200698,0,1769136170,75148864,2,216431,0,1769136170,78455522,3,197633,0,1769136170,61823112,4,205208,0,1769136170,65155500,5,184565,0,1769136170,68493149,6,194002,0,1769136170,40839547,X6-tool2,-0.18819950155665235,-0.365388273984184,41.779504072283,-0.05984719652246331,0.019898041567888554,-0.08959115009705859,0.026618003845214844
2026-01-23 10:42:50.114286,1769136170,111810945,1,200698,0,1769136170,95153025,2,216431,0,1769136170,98470012,3,197633,0,1769136170,101815521,4,205208,0,1769136170,105156440,5,184565,0,1769136170,108477658,6,194002,0,1769136170,40839547,X6-tool2,-0.18819950155665235,-0.365388273984184,41.779504072283,-0.05984719652246331,0.019898041567888554,-0.08959115009705859,0.026618003845214844
2026-01-23 10:42:50.151301,1769136170,131807755,1,200698,0,1769136170,135144264,2,216431,0,1769136170,138449161,3,197633,0,1769136170,141809540,4,205208,0,1769136170,145157709,5,184565,0,1769136170,148469937,6,194002,0,1769136170,140524334,X6-tool2,-0.13219030588257646,-0.38068120776191905,41.81170363291719,-0.05958183327432294,0.019815138548514993,-0.08970577626012731,0.026801427826285362
2026-01-23 10:42:50.187612,1769136170,171808405,1,200698,0,1769136170,175136043,2,216431,0,1769136170,178469831,3,197633,0,1769136170,181807090,4,205208,0,1769136170,185156998,5,184565,0,1769136170,168474447,6,194002,0,1769136170,140524334,X6-tool2,-0.13219030588257646,-0.38068120776191905,41.81170363291719,-0.05958183327432294,0.019815138548514993,-0.08970577626012731,0.026801427826285362
2026-01-23 10:42:50.223927,1769136170,211806124,1,200698,0,1769136170,215136332,2,216431,0,1769136170,218454410,3,197633,0,1769136170,221806409,4,205208,0,1769136170,205156678,5,184565,0,1769136170,208474806,6,194002,0,1769136170,140524334,X6-tool2,-0.13219030588257646,-0.38068120776191905,41.81170363291719,-0.05958183327432294,0.019815138548514993,-0.08970577626012731,0.026801427826285362
2026-01-23 10:42:50.259752,1769136170,251806343,1,200698,0,1769136170,255134222,2,216431,0,1769136170,258470780,3,197633,0,1769136170,241803148,4,205208,0,1769136170,245153337,5,184565,0,1769136170,248469755,6,194002,0,1769136170,240616896,X6-tool2,-0.17874902217268218,-0.3430922170115104,41.782136121932815,-0.05983817199153147,0.019758073378553644,-0.08951125963168298,0.024252573028206825
2026-01-23 10:42:50.294822,1769136170,291789422,1,200698,0,1769136170,275136601,2,216431,0,1769136170,278450569,3,197633,0,1769136170,281806908,4,205208,0,1769136170,285129356,5,184565,0,1769136170,288468004,6,194002,0,1769136170,240616896,X6-tool2,-0.17874902217268218,-0.3430922170115104,41.782136121932815,-0.05983817199153147,0.019758073378553644,-0.08951125963168298,0.024252573028206825
2026-01-23 10:42:50.330323,1769136170,311805313,1,200698,0,1769136170,315135380,2,216431,0,1769136170,318447438,3,197633,0,1769136170,321808518,4,205208,0,1769136170,325154586,5,184565,0,1769136170,328474224,6,194002,0,1769136170,240616896,X6-tool2,-0.17874902217268218,-0.3430922170115104,41.782136121932815,-0.05983817199153147,0.019758073378553644,-0.08951125963168298,0.024252573028206825
2026-01-23 10:42:50.366606,1769136170,351807842,1,200698,0,1769136170,355134160,2,216431,0,1769136170,358491709,3,197633,0,1769136170,361806837,4,205208,0,1769136170,365153706,5,184565,0,1769136170,348473764,6,194002,0,1769136170,340713278,X6-tool2,-0.26359334401668805,-0.3348843868898722,41.73904875698784,-0.06070845991320221,0.020321830095279478,-0.089607280824765,0.025162378326058388
2026-01-23 10:42:50.401932,1769136170,391829162,1,200698,0,1769136170,395138830,2,216431,0,1769136170,398490459,3,197633,0,1769136170,381805326,4,205208,0,1769136170,385156586,5,184565,0,1769136170,388473643,6,194002,0,1769136170,340713278,X6-tool2,-0.26359334401668805,-0.3348843868898722,41.73904875698784,-0.06070845991320221,0.020321830095279478,-0.089607280824765,0.025162378326058388
2026-01-23 10:42:50.438127,1769136170,431826011,1,200698,0,1769136170,435135539,2,216431,0,1769136170,418488658,3,197633,0,1769136170,421805906,4,205208,0,1769136170,425154555,5,184565,0,1769136170,428472482,6,194002,0,1769136170,340713278,X6-tool2,-0.26359334401668805,-0.3348843868898722,41.73904875698784,-0.06070845991320221,0.020321830095279478,-0.089607280824765,0.025162378326058388
2026-01-23 10:42:50.474938,1769136170,471828501,1,200698,0,1769136170,455138889,2,216431,0,1769136170,458489678,3,197633,0,1769136170,461806416,4,205208,0,1769136170,465155784,5,184565,0,1769136170,468476942,6,194002,0,1769136170,440743248,X6-tool2,-0.16756356687485785,-0.36917612953249374,41.79033846001029,-0.0603836105505196,0.019715280411847322,-0.08948655545852663,0.02469857595860958
2026-01-23 10:42:50.511322,1769136170,491828891,1,200698,0,1769136170,495136528,2,216431,0,1769136170,498474026,3,197633,0,1769136170,501803955,4,205208,0,1769136170,505145093,5,184565,0,1769136170,508474391,6,194002,0,1769136170,440743248,X6-tool2,-0.16756356687485785,-0.36917612953249374,41.79033846001029,-0.0603836105505196,0.019715280411847322,-0.08948655545852663,0.02469857595860958
2026-01-23 10:42:50.547628,1769136170,545139262,1,200698,1,1769136170,535135107,2,216431,0,1769136170,538452165,3,197633,0,1769136170,521804034,4,205208,0,1769136170,525135233,5,184565,0,1769136170,543939800,6,194002,0,1769136170,540559320,X6-tool2,-0.20640080642491115,-0.3744518854275453,41.72769308336018,-0.059922419671207,0.019418948092824937,-0.08961853209506526,0.023355165496468544
2026-01-23 10:42:50.583270,1769136170,565137012,1,200836,83,1769136170,568469670,2,216656,114,1769136170,571887591,3,197650,3,1769136170,575161438,4,205521,121,1769136170,578514977,5,185323,211,1769136170,581786513,6,194343,109,1769136170,540559320,X6-tool2,-0.20640080642491115,-0.3744518854275453,41.72769308336018,-0.059922419671207,0.019418948092824937,-0.08961853209506526,0.023355165496468544
2026-01-23 10:42:50.618189,1769136170,605138482,1,201160,71,1769136170,608466160,2,217128,123,1769136170,611801748,3,197677,3,1769136170,615131486,4,206016,135,1769136170,598488286,5,185801,239,1769136170,601800993,6,194562,108,1769136170,540559320,X6-tool2,-0.20640080642491115,-0.3744518854275453,41.72769308336018,-0.059922419671207,0.019418948092824937,-0.08961853209506526,0.023355165496468544
2026-01-23 10:42:50.653834,1769136170,645139021,1,201462,81,1769136170,648463239,2,217628,131,1769136170,651803527,3,197710,2,1769136170,635132506,4,206290,155,1769136170,638490385,5,186790,254,1769136170,641797383,6,194969,105,1769136170,640672172,X6-tool2,-0.17645493269725973,-0.37478691084683685,41.79140238538047,-0.06035677349917817,0.02001857740711408,-0.08989877339334983,0.025986671447753906
2026-01-23 10:42:50.689528,1769136170,685137970,1,201797,64,1769136170,688467429,2,218117,115,1769136170,671805787,3,197721,4,1769136170,675138435,4,206774,103,1769136170,678462524,5,187800,267,1769136170,681798312,6,195375,112,1769136170,640672172,X6-tool2,-0.17645493269725973,-0.37478691084683685,41.79140238538047,-0.06035677349917817,0.02001857740711408,-0.08989877339334983,0.025986671447753906
2026-01-23 10:42:50.725277,1769136170,705159171,1,201956,75,1769136170,708469878,2,218386,146,1769136170,711825627,3,197743,4,1769136170,715134555,4,207219,102,1769136170,718463663,5,188778,232,1769136170,721787211,6,195798,114,1769136170,640672172,X6-tool2,-0.17645493269725973,-0.37478691084683685,41.79140238538047,-0.06035677349917817,0.02001857740711408,-0.08989877339334983,0.025986671447753906
2026-01-23 10:42:50.761747,1769136170,745157450,1,202286,90,1769136170,748469157,2,218925,117,1769136170,751827587,3,197770,9,1769136170,755133694,4,207686,101,1769136170,758462702,5,189805,264,1769136170,741790501,6,196035,121,1769136170,740549827,X6-tool2,-0.17547025255257354,-0.35534832824748686,41.783837823707564,-0.06019507848797202,0.019572495668533828,-0.09020944912997765,0.024285634979605675
2026-01-23 10:42:50.798391,1769136170,785159319,1,202648,86,1769136170,788474837,2,219375,90,1769136170,791827416,3,197792,7,1769136170,795135064,4,208202,120,1769136170,778561046,5,190305,256,1769136170,781790490,6,196507,126,1769136170,740549827,X6-tool2,-0.17547025255257354,-0.35534832824748686,41.783837823707564,-0.06019507848797202,0.019572495668533828,-0.09020944912997765,0.024285634979605675
2026-01-23 10:42:50.834615,1769136170,825155599,1,203000,97,1769136170,828470177,2,219842,122,1769136170,831825116,3,197814,1,1769136170,815129733,4,208438,126,1769136170,818559215,5,191316,220,1769136170,821800480,6,196990,112,1769136170,740549827,X6-tool2,-0.17547025255257354,-0.35534832824748686,41.783837823707564,-0.06019507848797202,0.019572495668533828,-0.09020944912997765,0.024285634979605675
2026-01-23 10:42:50.871254,1769136170,865157228,1,203379,92,1769136170,868470156,2,220353,143,1769136170,851800594,3,197825,9,1769136170,855130902,4,208949,119,1769136170,858558584,5,192343,267,1769136170,861798599,6,197441,108,1769136170,840830866,X6-tool2,-0.15311360667708748,-0.32941735807495187,41.80896008897749,-0.0599190221600376,0.019444419378876632,-0.0905733856737986,0.023249944671988487
2026-01-23 10:42:50.907156,1769136170,905157728,1,203752,83,1769136170,888467205,2,220611,133,1769136170,891802504,3,197853,10,1769136170,895129592,4,209460,131,1769136170,898558903,5,193359,246,1769136170,901797629,6,197875,113,1769136170,840830866,X6-tool2,-0.15311360667708748,-0.32941735807495187,41.80896008897749,-0.0599190221600376,0.019444419378876632,-0.0905733856737986,0.023249944671988487
2026-01-23 10:42:50.942461,1769136170,925139607,1,203923,77,1769136170,928468155,2,221122,119,1769136170,931803463,3,197886,10,1769136170,935129911,4,209916,115,1769136170,938561813,5,194381,252,1769136170,941794038,6,198342,123,1769136170,940425549,X6-tool2,-0.2697120938446211,-0.28528221655530006,41.876273555325135,-0.06453885563433431,0.018840141397245706,-0.09526321367698637,0.0290044154971838
2026-01-23 10:42:50.978216,1769136170,965136746,1,204258,84,1769136170,968464695,2,221627,121,1769136170,971794153,3,197924,12,1769136170,975135161,4,210394,124,1769136170,958463429,5,194897,261,1769136170,961808858,6,198578,118,1769136170,940425549,X6-tool2,-0.2697120938446211,-0.28528221655530006,41.876273555325135,-0.06453885563433431,0.018840141397245706,-0.09526321367698637,0.0290044154971838
2026-01-23 10:42:51.014196,1769136171,5137345,1,204587,85,1769136171,8464684,2,222105,126,1769136171,11804492,3,197974,10,1769136170,995132381,4,210657,117,1769136170,998488490,5,195952,252,1769136171,1796877,6,199078,133,1769136170,940425549,X6-tool2,-0.2697120938446211,-0.28528221655530006,41.876273555325135,-0.06453885563433431,0.018840141397245706,-0.09526321367698637,0.0290044154971838
2026-01-23 10:42:51.049814,1769136171,45139125,1,204966,97,1769136171,48465133,2,222589,114,1769136171,31827992,3,197996,9,1769136171,35132590,4,211179,129,1769136171,38488039,5,196974,263,1769136171,41797256,6,199578,115,1769136171,40736099,X6-tool2,-0.4816717853354225,0.1314461761812222,42.139190151846904,-0.07442240693497616,0.01085898989180989,-0.10216698576674149,0.02846304513514042
2026-01-23 10:42:51.086469,1769136171,85139574,1,205367,103,1769136171,68470413,2,222847,127,1769136171,71813991,3,198051,11,1769136171,75139889,4,211685,130,1769136171,78463867,5,198034,258,1769136171,81796176,6,200056,98,1769136171,40736099,X6-tool2,-0.4816717853354225,0.1314461761812222,42.139190151846904,-0.07442240693497616,0.01085898989180989,-0.10216698576674149,0.02846304513514042
2026-01-23 10:42:51.122424,1769136171,105160784,1,205554,102,1769136171,108494373,2,223385,151,1769136171,111829231,3,198127,16,1769136171,115162099,4,212179,129,1769136171,118466306,5,199067,251,1769136171,121812516,6,200517,118,1769136171,40736099,X6-tool2,-0.4816717853354225,0.1314461761812222,42.139190151846904,-0.07442240693497616,0.01085898989180989,-0.10216698576674149,0.02846304513514042
2026-01-23 10:42:51.159124,1769136171,145163793,1,205928,84,1769136171,148495582,2,223912,115,1769136171,151831510,3,198188,11,1769136171,155159938,4,212679,122,1769136171,158466885,5,200138,286,1769136171,141812275,6,200753,124,1769136171,140579881,X6-tool2,-0.5716921149625477,0.5138817242942151,42.45622177426629,-0.08599119553847642,0.0012578782095260565,-0.10899703219892878,0.023276329040527344
2026-01-23 10:42:51.195837,1769136171,185160703,1,206323,78,1769136171,188492601,2,224385,126,1769136171,191827069,3,198237,9,1769136171,195170868,4,213157,125,1769136171,178560049,5,200654,253,1769136171,181816084,6,201259,144,1769136171,140579881,X6-tool2,-0.5716921149625477,0.5138817242942151,42.45622177426629,-0.08599119553847642,0.0012578782095260565,-0.10899703219892878,0.023276329040527344
2026-01-23 10:42:51.231439,1769136171,225161552,1,206697,72,1769136171,228491520,2,224901,161,1769136171,211811348,3,198259,10,1769136171,215155267,4,213409,130,1769136171,218566338,5,201703,268,1769136171,221820923,6,201780,140,1769136171,140579881,X6-tool2,-0.5716921149625477,0.5138817242942151,42.45622177426629,-0.08599119553847642,0.0012578782095260565,-0.10899703219892878,0.023276329040527344
2026-01-23 10:42:51.267814,1769136171,265162871,1,207048,93,1769136171,248489289,2,225126,135,1769136171,251810957,3,198298,5,1769136171,255154476,4,213964,157,1769136171,258563827,5,202769,287,1769136171,261824383,6,202291,124,1769136171,240929262,X6-tool2,-0.7048556856920273,0.7633731856494986,42.706915242937896,-0.09955446578416248,-0.006793171187021867,-0.11552665576811309,0.028430620208382607
2026-01-23 10:42:51.304415,1769136171,285143660,1,207219,84,1769136171,288490179,2,225632,123,1769136171,291811346,3,198336,7,1769136171,295155955,4,214464,117,1769136171,298561226,5,203818,256,1769136171,301815742,6,202780,137,1769136171,240929262,X6-tool2,-0.7048556856920273,0.7633731856494986,42.706915242937896,-0.09955446578416248,-0.006793171187021867,-0.11552665576811309,0.028430620208382607
2026-01-23 10:42:51.340467,1769136171,325141279,1,207592,101,1769136171,328489838,2,226165,140,1769136171,331809746,3,198380,10,1769136171,335156204,4,214937,118,1769136171,338563815,5,204879,269,1769136171,321812051,6,203011,117,1769136171,240929262,X6-tool2,-0.7048556856920273,0.7633731856494986,42.706915242937896,-0.09955446578416248,-0.006793171187021867,-0.11552665576811309,0.028430620208382607
2026-01-23 10:42:51.377167,1769136171,365143528,1,208010,95,1769136171,368490597,2,226697,127,1769136171,371809745,3,198424,1,1769136171,375158144,4,215447,145,1769136171,358466141,5,205406,250,1769136171,361823350,6,203500,128,1769136171,340588547,X6-tool2,-0.7479872904097866,0.9955965652161303,43.11037417239785,-0.12093037600772424,-0.012798395152891849,-0.12141501053668635,0.028746923431754112
2026-01-23 10:42:51.412357,1769136171,405141467,1,208405,86,1769136171,408490636,2,227164,103,1769136171,411812764,3,198474,12,1769136171,395156373,4,215700,113,1769136171,398492122,5,206477,254,1769136171,401821840,6,204016,139,1769136171,340588547,X6-tool2,-0.7479872904097866,0.9955965652161303,43.11037417239785,-0.12093037600772424,-0.012798395152891849,-0.12141501053668635,0.028746923431754112
2026-01-23 10:42:51.448003,1769136171,445140516,1,208790,85,1769136171,428493436,2,227406,134,1769136171,431828704,3,198495,10,1769136171,435157872,4,216205,129,1769136171,438465320,5,207532,269,1769136171,441816679,6,204554,132,1769136171,440843494,X6-tool2,-0.8630383828444427,1.3181451035200284,43.29329475139822,-0.13722364181868246,-0.01918455513309166,-0.12752171810021487,0.032039325684309006
2026-01-23 10:42:51.483977,1769136171,465161757,1,208960,88,1769136171,468493585,2,227928,154,1769136171,471819023,3,198556,18,1769136171,475160081,4,216755,142,1769136171,478465019,5,208603,275,1769136171,481817738,6,205060,114,1769136171,440843494,X6-tool2,-0.8630383828444427,1.3181451035200284,43.29329475139822,-0.13722364181868246,-0.01918455513309166,-0.12752171810021487,0.032039325684309006
2026-01-23 10:42:51.519047,1769136171,505161626,1,209339,87,1769136171,508492454,2,228444,124,1769136171,511829983,3,198627,14,1769136171,515159381,4,217249,115,1769136171,518464138,5,209663,244,1769136171,501824018,6,205296,121,1769136171,440843494,X6-tool2,-0.8630383828444427,1.3181451035200284,43.29329475139822,-0.13722364181868246,-0.01918455513309166,-0.12752171810021487,0.032039325684309006
2026-01-23 10:42:51.554781,1769136171,545162355,1,209707,76,1769136171,548491033,2,228966,132,1769136171,551832162,3,198688,14,1769136171,535154320,4,217480,109,1769136171,538561601,5,210196,280,1769136171,541819247,6,205779,136,1769136171,540462869,X6-tool2,-0.8320532813903851,1.3989878269363603,43.59427101971017,-0.14899314078544015,-0.02156609285743295,-0.1343133372170251,0.029379526153206825
2026-01-23 10:42:51.590262,1769136171,585163825,1,210092,92,1769136171,588491393,2,229329,23,1769136171,571810541,3,198710,9,1769136171,575159009,4,217974,139,1769136171,578564280,5,211278,257,1769136171,581824236,6,206279,124,1769136171,540462869,X6-tool2,-0.8320532813903851,1.3989878269363603,43.59427101971017,-0.14899314078544015,-0.02156609285743295,-0.1343133372170251,0.029379526153206825
2026-01-23 10:42:51.626049,1769136171,625161143,1,210493,103,1769136171,608489162,2,229351,5,1769136171,611809190,3,198748,10,1769136171,615153229,4,218139,4,1769136171,618564200,5,211569,12,1769136171,621823465,6,206807,118,1769136171,540462869,X6-tool2,-0.8320532813903851,1.3989878269363603,43.59427101971017,-0.14899314078544015,-0.02156609285743295,-0.1343133372170251,0.029379526153206825
2026-01-23 10:42:51.661232,1769136171,645143603,1,210635,35,1769136171,648490091,2,229356,0,1769136171,651809819,3,198781,12,1769136171,655157348,4,218145,0,1769136171,658563539,5,211580,0,1769136171,641822045,6,206911,26,1769136171,640438106,X6-tool2,-0.8308274656517909,1.3396476484673956,43.89393627265888,-0.1628389697677366,-0.022859604420929436,-0.13994038464078604,0.03417428210377693
2026-01-23 10:42:51.696468,1769136171,685160812,1,210663,0,1769136171,688494751,2,229356,0,1769136171,691832309,3,198825,8,1769136171,695160837,4,218145,0,1769136171,678517236,5,211580,0,1769136171,681798883,6,206933,7,1769136171,640438106,X6-tool2,-0.8308274656517909,1.3396476484673956,43.89393627265888,-0.1628389697677366,-0.022859604420929436,-0.13994038464078604,0.03417428210377693
2026-01-23 10:42:51.731566,1769136171,725160811,1,210663,0,1769136171,728491970,2,229356,0,1769136171,711813178,3,198847,10,1769136171,715157247,4,218145,0,1769136171,718562697,5,211580,0,1769136171,721824983,6,206933,0,1769136171,640438106,X6-tool2,-0.8308274656517909,1.3396476484673956,43.89393627265888,-0.1628389697677366,-0.022859604420929436,-0.13994038464078604,0.03417428210377693
2026-01-23 10:42:51.767514,1769136171,765161170,1,210663,0,1769136171,748490169,2,229362,0,1769136171,751813007,3,198896,13,1769136171,755162556,4,218145,0,1769136171,758560897,5,211586,0,1769136171,761824872,6,206933,0,1769136171,740594859,X6-tool2,-0.8389470773367632,1.3932337395887429,44.0094557917374,-0.16471668155121658,-0.024427065212777384,-0.14064520594405835,0.031701404601335526
2026-01-23 10:42:51.803393,1769136171,785140390,1,210663,0,1769136171,788488748,2,229362,0,1769136171,791815406,3,198951,16,1769136171,795154554,4,218145,0,1769136171,798562956,5,211586,0,1769136171,801824362,6,206933,0,1769136171,740594859,X6-tool2,-0.8389470773367632,1.3932337395887429,44.0094557917374,-0.16471668155121658,-0.024427065212777384,-0.14064520594405835,0.031701404601335526
2026-01-23 10:42:51.838818,1769136171,825143629,1,210663,0,1769136171,828486968,2,229362,0,1769136171,831811035,3,199012,18,1769136171,835153104,4,218145,0,1769136171,818491993,5,211586,0,1769136171,821820241,6,206933,0,1769136171,740594859,X6-tool2,-0.8389470773367632,1.3932337395887429,44.0094557917374,-0.16471668155121658,-0.024427065212777384,-0.14064520594405835,0.031701404601335526
2026-01-23 10:42:51.874539,1769136171,865122307,1,210663,0,1769136171,868489856,2,229362,0,1769136171,871811345,3,199089,18,1769136171,855157304,4,218145,0,1769136171,858466261,5,211586,0,1769136171,861823180,6,206933,0,1769136171,840357198,X6-tool2,-0.8644717366072824,1.4386655818169336,44.01085523416854,-0.16548812798613607,-0.023981250696690368,-0.14032135396125697,0.03992398455739021
2026-01-23 10:42:51.909867,1769136171,905143467,1,210663,0,1769136171,908490076,2,229362,0,1769136171,891831275,3,199116,16,1769136171,895157883,4,218145,0,1769136171,898465650,5,211586,0,1769136171,901810069,6,206933,0,1769136171,840357198,X6-tool2,-0.8644717366072824,1.4386655818169336,44.01085523416854,-0.16548812798613607,-0.023981250696690368,-0.14032135396125697,0.03992398455739021
2026-01-23 10:42:51.945135,1769136171,925161647,1,210663,0,1769136171,928493426,2,229362,0,1769136171,931830544,3,199177,13,1769136171,935155892,4,218145,0,1769136171,938493070,5,211586,0,1769136171,941823128,6,206933,0,1769136171,940513662,X6-tool2,-0.8913827784428701,1.3577809577297035,44.00848100468802,-0.1659545300859752,-0.02394459010111951,-0.1403127164714536,0.03333568572998047
2026-01-23 10:42:51.980721,1769136171,965164106,1,210663,0,1769136171,968492344,2,229362,0,1769136171,971831843,3,199237,13,1769136171,975133440,4,218145,0,1769136171,978467589,5,211586,0,1769136171,961822248,6,206933,0,1769136171,940513662,X6-tool2,-0.8913827784428701,1.3577809577297035,44.00848100468802,-0.1659545300859752,-0.02394459010111951,-0.1403127164714536,0.03333568572998047
2026-01-23 10:42:52.016929,1769136172,5159716,1,210657,0,1769136172,8493304,2,229362,0,1769136172,11825102,3,199303,19,1769136172,15156400,4,218145,0,1769136171,998560082,5,211586,0,1769136172,1817867,6,206933,0,1769136171,940513662,X6-tool2,-0.8913827784428701,1.3577809577297035,44.00848100468802,-0.1659545300859752,-0.02394459010111951,-0.1403127164714536,0.03333568572998047
2026-01-23 10:42:52.051908,1769136172,45161684,1,210657,-3,1769136172,48487362,2,229362,0,1769136172,31808621,3,199330,14,1769136172,35155380,4,218145,0,1769136172,38560850,5,211586,0,1769136172,41821536,6,206933,0,1769136172,40567622,X6-tool2,-0.9363494289211904,1.4230880123330478,43.958491061933294,-0.16598140541829262,-0.024010928725148574,-0.1403389972621679,0.030951499938964844
2026-01-23 10:42:52.088216,1769136172,85162664,1,210657,0,1769136172,68488872,2,229362,0,1769136172,71811290,3,199385,16,1769136172,75159389,4,218139,0,1769136172,78523888,5,211586,0,1769136172,81817805,6,206933,0,1769136172,40567622,X6-tool2,-0.9363494289211904,1.4230880123330478,43.958491061933294,-0.16598140541829262,-0.024010928725148574,-0.1403389972621679,0.030951499938964844
2026-01-23 10:42:52.123892,1769136172,105142882,1,210657,0,1769136172,108488241,2,229362,0,1769136172,111808719,3,199418,8,1769136172,115155038,4,218139,0,1769136172,118562428,5,211586,0,1769136172,121822664,6,206933,0,1769136172,40567622,X6-tool2,-0.9363494289211904,1.4230880123330478,43.958491061933294,-0.16598140541829262,-0.024010928725148574,-0.1403389972621679,0.030951499938964844
2026-01-23 10:42:52.160306,1769136172,145139051,1,210657,0,1769136172,148490450,2,229362,0,1769136172,151810228,3,199418,0,1769136172,155156297,4,218139,0,1769136172,158522766,5,211586,0,1769136172,141820573,6,206933,0,1769136172,148994627,X6-tool2,-0.8647530988267206,1.435405938444137,44.01911020410435,-0.1664381884127322,-0.023890354475226378,-0.14014971894999315,0.03092670440673828
2026-01-23 10:42:52.195408,1769136172,185143350,1,210657,0,1769136172,188492069,2,229362,0,1769136172,191810697,3,199418,0,1769136172,175158396,4,218139,0,1769136172,178466783,5,211586,0,1769136172,181820312,6,206933,0,1769136172,148994627,X6-tool2,-0.8647530988267206,1.435405938444137,44.01911020410435,-0.1664381884127322,-0.023890354475226378,-0.14014971894999315,0.03092670440673828
2026-01-23 10:42:52.230903,1769136172,225142889,1,210657,0,1769136172,228489118,2,229362,0,1769136172,211829717,3,199418,0,1769136172,215158165,4,218139,0,1769136172,218466212,5,211586,0,1769136172,221823201,6,206933,0,1769136172,148994627,X6-tool2,-0.8647530988267206,1.435405938444137,44.01911020410435,-0.1664381884127322,-0.023890354475226378,-0.14014971894999315,0.03092670440673828
2026-01-23 10:42:52.266686,1769136172,265144878,1,210657,0,1769136172,248492527,2,229362,0,1769136172,251829176,3,199418,0,1769136172,255157494,4,218139,0,1769136172,258492842,5,211586,0,1769136172,261822780,6,206933,0,1769136172,248463596,X6-tool2,-0.8112508398537598,1.4054271231476416,44.08963017952725,-0.16528968895138615,-0.022819022697305433,-0.14012650747658886,0.034809112548828125
2026-01-23 10:42:52.301566,1769136172,285160928,1,210657,0,1769136172,288478016,2,229362,0,1769136172,291827705,3,199418,0,1769136172,295136782,4,218139,0,1769136172,298462280,5,211586,0,1769136172,281807519,6,206933,0,1769136172,248463596,X6-tool2,-0.8112508398537598,1.4054271231476416,44.08963017952725,-0.16528968895138615,-0.022819022697305433,-0.14012650747658886,0.034809112548828125
2026-01-23 10:42:52.337501,1769136172,325159777,1,210657,0,1769136172,328469414,2,229362,0,1769136172,331826143,3,199418,0,1769136172,335133601,4,218139,0,1769136172,318518411,5,211586,0,1769136172,321801248,6,206933,0,1769136172,248463596,X6-tool2,-0.8112508398537598,1.4054271231476416,44.08963017952725,-0.16528968895138615,-0.022819022697305433,-0.14012650747658886,0.034809112548828125
2026-01-23 10:42:52.372577,1769136172,365160106,1,210657,0,1769136172,368469053,2,229362,0,1769136172,371825792,3,199418,0,1769136172,355130790,4,218139,-5,1769136172,358519360,5,211586,0,1769136172,361800276,6,206933,0,1769136172,348044788,X6-tool2,-0.9330493924730654,1.402752787288939,43.95290303642677,-0.16622150099379276,-0.02416651013995617,-0.14005520189009973,0.03166993334889412
2026-01-23 10:42:52.408024,1769136172,405160595,1,210652,-6,1769136172,388465013,2,229362,0,1769136172,391805121,3,199418,0,1769136172,395127129,4,218139,0,1769136172,398520529,5,211586,0,1769136172,401798546,6,206933,0,1769136172,348044788,X6-tool2,-0.9330493924730654,1.402752787288939,43.95290303642677,-0.16622150099379276,-0.02416651013995617,-0.14005520189009973,0.03166993334889412
2026-01-23 10:42:52.443672,1769136172,425140663,1,210652,0,1769136172,428465281,2,229362,0,1769136172,431804610,3,199418,0,1769136172,435138548,4,218139,0,1769136172,438556099,5,211586,0,1769136172,441802474,6,206933,0,1769136172,348044788,X6-tool2,-0.9330493924730654,1.402752787288939,43.95290303642677,-0.16622150099379276,-0.02416651013995617,-0.14005520189009973,0.03166993334889412
2026-01-23 10:42:52.479233,1769136172,465141662,1,210652,0,1769136172,468470491,2,229362,0,1769136172,471806219,3,199418,0,1769136172,475132077,4,218139,0,1769136172,478555248,5,211586,0,1769136172,461825485,6,206933,0,1769136172,447409113,X6-tool2,-0.8481665481227719,1.3928930276998415,44.02803433006668,-0.16579483982897023,-0.02349484443245497,-0.14004586248707337,0.0324351005256176
2026-01-23 10:42:52.514392,1769136172,505136971,1,210652,0,1769136172,508467569,2,229362,0,1769136172,511804418,3,199418,0,1769136172,495133286,4,218139,0,1769136172,498487456,5,211586,0,1769136172,501796323,6,206933,0,1769136172,447409113,X6-tool2,-0.8481665481227719,1.3928930276998415,44.02803433006668,-0.16579483982897023,-0.02349484443245497,-0.14004586248707337,0.0324351005256176
2026-01-23 10:42:52.549875,1769136172,545135750,1,210652,0,1769136172,548461988,2,229362,0,1769136172,531826858,3,199418,0,1769136172,535130945,4,218139,0,1769136172,538473254,5,211586,0,1769136172,541794822,6,206933,0,1769136172,546906883,X6-tool2,-0.8802680046598842,1.43113606332197,44.00044029206992,-0.16630391437026193,-0.023827122996192412,-0.14001493444882457,0.03147315979003906
2026-01-23 10:42:52.584836,1769136172,565232103,1,210652,0,1769136172,568473638,2,229362,0,1769136172,571800626,3,199418,0,1769136172,575137424,4,218139,0,1769136172,578464642,5,211586,0,1769136172,581807261,6,206933,0,1769136172,546906883,X6-tool2,-0.8802680046598842,1.43113606332197,44.00044029206992,-0.16630391437026193,-0.023827122996192412,-0.14001493444882457,0.03147315979003906
2026-01-23 10:42:52.620348,1769136172,605127368,1,210652,0,1769136172,608421535,2,229362,0,1769136172,611804295,3,199418,0,1769136172,615133233,4,218139,0,1769136172,618480442,5,211586,0,1769136172,601803370,6,206933,0,1769136172,546906883,X6-tool2,-0.8802680046598842,1.43113606332197,44.00044029206992,-0.16630391437026193,-0.023827122996192412,-0.14001493444882457,0.03147315979003906
2026-01-23 10:42:52.655272,1769136172,645132147,1,210652,0,1769136172,648463455,2,229362,0,1769136172,651803014,3,199418,0,1769136172,635134163,4,218139,0,1769136172,638447060,5,211586,0,1769136172,641797899,6,206933,0,1769136172,646471465,X6-tool2,-0.8290719259452513,1.4630503511775352,44.04635655907095,-0.1663150294342599,-0.023774617634253734,-0.13988877685483042,0.035104114562273026
2026-01-23 10:42:52.690582,1769136172,685132957,1,210652,0,1769136172,688472075,2,229362,0,1769136172,671798603,3,199418,0,1769136172,675130262,4,218139,0,1769136172,678445039,5,211580,0,1769136172,681801788,6,206933,0,1769136172,646471465,X6-tool2,-0.8290719259452513,1.4630503511775352,44.04635655907095,-0.1663150294342599,-0.023774617634253734,-0.13988877685483042,0.035104114562273026
2026-01-23 10:42:52.725796,1769136172,725130275,1,210652,0,1769136172,708445443,2,229362,0,1769136172,711798082,3,199418,0,1769136172,715130960,4,218139,0,1769136172,718463439,5,211580,0,1769136172,721794897,6,206933,0,1769136172,646471465,X6-tool2,-0.8290719259452513,1.4630503511775352,44.04635655907095,-0.1663150294342599,-0.023774617634253734,-0.13988877685483042,0.035104114562273026
2026-01-23 10:42:52.760899,1769136172,745112794,1,210652,0,1769136172,748463952,2,229362,0,1769136172,751801461,3,199418,0,1769136172,755131580,4,218139,0,1769136172,758445687,5,211580,0,1769136172,741796386,6,206933,0,1769136172,745687754,X6-tool2,-0.820511341118754,1.4145773782783606,44.05086196723948,-0.16563825140106817,-0.023853696869985345,-0.14001419954760455,0.029786428436636925
2026-01-23 10:42:52.796366,1769136172,785130454,1,210652,0,1769136172,788467212,2,229362,0,1769136172,791802680,3,199418,0,1769136172,795131778,4,218139,0,1769136172,778446146,5,211580,0,1769136172,781797995,6,206933,0,1769136172,745687754,X6-tool2,-0.820511341118754,1.4145773782783606,44.05086196723948,-0.16563825140106817,-0.023853696869985345,-0.14001419954760455,0.029786428436636925
2026-01-23 10:42:52.831468,1769136172,825131963,1,210652,0,1769136172,828467611,2,229362,0,1769136172,811801170,3,199418,0,1769136172,815065085,4,218139,0,1769136172,818464036,5,211580,0,1769136172,821795784,6,206933,0,1769136172,745687754,X6-tool2,-0.820511341118754,1.4145773782783606,44.05086196723948,-0.16563825140106817,-0.023853696869985345,-0.14001419954760455,0.029786428436636925
2026-01-23 10:42:52.867243,1769136172,865135351,1,210652,0,1769136172,848410648,2,229362,0,1769136172,851805659,3,199418,0,1769136172,855129147,4,218139,0,1769136172,858471295,5,211580,0,1769136172,861796813,6,206933,0,1769136172,845424392,X6-tool2,-0.8429199034607564,1.415569147015746,44.042419671554484,-0.16597484339632607,-0.023461806313209217,-0.13990672589910627,0.029539743438363075
2026-01-23 10:42:52.902448,1769136172,885113391,1,210652,0,1769136172,888469229,2,229362,0,1769136172,891843399,3,199418,0,1769136172,895130355,4,218139,0,1769136172,898463633,5,211580,0,1769136172,901799392,6,206933,0,1769136172,845424392,X6-tool2,-0.8429199034607564,1.415569147015746,44.042419671554484,-0.16597484339632607,-0.023461806313209217,-0.13990672589910627,0.029539743438363075
2026-01-23 10:42:52.937561,1769136172,925134110,1,210652,0,1769136172,928471318,2,229362,0,1769136172,931800476,3,199418,0,1769136172,935132285,4,218139,0,1769136172,918465303,5,211580,0,1769136172,921798572,6,206933,0,1769136172,845424392,X6-tool2,-0.8429199034607564,1.415569147015746,44.042419671554484,-0.16597484339632607,-0.023461806313209217,-0.13990672589910627,0.029539743438363075
2026-01-23 10:42:52.973074,1769136172,965133478,1,210652,0,1769136172,968466297,2,229362,0,1769136172,971800175,3,199418,0,1769136172,955131434,4,218139,0,1769136172,958462112,5,211580,0,1769136172,961796720,6,206933,0,1769136172,944910391,X6-tool2,-0.8212498223224641,1.3947224111526104,44.0619840390371,-0.16617208881196252,-0.023326061252586763,-0.1398905230164715,0.034270286560058594
2026-01-23 10:42:53.008342,1769136173,5105107,1,210652,0,1769136172,988467117,2,229362,0,1769136172,991807995,3,199418,0,1769136172,995130763,4,218139,0,1769136172,998444020,5,211580,0,1769136173,1796169,6,206933,0,1769136172,944910391,X6-tool2,-0.8212498223224641,1.3947224111526104,44.0619840390371,-0.16617208881196252,-0.023326061252586763,-0.1398905230164715,0.034270286560058594
2026-01-23 10:42:53.043725,1769136173,25129767,1,210652,0,1769136173,28539378,2,229362,0,1769136173,31802174,3,199418,0,1769136173,35132792,4,218139,0,1769136173,38444649,5,211580,0,1769136173,41797098,6,206933,0,1769136172,944910391,X6-tool2,-0.8212498223224641,1.3947224111526104,44.0619840390371,-0.16617208881196252,-0.023326061252586763,-0.1398905230164715,0.034270286560058594
2026-01-23 10:42:53.079824,1769136173,65129176,1,210652,0,1769136173,68468944,2,229362,0,1769136173,71803702,3,199418,0,1769136173,75168341,4,218139,0,1769136173,78446858,5,211580,0,1769136173,61801028,6,206933,0,1769136173,44109430,X6-tool2,-0.8289094750360341,1.4514149069402973,44.0403538030127,-0.16601939848772232,-0.02380639718690313,-0.13988964464902887,0.02975177764892578
2026-01-23 10:42:53.115003,1769136173,105133064,1,210652,0,1769136173,108510864,2,229362,0,1769136173,111779680,3,199418,0,1769136173,95111449,4,218139,0,1769136173,98533350,5,211580,0,1769136173,101800046,6,206933,0,1769136173,44109430,X6-tool2,-0.8289094750360341,1.4514149069402973,44.0403538030127,-0.16601939848772232,-0.02380639718690313,-0.13988964464902887,0.02975177764892578
2026-01-23 10:42:53.150616,1769136173,145154704,1,210652,0,1769136173,148466071,2,229362,0,1769136173,131814741,3,199418,0,1769136173,135127808,4,218139,0,1769136173,138505898,5,211580,0,1769136173,141799505,6,206933,0,1769136173,143925790,X6-tool2,-0.8960834918269047,1.4122740844566422,43.999915954858224,-0.16675689078192915,-0.023793249119879522,-0.13973724699646034,0.03192679211497307
2026-01-23 10:42:53.185795,1769136173,185147692,1,210652,0,1769136173,168465941,2,229362,0,1769136173,171805049,3,199418,0,1769136173,175115406,4,218139,0,1769136173,178474665,5,211580,0,1769136173,181810834,6,206933,0,1769136173,143925790,X6-tool2,-0.8960834918269047,1.4122740844566422,43.999915954858224,-0.16675689078192915,-0.023793249119879522,-0.13973724699646034,0.03192679211497307
2026-01-23 10:42:53.220800,1769136173,205143022,1,210652,0,1769136173,208504081,2,229362,0,1769136173,211817428,3,199418,0,1769136173,215147666,4,218139,0,1769136173,218486395,5,211580,0,1769136173,201814984,6,206933,0,1769136173,143925790,X6-tool2,-0.8960834918269047,1.4122740844566422,43.999915954858224,-0.16675689078192915,-0.023793249119879522,-0.13973724699646034,0.03192679211497307
2026-01-23 10:42:53.255975,1769136173,245160481,1,210652,0,1769136173,248486019,2,229362,0,1769136173,251812286,3,199418,0,1769136173,255151185,4,218139,0,1769136173,238507635,5,211580,0,1769136173,241811322,6,206933,0,1769136173,243086807,X6-tool2,-0.8876426378960318,1.4231600931936725,44.003054356409734,-0.16662380422351455,-0.023915852215250343,-0.1399375402414742,0.033837318420410156
2026-01-23 10:42:53.290990,1769136173,285138859,1,210652,0,1769136173,288477697,2,229362,0,1769136173,271811626,3,199418,0,1769136173,275136644,4,218139,0,1769136173,278481132,5,211580,0,1769136173,281835202,6,206933,0,1769136173,243086807,X6-tool2,-0.8876426378960318,1.4231600931936725,44.003054356409734,-0.16662380422351455,-0.023915852215250343,-0.1399375402414742,0.033837318420410156
2026-01-23 10:42:53.326315,1769136173,325139107,1,210652,0,1769136173,308475746,2,229362,0,1769136173,311809294,3,199418,0,1769136173,315136332,4,218139,0,1769136173,318478761,5,211580,0,1769136173,321832730,6,206933,0,1769136173,243086807,X6-tool2,-0.8876426378960318,1.4231600931936725,44.003054356409734,-0.16662380422351455,-0.023915852215250343,-0.1399375402414742,0.033837318420410156
2026-01-23 10:42:53.361437,1769136173,345150287,1,210652,0,1769136173,348475175,2,229362,0,1769136173,351763811,3,199418,0,1769136173,355142411,4,218139,0,1769136173,358478600,5,211580,0,1769136173,341803718,6,206933,0,1769136173,343200898,X6-tool2,-0.8660221755407219,1.4058190220513216,44.03755820850295,-0.16550411110617766,-0.023250314492233026,-0.13994231622203163,0.03328768536448479
2026-01-23 10:42:53.397150,1769136173,385142395,1,210652,0,1769136173,388476364,2,229362,0,1769136173,391805991,3,199418,0,1769136173,395144180,4,218139,0,1769136173,378474469,5,211580,0,1769136173,381805727,6,206933,0,1769136173,343200898,X6-tool2,-0.8660221755407219,1.4058190220513216,44.03755820850295,-0.16550411110617766,-0.023250314492233026,-0.13994231622203163,0.03328768536448479
2026-01-23 10:42:53.432083,1769136173,425143994,1,210652,0,1769136173,428478082,2,229362,0,1769136173,411809351,3,199418,0,1769136173,415142219,4,218139,0,1769136173,418501069,5,211580,0,1769136173,421819876,6,206927,0,1769136173,343200898,X6-tool2,-0.8660221755407219,1.4058190220513216,44.03755820850295,-0.16550411110617766,-0.023250314492233026,-0.13994231622203163,0.03328768536448479
2026-01-23 10:42:53.467871,1769136173,465142983,1,210652,0,1769136173,448478021,2,229362,0,1769136173,451808399,3,199418,0,1769136173,455144488,4,218139,0,1769136173,458475516,5,211580,0,1769136173,461807405,6,206927,0,1769136173,442208959,X6-tool2,-0.9240018382828034,1.4482516470214022,43.95448457697528,-0.16675913238832474,-0.024227336830384825,-0.13986550877817372,0.03217633441090584
2026-01-23 10:42:53.503693,1769136173,485140922,1,210652,0,1769136173,488478470,2,229362,0,1769136173,491808448,3,199418,0,1769136173,495077705,4,218139,0,1769136173,498478765,5,211580,0,1769136173,501803323,6,206927,0,1769136173,442208959,X6-tool2,-0.9240018382828034,1.4482516470214022,43.95448457697528,-0.16675913238832474,-0.024227336830384825,-0.13986550877817372,0.03217633441090584
2026-01-23 10:42:53.539096,1769136173,525142091,1,210652,0,1769136173,528472539,2,229362,0,1769136173,531816337,3,199418,0,1769136173,535137225,4,218139,0,1769136173,538472994,5,211580,0,1769136173,521803722,6,206927,0,1769136173,442208959,X6-tool2,-0.9240018382828034,1.4482516470214022,43.95448457697528,-0.16675913238832474,-0.024227336830384825,-0.13986550877817372,0.03217633441090584
2026-01-23 10:42:53.574122,1769136173,565136699,1,210646,0,1769136173,568482168,2,229362,0,1769136173,571805295,3,199418,0,1769136173,555069382,4,218139,0,1769136173,558481063,5,211580,0,1769136173,561832702,6,206927,0,1769136173,541762530,X6-tool2,-0.8573791182594308,1.3833904334878049,44.05513896297077,-0.1660580574770671,-0.0226797647685358,-0.1397085443328433,0.032802265137434006
2026-01-23 10:42:53.609797,1769136173,605143638,1,210646,0,1769136173,608474266,2,229362,0,1769136173,591850996,3,199418,0,1769136173,595141483,4,218139,0,1769136173,598474212,5,211580,0,1769136173,601808620,6,206927,0,1769136173,541762530,X6-tool2,-0.8573791182594308,1.3833904334878049,44.05513896297077,-0.1660580574770671,-0.0226797647685358,-0.1397085443328433,0.032802265137434006
2026-01-23 10:42:53.644674,1769136173,625118886,1,210646,0,1769136173,628454675,2,229362,0,1769136173,631808854,3,199418,0,1769136173,635138292,4,218139,0,1769136173,638504501,5,211580,0,1769136173,641801778,6,206927,0,1769136173,641245398,X6-tool2,-0.8654022319614619,1.4437436028222328,44.01698247002545,-0.165903816097879,-0.02356687773367816,-0.13988381606484834,0.030425390228629112
2026-01-23 10:42:53.680267,1769136173,665137896,1,210646,0,1769136173,668477774,2,229362,0,1769136173,671803552,3,199418,0,1769136173,675141401,4,218139,0,1769136173,678470869,5,211580,0,1769136173,661836629,6,206927,0,1769136173,641245398,X6-tool2,-0.8654022319614619,1.4437436028222328,44.01698247002545,-0.165903816097879,-0.02356687773367816,-0.13988381606484834,0.030425390228629112
2026-01-23 10:42:53.715313,1769136173,705155115,1,210646,0,1769136173,708472453,2,229362,0,1769136173,711817641,3,199418,0,1769136173,695142920,4,218139,0,1769136173,698478528,5,211580,0,1769136173,701803116,6,206927,0,1769136173,641245398,X6-tool2,-0.8654022319614619,1.4437436028222328,44.01698247002545,-0.165903816097879,-0.02356687773367816,-0.13988381606484834,0.030425390228629112
2026-01-23 10:42:53.750659,1769136173,745153354,1,210646,0,1769136173,748445200,2,229362,0,1769136173,731832721,3,199418,0,1769136173,735137568,4,218139,0,1769136173,738497628,5,211580,0,1769136173,741802285,6,206927,0,1769136173,740599762,X6-tool2,-0.909913220866017,1.407376064887637,43.99942109978983,-0.16614881841719115,-0.023435623672973225,-0.13980027385804236,0.0353240966796875
2026-01-23 10:42:53.785825,1769136173,785143212,1,210646,0,1769136173,768499202,2,229362,0,1769136173,771786568,3,199418,0,1769136173,775164768,4,218139,0,1769136173,778469736,5,211580,0,1769136173,781818484,6,206927,0,1769136173,740599762,X6-tool2,-0.909913220866017,1.407376064887637,43.99942109978983,-0.16614881841719115,-0.023435623672973225,-0.13980027385804236,0.0353240966796875
2026-01-23 10:42:53.821111,1769136173,805140451,1,210646,0,1769136173,808499030,2,229362,0,1769136173,811805638,3,199418,0,1769136173,815162067,4,218139,0,1769136173,818483585,5,211580,0,1769136173,801833634,6,206927,0,1769136173,740599762,X6-tool2,-0.909913220866017,1.407376064887637,43.99942109978983,-0.16614881841719115,-0.023435623672973225,-0.13980027385804236,0.0353240966796875
2026-01-23 10:42:53.856563,1769136173,845141970,1,210646,0,1769136173,848498389,2,229362,0,1769136173,851806497,3,199418,0,1769136173,855162836,4,218139,0,1769136173,838488954,5,211580,0,1769136173,841838693,6,206927,0,1769136173,840606589,X6-tool2,-0.8603648045313285,1.4091515488099824,44.051808095827994,-0.166167261057744,-0.023067619161476052,-0.13982889599968715,0.0307744350284338
2026-01-23 10:42:53.891678,1769136173,885139688,1,210646,0,1769136173,888479637,2,229362,0,1769136173,871788515,3,199418,0,1769136173,875138914,4,218139,0,1769136173,878475422,5,211580,0,1769136173,881836762,6,206927,0,1769136173,840606589,X6-tool2,-0.8603648045313285,1.4091515488099824,44.051808095827994,-0.166167261057744,-0.023067619161476052,-0.13982889599968715,0.0307744350284338
2026-01-23 10:42:53.927399,1769136173,925216070,1,210646,0,1769136173,908474746,2,229362,0,1769136173,911811155,3,199418,0,1769136173,915139653,4,218139,0,1769136173,918476441,5,211580,0,1769136173,921802469,6,206927,0,1769136173,840606589,X6-tool2,-0.8603648045313285,1.4091515488099824,44.051808095827994,-0.166167261057744,-0.023067619161476052,-0.13982889599968715,0.0307744350284338
2026-01-23 10:42:53.962428,1769136173,945151807,1,210646,0,1769136173,948481775,2,229362,0,1769136173,951808383,3,199418,0,1769136173,955137591,4,218139,0,1769136173,958504961,5,211580,0,1769136173,961812598,6,206927,0,1769136173,940759371,X6-tool2,-0.8725163525331543,1.4309085405275601,44.008341307475696,-0.16617947531195393,-0.023776120721018278,-0.13983888695009414,0.03300221636891365
2026-01-23 10:42:53.998023,1769136173,985145365,1,210646,0,1769136173,988480264,2,229362,0,1769136173,991808062,3,199418,0,1769136173,995139660,4,218139,0,1769136173,978474549,5,211580,0,1769136173,981808997,6,206927,0,1769136173,940759371,X6-tool2,-0.8725163525331543,1.4309085405275601,44.008341307475696,-0.16617947531195393,-0.023776120721018278,-0.13983888695009414,0.03300221636891365
2026-01-23 10:42:54.033789,1769136174,25147254,1,210646,0,1769136174,28475422,2,229362,0,1769136174,31807930,3,199418,0,1769136174,15138779,4,218139,0,1769136174,18474568,5,211580,0,1769136174,21784315,6,206927,0,1769136173,940759371,X6-tool2,-0.8725163525331543,1.4309085405275601,44.008341307475696,-0.16617947531195393,-0.023776120721018278,-0.13983888695009414,0.03300221636891365
2026-01-23 10:42:54.069081,1769136174,65145133,1,210493,-91,1769136174,68475121,2,229362,0,1769136174,51807179,3,199418,0,1769136174,55141037,4,218139,0,1769136174,58474796,5,211844,118,1769136174,61807204,6,206927,0,1769136174,40682285,X6-tool2,-0.8573937511936072,1.4257545975641464,44.02367435616755,-0.16634194163858307,-0.02379684074390337,-0.13986819296737052,0.03151416778564453
2026-01-23 10:42:54.104245,1769136174,85146262,1,210306,-102,1769136174,88475280,2,229356,-10,1769136174,91808928,3,199539,27,1769136174,95118565,4,218139,0,1769136174,98473724,5,212388,140,1769136174,101806732,6,206933,0,1769136174,40682285,X6-tool2,-0.8573937511936072,1.4257545975641464,44.02367435616755,-0.16634194163858307,-0.02379684074390337,-0.13986819296737052,0.03151416778564453
2026-01-23 10:42:54.139625,1769136174,125143100,1,209921,-104,1769136174,128475148,2,229356,0,1769136174,131805276,3,199688,43,1769136174,135142875,4,218139,0,1769136174,138475793,5,213019,165,1769136174,121802892,6,206933,0,1769136174,40682285,X6-tool2,-0.8573937511936072,1.4257545975641464,44.02367435616755,-0.16634194163858307,-0.02379684074390337,-0.13986819296737052,0.03151416778564453
2026-01-23 10:42:54.174743,1769136174,165146709,1,209504,-103,1769136174,168451716,2,229362,0,1769136174,171784244,3,199863,42,1769136174,155138654,4,218139,0,1769136174,158477162,5,213360,175,1769136174,161809640,6,206933,0,1769136174,140504505,X6-tool2,-0.860638394073604,1.4215904202495122,44.0308352167669,-0.16615565289784037,-0.02330330827567933,-0.13977503056477264,0.031156858429312706
2026-01-23 10:42:54.210402,1769136174,205141777,1,209119,-77,1769136174,208476335,2,229356,0,1769136174,191830355,3,199940,37,1769136174,195137742,4,218139,0,1769136174,198466240,5,213981,140,1769136174,201803438,6,206933,0,1769136174,140504505,X6-tool2,-0.860638394073604,1.4215904202495122,44.0308352167669,-0.16615565289784037,-0.02330330827567933,-0.13977503056477264,0.031156858429312706
2026-01-23 10:42:54.245695,1769136174,245142395,1,208729,-59,1769136174,228474174,2,229362,0,1769136174,231829133,3,200116,50,1769136174,235134511,4,218139,0,1769136174,238491979,5,214557,160,1769136174,241786396,6,206933,0,1769136174,240566333,X6-tool2,-0.8985475181982163,1.4535800880726846,44.00752202268705,-0.16713758902586395,-0.023629570433298806,-0.14019774875468682,0.03043142892420292
2026-01-23 10:42:54.280805,1769136174,265163855,1,208559,-79,1769136174,268474833,2,229356,0,1769136174,271799460,3,200330,59,1769136174,275151889,4,218139,0,1769136174,278465847,5,215145,159,1769136174,261801646,6,206933,0,1769136174,240566333,X6-tool2,-0.8985475181982163,1.4535800880726846,44.00752202268705,-0.16713758902586395,-0.023629570433298806,-0.14019774875468682,0.03043142892420292
2026-01-23 10:42:54.316380,1769136174,305161464,1,208235,-78,1769136174,308481712,2,229356,0,1769136174,311828970,3,200566,67,1769136174,315122607,4,218139,0,1769136174,298520638,5,215442,152,1769136174,301802234,6,206933,0,1769136174,240566333,X6-tool2,-0.8985475181982163,1.4535800880726846,44.00752202268705,-0.16713758902586395,-0.023629570433298806,-0.14019774875468682,0.03043142892420292
2026-01-23 10:42:54.352594,1769136174,345161302,1,207900,-81,1769136174,348480039,2,229362,0,1769136174,351824938,3,200852,64,1769136174,335139877,4,218139,0,1769136174,338562208,5,215942,128,1769136174,341806033,6,206933,0,1769136174,340621181,X6-tool2,-0.8046401925245906,1.4428162839392067,44.093724994778995,-0.17162835833776716,-0.022064276109249388,-0.14125600412337963,0.03181743621826172
2026-01-23 10:42:54.387532,1769136174,385159731,1,207581,-79,1769136174,368474529,2,229362,-6,1769136174,371808357,3,200984,67,1769136174,375142005,4,218139,0,1769136174,378561127,5,216403,96,1769136174,381805262,6,206938,0,1769136174,340621181,X6-tool2,-0.8046401925245906,1.4428162839392067,44.093724994778995,-0.17162835833776716,-0.022064276109249388,-0.14125600412337963,0.03181743621826172
2026-01-23 10:42:54.423179,1769136174,405140949,1,207411,-89,1769136174,408473557,2,229362,0,1769136174,411804315,3,201253,47,1769136174,415137663,4,218145,4,1769136174,418523133,5,216788,96,1769136174,421813920,6,206938,0,1769136174,340621181,X6-tool2,-0.8046401925245906,1.4428162839392067,44.093724994778995,-0.17162835833776716,-0.022064276109249388,-0.14125600412337963,0.03181743621826172
2026-01-23 10:42:54.457982,1769136174,445144607,1,207037,-72,1769136174,448473035,2,229362,0,1769136174,451806204,3,201467,61,1769136174,455137642,4,218145,0,1769136174,438466271,5,216903,54,1769136174,441807099,6,206938,0,1769136174,440535104,X6-tool2,-0.797412497782435,1.508068053523877,44.117537463603135,-0.17809881654128493,-0.0178176332326901,-0.14206736718155624,0.04177665710449219
2026-01-23 10:42:54.493673,1769136174,485142296,1,206735,-80,1769136174,488453653,2,229362,0,1769136174,491804472,3,201731,54,1769136174,475147182,4,218145,0,1769136174,478491790,5,217139,64,1769136174,481807798,6,206938,0,1769136174,440535104,X6-tool2,-0.797412497782435,1.508068053523877,44.117537463603135,-0.17809881654128493,-0.0178176332326901,-0.14206736718155624,0.04177665710449219
2026-01-23 10:42:54.529098,1769136174,525145335,1,206461,-61,1769136174,528488243,2,229362,0,1769136174,511828292,3,201857,64,1769136174,515138829,4,218145,0,1769136174,518465577,5,217288,35,1769136174,521804596,6,206938,0,1769136174,440535104,X6-tool2,-0.797412497782435,1.508068053523877,44.117537463603135,-0.17809881654128493,-0.0178176332326901,-0.14206736718155624,0.04177665710449219
2026-01-23 10:42:54.564123,1769136174,545161044,1,206334,-65,1769136174,548485942,2,229367,0,1769136174,551829181,3,202165,78,1769136174,555138678,4,218145,0,1769136174,558490737,5,217491,64,1769136174,561802074,6,206938,0,1769136174,540433646,X6-tool2,-0.7429817071023355,1.5834909996694762,44.164227842813894,-0.1830265470556509,-0.011613658408384511,-0.14010874269098375,0.033631324768066406
2026-01-23 10:42:54.599814,1769136174,585161292,1,206098,-58,1769136174,588474320,2,229367,0,1769136174,591827369,3,202495,82,1769136174,595140186,4,218145,0,1769136174,598490736,5,217496,0,1769136174,581805014,6,206938,0,1769136174,540433646,X6-tool2,-0.7429817071023355,1.5834909996694762,44.164227842813894,-0.1830265470556509,-0.011613658408384511,-0.14010874269098375,0.033631324768066406
2026-01-23 10:42:54.635044,1769136174,625162941,1,205807,-71,1769136174,628475949,2,229362,0,1769136174,631827457,3,202841,91,1769136174,615134995,4,218145,7,1769136174,618522406,5,217491,0,1769136174,621806172,6,206938,0,1769136174,540433646,X6-tool2,-0.7429817071023355,1.5834909996694762,44.164227842813894,-0.1830265470556509,-0.011613658408384511,-0.14010874269098375,0.033631324768066406
2026-01-23 10:42:54.670234,1769136174,665161989,1,205565,-58,1769136174,668477457,2,229367,0,1769136174,651807196,3,203022,89,1769136174,655137434,4,218145,0,1769136174,658524344,5,217321,-61,1769136174,661807440,6,206938,0,1769136174,640527816,X6-tool2,-0.7743501231180175,1.6344947242165278,44.183312466833556,-0.18604868119645432,-0.006664076553441281,-0.1388298085820092,0.039465587586164474
2026-01-23 10:42:54.705077,1769136174,685143878,1,205461,-55,1769136174,688495857,2,229367,0,1769136174,691809335,3,203401,88,1769136174,695159524,4,218150,0,1769136174,698471921,5,217057,-86,1769136174,701818360,6,206938,0,1769136174,640527816,X6-tool2,-0.7743501231180175,1.6344947242165278,44.183312466833556,-0.18604868119645432,-0.006664076553441281,-0.1388298085820092,0.039465587586164474
2026-01-23 10:42:54.740526,1769136174,725137006,1,205230,-63,1769136174,728494835,2,229367,0,1769136174,731802232,3,203813,109,1769136174,735157741,4,218150,0,1769136174,738466769,5,216733,-80,1769136174,721835679,6,206938,0,1769136174,640527816,X6-tool2,-0.7743501231180175,1.6344947242165278,44.183312466833556,-0.18604868119645432,-0.006664076553441281,-0.1388298085820092,0.039465587586164474
2026-01-23 10:42:54.776675,1769136174,765140865,1,205010,-52,1769136174,768497404,2,229367,0,1769136174,771785661,3,204219,108,1769136174,775163000,4,218150,0,1769136174,758454417,5,216557,-86,1769136174,761834267,6,206944,0,1769136174,740587154,X6-tool2,-0.7265325187203339,1.6190755352321649,44.18213291885606,-0.18725366147116435,-0.003001402488167448,-0.1380960433766304,0.04287688061594963
2026-01-23 10:42:54.811677,1769136174,805136883,1,204774,-63,1769136174,808497232,2,229373,0,1769136174,791780530,3,204379,82,1769136174,795139899,4,218150,0,1769136174,798471437,5,216112,-115,1769136174,801835786,6,206938,0,1769136174,740587154,X6-tool2,-0.7265325187203339,1.6190755352321649,44.18213291885606,-0.18725366147116435,-0.003001402488167448,-0.1380960433766304,0.04287688061594963
2026-01-23 10:42:54.847458,1769136174,845139342,1,204565,-64,1769136174,828458620,2,229373,0,1769136174,831803978,3,204758,96,1769136174,835143157,4,218150,0,1769136174,838474855,5,215596,-126,1769136174,841836075,6,206938,0,1769136174,840469716,X6-tool2,-0.6987973218946909,1.6763676062180006,44.216810380371335,-0.18474389624912665,0.0023841700200431457,-0.13656485315028807,0.033519744873046875
2026-01-23 10:42:54.882436,1769136174,865111210,1,204439,-63,1769136174,868478819,2,229373,5,1769136174,871775936,3,205181,115,1769136174,875165306,4,218150,0,1769136174,878447293,5,215079,-122,1769136174,881820572,6,206938,0,1769136174,840469716,X6-tool2,-0.6987973218946909,1.6763676062180006,44.216810380371335,-0.18474389624912665,0.0023841700200431457,-0.13656485315028807,0.033519744873046875
2026-01-23 10:42:54.917473,1769136174,905137079,1,204219,-52,1769136174,908497388,2,229378,0,1769136174,911802846,3,205659,124,1769136174,915160145,4,218150,0,1769136174,898452412,5,214783,-159,1769136174,901804851,6,206938,0,1769136174,840469716,X6-tool2,-0.6987973218946909,1.6763676062180006,44.216810380371335,-0.18474389624912665,0.0023841700200431457,-0.13656485315028807,0.033519744873046875
2026-01-23 10:42:54.952450,1769136174,945134437,1,204049,-37,1769136174,948494407,2,229378,0,1769136174,951801894,3,206142,123,1769136174,935145803,4,218150,0,1769136174,938454531,5,214167,-124,1769136174,941836471,6,206938,0,1769136174,940430011,X6-tool2,-0.6632366236997888,1.6674288676154436,44.243471368665176,-0.1833879589061491,0.009152423782838537,-0.1351461582703329,0.034819286316633224
2026-01-23 10:42:54.987629,1769136174,985135436,1,203906,-37,1769136174,968480516,2,229384,0,1769136174,971782833,3,206378,114,1769136174,975152002,4,218150,0,1769136174,978471490,5,213525,-162,1769136174,981834159,6,206938,0,1769136174,940430011,X6-tool2,-0.6632366236997888,1.6674288676154436,44.243471368665176,-0.1833879589061491,0.009152423782838537,-0.1351461582703329,0.034819286316633224
2026-01-23 10:42:55.023153,1769136175,5134115,1,203829,-40,1769136175,8481954,2,229384,0,1769136175,11785951,3,206873,108,1769136175,15143780,4,218150,0,1769136175,18452128,5,212871,-170,1769136175,21833707,6,206938,0,1769136174,940430011,X6-tool2,-0.6632366236997888,1.6674288676154436,44.243471368665176,-0.1833879589061491,0.009152423782838537,-0.1351461582703329,0.034819286316633224
2026-01-23 10:42:55.058002,1769136175,45137464,1,203670,-37,1769136175,48456861,2,229384,0,1769136175,51797550,3,207361,108,1769136175,55143008,4,218150,0,1769136175,38446706,5,212509,-170,1769136175,41820856,6,206938,0,1769136175,40280962,X6-tool2,-0.5279208871311363,1.722918894873953,44.255603576895375,-0.17735608266121983,0.016059437094933966,-0.1358349047681832,0.032523155212402344
2026-01-23 10:42:55.093658,1769136175,85115721,1,203555,-30,1769136175,88479830,2,229389,0,1769136175,91798158,3,207867,133,1769136175,75162688,4,218150,0,1769136175,78464645,5,211772,-168,1769136175,81820044,6,206933,0,1769136175,40280962,X6-tool2,-0.5279208871311363,1.722918894873953,44.255603576895375,-0.17735608266121983,0.016059437094933966,-0.1358349047681832,0.032523155212402344
2026-01-23 10:42:55.129106,1769136175,125146960,1,203423,-27,1769136175,128478128,2,229389,0,1769136175,111801407,3,208141,147,1769136175,115139045,4,218150,0,1769136175,118478994,5,211080,-187,1769136175,121811842,6,206933,0,1769136175,40280962,X6-tool2,-0.5279208871311363,1.722918894873953,44.255603576895375,-0.17735608266121983,0.016059437094933966,-0.1358349047681832,0.032523155212402344
2026-01-23 10:42:55.164194,1769136175,145165400,1,203351,-32,1769136175,148477277,2,229395,0,1769136175,151830166,3,208751,164,1769136175,155142043,4,218150,0,1769136175,158491732,5,210394,-168,1769136175,161806300,6,206933,-10,1769136175,140310508,X6-tool2,-0.48766189197581117,1.6458020616108457,44.26095563147739,-0.1714531237281851,0.026526717552624163,-0.13757782268594615,0.032047271728515625
2026-01-23 10:42:55.199933,1769136175,185163918,1,203231,-20,1769136175,188476545,2,229395,0,1769136175,191842035,3,209339,141,1769136175,195118181,4,218150,0,1769136175,198477810,5,209630,-202,1769136175,181808769,6,206927,0,1769136175,140310508,X6-tool2,-0.48766189197581117,1.6458020616108457,44.26095563147739,-0.1714531237281851,0.026526717552624163,-0.13757782268594615,0.032047271728515625
2026-01-23 10:42:55.235238,1769136175,225159886,1,203148,-16,1769136175,228479883,2,229395,-5,1769136175,231797432,3,209905,119,1769136175,215137391,4,218150,0,1769136175,218521630,5,209262,-188,1769136175,221809137,6,206927,0,1769136175,140310508,X6-tool2,-0.48766189197581117,1.6458020616108457,44.26095563147739,-0.1714531237281851,0.026526717552624163,-0.13757782268594615,0.032047271728515625
2026-01-23 10:42:55.270840,1769136175,265161915,1,203060,-37,1769136175,268454191,2,229395,0,1769136175,251806151,3,210201,152,1769136175,255142289,4,218150,0,1769136175,258520848,5,208564,-175,1769136175,261807105,6,206927,0,1769136175,240356835,X6-tool2,-0.3725768935065189,1.7240507883626515,44.35991681244612,-0.15906308326518465,0.04071250238328782,-0.14179467813005284,0.026854196563363075
2026-01-23 10:42:55.306786,1769136175,305161182,1,202874,-65,1769136175,288474490,2,229395,0,1769136175,291810519,3,210789,152,1769136175,295134857,4,218150,0,1769136175,298520967,5,207845,-137,1769136175,301811604,6,206922,0,1769136175,240356835,X6-tool2,-0.3725768935065189,1.7240507883626515,44.35991681244612,-0.15906308326518465,0.04071250238328782,-0.14179467813005284,0.026854196563363075
