timestamp,out_1_header.stamp.sec,out_1_header.stamp.nanosec,out_1_header.frame_id,out_1_val,out_1_speed,out_2_header.stamp.sec,out_2_header.stamp.nanosec,out_2_header.frame_id,out_2_val,out_2_speed,out_3_header.stamp.sec,out_3_header.stamp.nanosec,out_3_header.frame_id,out_3_val,out_3_speed,out_4_header.stamp.sec,out_4_header.stamp.nanosec,out_4_header.frame_id,out_4_val,out_4_speed,out_5_header.stamp.sec,out_5_header.stamp.nanosec,out_5_header.frame_id,out_5_val,out_5_speed,out_6_header.stamp.sec,out_6_header.stamp.nanosec,out_6_header.frame_id,out_6_val,out_6_speed,x6position_pose_rp[0],x6position_pose_rp[1],x6position_pose_rp[2],x6position_pose_rp[3],x6position_pose_rp[4],x6position_pose_rp[5],x6position_joints[0],x6position_joints[1],x6position_joints[2],x6position_joints[3],x6position_joints[4],x6position_joints[5],aimooe_coord_header.stamp.sec,aimooe_coord_header.stamp.nanosec,aimooe_coord_header.frame_id,aimooe_coord_position.x,aimooe_coord_position.y,aimooe_coord_position.z,aimooe_coord_orientation.x,aimooe_coord_orientation.y,aimooe_coord_orientation.z,aimooe_coord_mean_error
2026-02-03 21:27:42.114584,1770125262,107910450,1,229334,-48,1770125262,111221001,2,244979,-60,1770125262,94584535,3,207927,-208,1770125262,97890016,4,230180,-57,1770125262,101217407,5,239310,272,1770125262,104575708,6,221913,-54,0.02172945812344551,-0.036774892359972,45.51858901977539,0.7184579968452454,5.85632848739624,-0.6035979986190796,44.1775016784668,54.64099884033203,39.60100173950195,54.54949951171875,53.9995002746582,54.455501556396484,1770125262,80993640,X6-tool2,-0.22934789625217322,-0.24852287988300711,45.77883883283025,-0.07401363675855265,-0.04282840234902766,-0.07348843587698686,0.048377037048339844
2026-02-03 21:27:42.157380,1770125262,147907064,1,229147,-49,1770125262,151242115,2,244748,-59,1770125262,154568006,3,206680,-203,1770125262,137906100,4,229949,-58,1770125262,141238692,5,240458,287,1770125262,144598313,6,221693,-60,0.019260935485363007,-0.03600030019879341,45.48114776611328,0.7000535726547241,6.2386579513549805,-0.5755283236503601,44.08399963378906,54.52799987792969,39.180999755859375,54.433998107910156,54.57099914550781,54.35100173950195,1770125262,80993640,X6-tool2,-0.22934789625217322,-0.24852287988300711,45.77883883283025,-0.07401363675855265,-0.04282840234902766,-0.07348843587698686,0.048377037048339844
2026-02-03 21:27:42.193168,1770125262,187930278,1,228961,-45,1770125262,191267059,2,244523,-56,1770125262,174574764,3,206257,-192,1770125262,177905205,4,229724,-60,1770125262,181238056,5,241611,305,1770125262,184606167,6,221468,-53,0.01989901252090931,-0.03488745540380478,45.442203521728516,0.6773380041122437,6.620927810668945,-0.5442790389060974,43.990501403808594,54.40999984741211,38.76599884033203,54.32149887084961,55.14500045776367,54.236000061035156,1770125262,181214476,X6-tool2,-0.1230954433398796,-0.318656906788656,45.72817406270829,-0.08718333042773008,-0.04455052481048175,-0.06891816012078847,0.04728412628173828
2026-02-03 21:27:42.228280,1770125262,207934945,1,228878,-39,1770125262,211273727,2,244418,-48,1770125262,214595808,3,205450,-203,1770125262,217937629,4,229488,-64,1770125262,221262960,5,242765,278,1770125262,224603491,6,221221,-64,0.018712902441620827,-0.037777673453092575,45.40434646606445,0.6544704437255859,6.992661952972412,-0.5105785131454468,43.900001525878906,54.30550003051758,38.36249923706055,54.20349884033203,55.73550033569336,54.12350082397461,1770125262,181214476,X6-tool2,-0.1230954433398796,-0.318656906788656,45.72817406270829,-0.08718333042773008,-0.04455052481048175,-0.06891816012078847,0.04728412628173828
2026-02-03 21:27:42.263954,1770125262,247933930,1,228713,-40,1770125262,251268341,2,244237,-44,1770125262,254597002,3,204609,-210,1770125262,257925603,4,229274,-64,1770125262,261264675,5,243929,263,1770125262,244601018,6,221094,-66,0.022006012499332428,-0.041108474135398865,45.38571548461914,0.6348883509635925,7.176746368408203,-0.4827246367931366,43.85900115966797,54.25899887084961,38.15650177001953,54.1515007019043,56.01300048828125,54.057498931884766,1770125262,181214476,X6-tool2,-0.1230954433398796,-0.318656906788656,45.72817406270829,-0.08718333042773008,-0.04455052481048175,-0.06891816012078847,0.04728412628173828
2026-02-03 21:27:42.300384,1770125262,287933374,1,228543,-48,1770125262,291270035,2,244050,-51,1770125262,294597416,3,203780,-193,1770125262,297908228,4,229070,-49,1770125262,281265532,5,244501,300,1770125262,284600443,6,220853,-67,0.02584271878004074,-0.048454225063323975,45.349525451660156,0.5837071537971497,7.553096771240234,-0.4156671166419983,43.77899932861328,54.17100143432617,37.730499267578125,54.04399871826172,56.595001220703125,53.933998107910156,1770125262,280900302,X6-tool2,-0.08404139345748711,-0.17500820480644128,45.747550738261154,-0.10342754985674171,-0.044085990825395646,-0.06399951931870418,0.04626496508717537
2026-02-03 21:27:42.335978,1770125262,327930088,1,228345,-53,1770125262,331244400,2,243847,-49,1770125262,334596091,3,202967,-202,1770125262,317891085,4,228977,-44,1770125262,321236506,5,245654,258,1770125262,324577557,6,220611,-63,0.03173379227519035,-0.05031193792819977,45.313316345214844,0.5365761518478394,7.921616554260254,-0.34709787368774414,43.68600082397461,54.06949996948242,37.32699966430664,53.948001861572266,57.1775016784668,53.8129997253418,1770125262,280900302,X6-tool2,-0.08404139345748711,-0.17500820480644128,45.747550738261154,-0.10342754985674171,-0.044085990825395646,-0.06399951931870418,0.04626496508717537
2026-02-03 21:27:42.371420,1770125262,367930243,1,228148,-60,1770125262,351244877,2,243743,-48,1770125262,354596588,3,202549,-216,1770125262,357914689,4,228785,-48,1770125262,361236670,5,246830,291,1770125262,364577981,6,220375,-50,0.03764066472649574,-0.05216106027364731,45.27702713012695,0.4741431772708893,8.289093971252441,-0.25805550813674927,43.58700180053711,53.96799850463867,36.9119987487793,53.85200119018555,57.75149917602539,53.69200134277344,1770125262,280900302,X6-tool2,-0.08404139345748711,-0.17500820480644128,45.747550738261154,-0.10342754985674171,-0.044085990825395646,-0.06399951931870418,0.04626496508717537
2026-02-03 21:27:42.407166,1770125262,387929830,1,228060,-36,1770125262,391229661,2,243490,-58,1770125262,394596472,3,201698,-206,1770125262,397897523,4,228576,-51,1770125262,401235565,5,247978,300,1770125262,404572136,6,220144,-54,0.040244344621896744,-0.04773019999265671,45.23748016357422,0.38990792632102966,8.665467262268066,-0.1676233410835266,43.49100112915039,53.84149932861328,36.48649978637695,53.747501373291016,58.32849884033203,53.576499938964844,1770125262,381298007,X6-tool2,-0.1819917968013613,-0.19495109006218067,45.67374141367897,-0.11951931047410543,-0.04585556865182081,-0.05881733804790022,0.046314239501953125
2026-02-03 21:27:42.443240,1770125262,427931264,1,227856,-56,1770125262,431248085,2,243276,-53,1770125262,434592586,3,200874,-200,1770125262,437907358,4,228351,-58,1770125262,441259399,5,249137,296,1770125262,424573333,6,220034,-52,0.04156157374382019,-0.04698355495929718,45.218379974365234,0.34767967462539673,8.848407745361328,-0.11833290755748749,43.44150161743164,53.784000396728516,36.27799987792969,53.695499420166016,58.61949920654297,53.51900100708008,1770125262,381298007,X6-tool2,-0.1819917968013613,-0.19495109006218067,45.67374141367897,-0.11951931047410543,-0.04585556865182081,-0.05881733804790022,0.046314239501953125
2026-02-03 21:27:42.478798,1770125262,467928758,1,227637,-49,1770125262,471243690,2,243045,-66,1770125262,474593761,3,200045,-208,1770125262,477887222,4,228098,-63,1770125262,461279826,5,249730,288,1770125262,464556877,6,219825,-48,0.037177205085754395,-0.05032515153288841,45.17966079711914,0.2702351212501526,9.188972473144531,-0.019648347049951553,43.33150100708008,53.679500579833984,35.874000549316406,53.569000244140625,59.19900131225586,53.4119987487793,1770125262,381298007,X6-tool2,-0.1819917968013613,-0.19495109006218067,45.67374141367897,-0.11951931047410543,-0.04585556865182081,-0.05881733804790022,0.046314239501953125
2026-02-03 21:27:42.514229,1770125262,507929153,1,227428,-48,1770125262,511240324,2,242814,-59,1770125262,494592828,3,199622,-210,1770125262,497905389,4,227961,-76,1770125262,501258240,5,250845,179,1770125262,504578182,6,219595,-57,0.03284533694386482,-0.049315474927425385,45.13804244995117,0.1644609421491623,9.544794082641602,0.09040361642837524,43.22700119018555,53.555999755859375,35.44850158691406,53.439998626708984,59.778499603271484,53.301998138427734,1770125262,481020713,X6-tool2,-0.2654921928507879,-0.3176655903305678,45.50173486555881,-0.13435719404419127,-0.05162169678571487,-0.05269359040553052,0.044871967285871506
2026-02-03 21:27:42.550026,1770125262,547928597,1,227269,-8,1770125262,531237791,2,242699,-61,1770125262,534591872,3,198781,-199,1770125262,537907303,4,227692,-50,1770125262,541260375,5,251049,10,1770125262,544569426,6,219386,-54,0.027288401499390602,-0.052703361958265305,45.09723663330078,0.023665716871619225,9.838072776794434,0.24259436130523682,43.119998931884766,53.44599914550781,35.02799987792969,53.30550003051758,60.13850021362305,53.19200134277344,1770125262,481020713,X6-tool2,-0.2654921928507879,-0.3176655903305678,45.50173486555881,-0.13435719404419127,-0.05162169678571487,-0.05269359040553052,0.044871967285871506
2026-02-03 21:27:42.586661,1770125262,567930984,1,227263,0,1770125262,571240035,2,242441,-57,1770125262,574593167,3,198600,-10,1770125262,577911948,4,227461,-52,1770125262,581259429,5,251060,0,1770125262,584577610,6,219194,-27,0.024606456980109215,-0.04758279025554657,45.057037353515625,0.0024787667207419872,9.919102668762207,0.19400683045387268,43.092498779296875,53.31700134277344,34.9375,53.189998626708984,60.160499572753906,53.0880012512207,1770125262,580984289,X6-tool2,-0.20260726620529934,-0.4485416746127774,45.47348069705946,-0.14716321522782697,-0.057186171574989314,-0.04461976143725057,0.055579185485839844
2026-02-03 21:27:42.621916,1770125262,607930759,1,227258,0,1770125262,611242490,2,242188,-82,1770125262,614595391,3,198589,0,1770125262,617908462,4,227241,-48,1770125262,621233533,5,251060,0,1770125262,604573667,6,219172,-5,0.021446332335472107,-0.04501374438405037,45.03832244873047,0.010362113825976849,9.93612289428711,0.14247767627239227,43.09000015258789,53.256500244140625,34.93199920654297,53.13249969482422,60.160499572753906,53.04399871826172,1770125262,580984289,X6-tool2,-0.20260726620529934,-0.4485416746127774,45.47348069705946,-0.14716321522782697,-0.057186171574989314,-0.04461976143725057,0.055579185485839844
2026-02-03 21:27:42.657353,1770125262,647927773,1,227258,0,1770125262,651246104,2,241924,-53,1770125262,654592555,3,198589,0,1770125262,637904079,4,227170,-10,1770125262,641233420,5,251060,0,1770125262,644553082,6,219166,0,0.0037532837595790625,-0.020505603402853012,45.010013580322266,0.011023570783436298,9.96955394744873,0.03875410184264183,43.09000015258789,53.11349868774414,34.93199920654297,53.044498443603516,60.160499572753906,53.029998779296875,1770125262,580984289,X6-tool2,-0.20260726620529934,-0.4485416746127774,45.47348069705946,-0.14716321522782697,-0.057186171574989314,-0.04461976143725057,0.055579185485839844
2026-02-03 21:27:42.693014,1770125262,687934577,1,227258,0,1770125262,691241618,2,241875,-5,1770125262,674595062,3,198589,0,1770125262,677905624,4,227153,0,1770125262,681235915,5,251060,-5,1770125262,684578946,6,219166,0,0.001433106604963541,-0.001728717819787562,45.000465393066406,0.004090665373951197,9.998000144958496,0.001996990293264389,43.09000015258789,53.03950119018555,34.93199920654297,53.0359992980957,60.160499572753906,53.029998779296875,1770125262,681049525,X6-tool2,-0.1582419096607094,-0.27848479150936944,45.41479621873164,-0.15032303113232076,-0.05878054685456737,-0.044549350836938825,0.044272422790527344
2026-02-03 21:27:42.728634,1770125262,727928982,1,227258,0,1770125262,711239585,2,241875,-5,1770125262,714595637,3,198589,0,1770125262,717906448,4,227148,0,1770125262,721233919,5,251060,0,1770125262,724579890,6,219166,0,0.0008285889052785933,-0.0005924732540734112,44.99953842163086,0.004090665373951197,9.998000144958496,0.001996990293264389,43.09000015258789,53.034000396728516,34.93199920654297,53.03350067138672,60.160499572753906,53.029998779296875,1770125262,681049525,X6-tool2,-0.1582419096607094,-0.27848479150936944,45.41479621873164,-0.15032303113232076,-0.05878054685456737,-0.044549350836938825,0.044272422790527344
2026-02-03 21:27:42.763689,1770125262,747927529,1,227258,0,1770125262,751243110,2,241875,0,1770125262,754597311,3,198583,0,1770125262,757904282,4,227148,0,1770125262,761234953,5,251060,0,1770125262,744592147,6,219166,0,0.0008285889052785933,-0.0005924732540734112,44.99953842163086,0.004090665373951197,9.998000144958496,0.001996990293264389,43.09000015258789,53.034000396728516,34.92900085449219,53.03350067138672,60.160499572753906,53.029998779296875,1770125262,681049525,X6-tool2,-0.1582419096607094,-0.27848479150936944,45.41479621873164,-0.15032303113232076,-0.05878054685456737,-0.044549350836938825,0.044272422790527344
2026-02-03 21:27:42.799804,1770125262,787928913,1,227258,0,1770125262,791240594,2,241875,0,1770125262,794594675,3,198583,0,1770125262,797912167,4,227148,0,1770125262,781232990,5,251060,0,1770125262,784575062,6,219166,0,0.0008285889052785933,-0.0005924732540734112,44.99953842163086,0.004090665373951197,9.998000144958496,0.001996990293264389,43.09000015258789,53.034000396728516,34.92900085449219,53.03350067138672,60.160499572753906,53.029998779296875,1770125262,781159041,X6-tool2,-0.21111548665276414,-0.35353579128068,45.36950726009091,-0.15091564445458225,-0.05957605439492505,-0.044627434226443476,0.04757086560130119
2026-02-03 21:27:42.835475,1770125262,827929897,1,227258,0,1770125262,831246218,2,241875,0,1770125262,834596249,3,198583,0,1770125262,817909414,4,227148,0,1770125262,821260635,5,251060,0,1770125262,824574306,6,219166,0,0.0008285889052785933,-0.0005924732540734112,44.99953842163086,0.004090665373951197,9.998000144958496,0.001996990293264389,43.09000015258789,53.034000396728516,34.92900085449219,53.03350067138672,60.160499572753906,53.029998779296875,1770125262,781159041,X6-tool2,-0.21111548665276414,-0.35353579128068,45.36950726009091,-0.15091564445458225,-0.05957605439492505,-0.044627434226443476,0.04757086560130119
2026-02-03 21:27:42.870853,1770125262,867927521,1,227258,0,1770125262,851245055,2,241875,0,1770125262,854599197,3,198583,0,1770125262,857919498,4,227148,0,1770125262,861238339,5,251060,0,1770125262,864578510,6,219166,0,0.0008285889052785933,-0.0005924732540734112,44.99953842163086,0.004090665373951197,9.998000144958496,0.001996990293264389,43.09000015258789,53.034000396728516,34.92900085449219,53.03350067138672,60.160499572753906,53.029998779296875,1770125262,781159041,X6-tool2,-0.21111548665276414,-0.35353579128068,45.36950726009091,-0.15091564445458225,-0.05957605439492505,-0.044627434226443476,0.04757086560130119
2026-02-03 21:27:42.906827,1770125262,887930739,1,227258,0,1770125262,891243500,2,241875,0,1770125262,894592721,3,198583,0,1770125262,897906402,4,227148,0,1770125262,901235083,5,251060,0,1770125262,904552525,6,219166,0,0.0008285889052785933,-0.0005924732540734112,44.99953842163086,0.004090665373951197,9.998000144958496,0.001996990293264389,43.09000015258789,53.034000396728516,34.92900085449219,53.03350067138672,60.160499572753906,53.029998779296875,1770125262,881126396,X6-tool2,-0.20390577007065155,-0.3898776242894673,45.349946319077894,-0.15046093415700623,-0.05973258464617069,-0.044639734749967235,0.047710102051496506
2026-02-03 21:27:42.942999,1770125262,927929023,1,227258,0,1770125262,931239614,2,241875,0,1770125262,934594675,3,198583,0,1770125262,937887997,4,227148,0,1770125262,941234618,5,251060,0,1770125262,924572182,6,219166,0,0.0008285889052785933,-0.0005924732540734112,44.99953842163086,0.004090665373951197,9.998000144958496,0.001996990293264389,43.09000015258789,53.034000396728516,34.92900085449219,53.03350067138672,60.160499572753906,53.029998779296875,1770125262,881126396,X6-tool2,-0.20390577007065155,-0.3898776242894673,45.349946319077894,-0.15046093415700623,-0.05973258464617069,-0.044639734749967235,0.047710102051496506
2026-02-03 21:27:42.978462,1770125262,967928047,1,227258,0,1770125262,971242529,2,241875,0,1770125262,974595740,3,198583,0,1770125262,977901921,4,227148,0,1770125262,961258395,5,251060,0,1770125262,964553206,6,219166,0,0.0008285889052785933,-0.0005924732540734112,44.99953842163086,0.004090665373951197,9.998000144958496,0.001996990293264389,43.09000015258789,53.034000396728516,34.92900085449219,53.03350067138672,60.160499572753906,53.029998779296875,1770125262,881126396,X6-tool2,-0.20390577007065155,-0.3898776242894673,45.349946319077894,-0.15046093415700623,-0.05973258464617069,-0.044639734749967235,0.047710102051496506
2026-02-03 21:27:43.013755,1770125263,7927482,1,227258,0,1770125263,11240513,2,241870,0,1770125262,994592977,3,198583,0,1770125262,997907898,4,227148,0,1770125263,1260059,5,251060,0,1770125263,4572650,6,219166,0,0.0008165607578121126,8.202800381695852e-05,44.99924850463867,0.0016256427625194192,10.002082824707031,-0.0006708994042128325,43.09000015258789,53.03150177001953,34.92900085449219,53.03350067138672,60.160499572753906,53.029998779296875,1770125262,981001612,X6-tool2,-0.14329057101347548,-0.3457211534189307,45.44014577132786,-0.15106593301703058,-0.058707857387332314,-0.04466065908463792,0.04708035662770271
2026-02-03 21:27:43.049413,1770125263,47925116,1,227258,0,1770125263,31244190,2,241870,0,1770125263,34595471,3,198583,0,1770125263,37906152,4,227148,0,1770125263,41262403,5,251060,0,1770125263,44571105,6,219166,0,0.0008165607578121126,8.202800381695852e-05,44.99924850463867,0.0016256427625194192,10.002082824707031,-0.0006708994042128325,43.09000015258789,53.03150177001953,34.92900085449219,53.03350067138672,60.160499572753906,53.029998779296875,1770125262,981001612,X6-tool2,-0.14329057101347548,-0.3457211534189307,45.44014577132786,-0.15106593301703058,-0.058707857387332314,-0.04466065908463792,0.04708035662770271
2026-02-03 21:27:43.085339,1770125263,67929033,1,227258,0,1770125263,71242044,2,241870,0,1770125263,74594665,3,198583,0,1770125263,77906096,4,227148,0,1770125263,81236678,5,251054,0,1770125263,84572919,6,219166,0,0.0008165607578121126,8.202800381695852e-05,44.99924850463867,0.0016256427625194192,10.002082824707031,-0.0006708994042128325,43.09000015258789,53.03150177001953,34.92900085449219,53.03350067138672,60.157501220703125,53.029998779296875,1770125263,80792618,X6-tool2,-0.22131312477769377,-0.33599309756007223,45.34467863761532,-0.15122100935153843,-0.06001004550621922,-0.04468651207803137,0.04879315569996834
2026-02-03 21:27:43.120418,1770125263,107930507,1,227258,0,1770125263,111239999,2,241870,0,1770125263,114595060,3,198583,0,1770125263,117886511,4,227148,0,1770125263,101258145,5,251054,0,1770125263,104573396,6,219166,0,0.0008165607578121126,8.202800381695852e-05,44.99924850463867,0.0016256427625194192,10.002082824707031,-0.0006708994042128325,43.09000015258789,53.03150177001953,34.92900085449219,53.03350067138672,60.157501220703125,53.029998779296875,1770125263,80792618,X6-tool2,-0.22131312477769377,-0.33599309756007223,45.34467863761532,-0.15122100935153843,-0.06001004550621922,-0.04468651207803137,0.04879315569996834
2026-02-03 21:27:43.156813,1770125263,147924832,1,227258,0,1770125263,151243583,2,241870,0,1770125263,154594444,3,198583,0,1770125263,137908278,4,227148,0,1770125263,141261119,5,251054,0,1770125263,144573040,6,219166,0,0.0008165607578121126,8.202800381695852e-05,44.99924850463867,0.0016256427625194192,10.002082824707031,-0.0006708994042128325,43.09000015258789,53.03150177001953,34.92900085449219,53.03350067138672,60.157501220703125,53.029998779296875,1770125263,80792618,X6-tool2,-0.22131312477769377,-0.33599309756007223,45.34467863761532,-0.15122100935153843,-0.06001004550621922,-0.04468651207803137,0.04879315569996834
2026-02-03 21:27:43.192744,1770125263,187930776,1,227258,0,1770125263,191243147,2,241870,0,1770125263,174593791,3,198583,0,1770125263,177907142,4,227148,0,1770125263,181234553,5,251054,0,1770125263,184574365,6,219166,0,0.0008165607578121126,8.202800381695852e-05,44.99924850463867,0.0016256427625194192,10.002082824707031,-0.0006708994042128325,43.09000015258789,53.03150177001953,34.92900085449219,53.03350067138672,60.157501220703125,53.029998779296875,1770125263,181230573,X6-tool2,-0.19805294866411635,-0.3989547972823431,45.381577015924414,-0.15096955801075895,-0.059131899734812754,-0.04459476892337949,0.04407342150807381
2026-02-03 21:27:43.228111,1770125263,207929763,1,227258,0,1770125263,211241684,2,241870,0,1770125263,214569296,3,198583,0,1770125263,217907857,4,227148,0,1770125263,221234758,5,251054,0,1770125263,224555289,6,219166,0,0.0008165607578121126,8.202800381695852e-05,44.99924850463867,0.0016256427625194192,10.002082824707031,-0.0006708994042128325,43.09000015258789,53.03150177001953,34.92900085449219,53.03350067138672,60.157501220703125,53.029998779296875,1770125263,181230573,X6-tool2,-0.19805294866411635,-0.3989547972823431,45.381577015924414,-0.15096955801075895,-0.059131899734812754,-0.04459476892337949,0.04407342150807381
2026-02-03 21:27:43.264000,1770125263,247932197,1,227258,0,1770125263,251238398,2,241870,0,1770125263,254597050,3,198583,0,1770125263,257897121,4,227148,0,1770125263,261235132,5,251054,0,1770125263,244572236,6,219166,5,0.0008165607578121126,8.202800381695852e-05,44.99924850463867,0.0016256427625194192,10.002082824707031,-0.0006708994042128325,43.09000015258789,53.03150177001953,34.92900085449219,53.03350067138672,60.157501220703125,53.029998779296875,1770125263,181230573,X6-tool2,-0.19805294866411635,-0.3989547972823431,45.381577015924414,-0.15096955801075895,-0.059131899734812754,-0.04459476892337949,0.04407342150807381
2026-02-03 21:27:43.299708,1770125263,287934822,1,227258,0,1770125263,291245873,2,241870,0,1770125263,294596074,3,198583,0,1770125263,297902075,4,227148,0,1770125263,281258899,5,251054,0,1770125263,284557230,6,219166,0,0.0008165607578121126,8.202800381695852e-05,44.99924850463867,0.0016256427625194192,10.002082824707031,-0.0006708994042128325,43.09000015258789,53.03150177001953,34.92900085449219,53.03350067138672,60.157501220703125,53.029998779296875,1770125263,280849729,X6-tool2,-0.1662768418067751,-0.29736124799805613,45.432207294260465,-0.1513453260013515,-0.0592184627970019,-0.044769108907977036,0.04429467394948006
2026-02-03 21:27:43.335603,1770125263,327929326,1,227258,0,1770125263,331238597,2,241870,0,1770125263,334594208,3,198583,0,1770125263,317905802,4,227148,0,1770125263,321235114,5,251054,0,1770125263,324570245,6,219166,0,0.0008165607578121126,8.202800381695852e-05,44.99924850463867,0.0016256427625194192,10.002082824707031,-0.0006708994042128325,43.09000015258789,53.03150177001953,34.92900085449219,53.03350067138672,60.157501220703125,53.029998779296875,1770125263,280849729,X6-tool2,-0.1662768418067751,-0.29736124799805613,45.432207294260465,-0.1513453260013515,-0.0592184627970019,-0.044769108907977036,0.04429467394948006
2026-02-03 21:27:43.370757,1770125263,367928150,1,227258,0,1770125263,351242114,2,241870,0,1770125263,354595766,3,198583,0,1770125263,357908917,4,227148,0,1770125263,361259258,5,251054,0,1770125263,364573819,6,219166,0,0.0008165607578121126,8.202800381695852e-05,44.99924850463867,0.0016256427625194192,10.002082824707031,-0.0006708994042128325,43.09000015258789,53.03150177001953,34.92900085449219,53.03350067138672,60.157501220703125,53.029998779296875,1770125263,280849729,X6-tool2,-0.1662768418067751,-0.29736124799805613,45.432207294260465,-0.1513453260013515,-0.0592184627970019,-0.044769108907977036,0.04429467394948006
2026-02-03 21:27:43.406977,1770125263,387930687,1,227258,0,1770125263,391248809,2,241870,0,1770125263,394595730,3,198583,0,1770125263,397909011,4,227148,0,1770125263,401259802,5,251054,0,1770125263,404573193,6,219166,0,0.0008165607578121126,8.202800381695852e-05,44.99924850463867,0.0016256427625194192,10.002082824707031,-0.0006708994042128325,43.09000015258789,53.03150177001953,34.92900085449219,53.03350067138672,60.157501220703125,53.029998779296875,1770125263,381227965,X6-tool2,-0.1837645037624286,-0.3216142933248921,45.408827106046886,-0.15137031643123788,-0.05919622461115909,-0.044731721602157895,0.04064464569091797
2026-02-03 21:27:43.442356,1770125263,427929472,1,227258,0,1770125263,431241613,2,241870,0,1770125263,434595874,3,198583,0,1770125263,437910835,4,227148,0,1770125263,441262426,5,251054,0,1770125263,424571660,6,219166,0,0.0008165607578121126,8.202800381695852e-05,44.99924850463867,0.0016256427625194192,10.002082824707031,-0.0006708994042128325,43.09000015258789,53.03150177001953,34.92900085449219,53.03350067138672,60.157501220703125,53.029998779296875,1770125263,381227965,X6-tool2,-0.1837645037624286,-0.3216142933248921,45.408827106046886,-0.15137031643123788,-0.05919622461115909,-0.044731721602157895,0.04064464569091797
2026-02-03 21:27:43.478015,1770125263,467930436,1,227258,0,1770125263,471241007,2,241870,0,1770125263,474595729,3,198583,0,1770125263,457892723,4,227148,0,1770125263,461259804,5,251054,0,1770125263,464571895,6,219166,0,0.0008165607578121126,8.202800381695852e-05,44.99924850463867,0.0016256427625194192,10.002082824707031,-0.0006708994042128325,43.09000015258789,53.03150177001953,34.92900085449219,53.03350067138672,60.157501220703125,53.029998779296875,1770125263,381227965,X6-tool2,-0.1837645037624286,-0.3216142933248921,45.408827106046886,-0.15137031643123788,-0.05919622461115909,-0.044731721602157895,0.04064464569091797
2026-02-03 21:27:43.513733,1770125263,507931840,1,227258,0,1770125263,511243782,2,241870,-5,1770125263,494597406,3,198583,0,1770125263,497908997,4,227148,0,1770125263,501263278,5,251054,0,1770125263,504571169,6,219166,0,0.0008165607578121126,8.202800381695852e-05,44.99924850463867,0.0016256427625194192,10.002082824707031,-0.0006708994042128325,43.09000015258789,53.03150177001953,34.92900085449219,53.03350067138672,60.157501220703125,53.029998779296875,1770125263,481112871,X6-tool2,-0.17508404923778564,-0.3936036943748429,45.37123882855436,-0.1508271880585593,-0.05999814163273527,-0.0445420489000099,0.04509925842285156
2026-02-03 21:27:43.549782,1770125263,547908575,1,227258,0,1770125263,531285709,2,241870,0,1770125263,534571400,3,198583,0,1770125263,537929461,4,227148,0,1770125263,541240822,5,251054,0,1770125263,544595894,6,219166,0,0.0008165607578121126,8.202800381695852e-05,44.99924850463867,0.0016256427625194192,10.002082824707031,-0.0006708994042128325,43.09000015258789,53.03150177001953,34.92900085449219,53.03350067138672,60.157501220703125,53.029998779296875,1770125263,481112871,X6-tool2,-0.17508404923778564,-0.3936036943748429,45.37123882855436,-0.1508271880585593,-0.05999814163273527,-0.0445420489000099,0.04509925842285156
2026-02-03 21:27:43.585198,1770125263,567908542,1,227258,0,1770125263,571267893,2,241870,-5,1770125263,574575184,3,198583,0,1770125263,577927485,4,227148,0,1770125263,581250476,5,251054,0,1770125263,584528098,6,219166,0,0.0008165607578121126,8.202800381695852e-05,44.99924850463867,0.0016256427625194192,10.002082824707031,-0.0006708994042128325,43.09000015258789,53.03150177001953,34.92900085449219,53.03350067138672,60.157501220703125,53.029998779296875,1770125263,581005536,X6-tool2,-0.2107200792768485,-0.3480364139849246,45.3280513705744,-0.15033229255028335,-0.060582655103647826,-0.044692920004426394,0.04492759704589844
2026-02-03 21:27:43.620909,1770125263,607932216,1,227258,0,1770125263,611239507,2,241870,0,1770125263,614599059,3,198583,0,1770125263,617896360,4,227148,0,1770125263,601261984,5,251054,0,1770125263,604575115,6,219166,0,0.0008165607578121126,8.202800381695852e-05,44.99924850463867,0.0016256427625194192,10.002082824707031,-0.0006708994042128325,43.09000015258789,53.03150177001953,34.92900085449219,53.03350067138672,60.157501220703125,53.029998779296875,1770125263,581005536,X6-tool2,-0.2107200792768485,-0.3480364139849246,45.3280513705744,-0.15033229255028335,-0.060582655103647826,-0.044692920004426394,0.04492759704589844
2026-02-03 21:27:43.657048,1770125263,647931711,1,227258,0,1770125263,651252292,2,241870,0,1770125263,654610753,3,198583,0,1770125263,637907907,4,227148,0,1770125263,641236408,5,251054,0,1770125263,644574479,6,219166,0,0.0008165607578121126,8.202800381695852e-05,44.99924850463867,0.0016256427625194192,10.002082824707031,-0.0006708994042128325,43.09000015258789,53.03150177001953,34.92900085449219,53.03350067138672,60.157501220703125,53.029998779296875,1770125263,581005536,X6-tool2,-0.2107200792768485,-0.3480364139849246,45.3280513705744,-0.15033229255028335,-0.060582655103647826,-0.044692920004426394,0.04492759704589844
2026-02-03 21:27:43.692933,1770125263,687933695,1,227258,0,1770125263,691241346,2,241870,0,1770125263,674574940,3,198583,0,1770125263,677930381,4,227148,0,1770125263,681256082,5,251054,0,1770125263,684652204,6,219172,0,0.0008165607578121126,8.202800381695852e-05,44.99924850463867,0.0016256427625194192,10.002082824707031,-0.0006708994042128325,43.09000015258789,53.03150177001953,34.92900085449219,53.03350067138672,60.157501220703125,53.029998779296875,1770125263,681057832,X6-tool2,-0.31634096361162845,-0.4023414303144768,45.24473611329624,-0.14970463925699432,-0.06081977423815312,-0.04463149262342967,0.04141489788889885
2026-02-03 21:27:43.728222,1770125263,707932092,1,227258,0,1770125263,711241733,2,241870,0,1770125263,714599574,3,198583,0,1770125263,717905816,4,227148,0,1770125263,721235097,5,251054,0,1770125263,724576258,6,219172,0,0.00010841115727089345,0.0004742217424791306,44.999595642089844,0.0016256427625194192,10.002082824707031,-0.0006708994042128325,43.09000015258789,53.03150177001953,34.92900085449219,53.03350067138672,60.157501220703125,53.03300094604492,1770125263,681057832,X6-tool2,-0.31634096361162845,-0.4023414303144768,45.24473611329624,-0.14970463925699432,-0.06081977423815312,-0.04463149262342967,0.04141489788889885
2026-02-03 21:27:43.764203,1770125263,747910276,1,227258,0,1770125263,751269087,2,241870,0,1770125263,754574989,3,198583,0,1770125263,757929890,4,227148,0,1770125263,761238781,5,251054,0,1770125263,744598635,6,219172,0,0.00010841115727089345,0.0004742217424791306,44.999595642089844,0.0016256427625194192,10.002082824707031,-0.0006708994042128325,43.09000015258789,53.03150177001953,34.92900085449219,53.03350067138672,60.157501220703125,53.03300094604492,1770125263,681057832,X6-tool2,-0.31634096361162845,-0.4023414303144768,45.24473611329624,-0.14970463925699432,-0.06081977423815312,-0.04463149262342967,0.04141489788889885
2026-02-03 21:27:43.800019,1770125263,787909670,1,227258,0,1770125263,791267852,2,241870,0,1770125263,794571323,3,198583,0,1770125263,797924504,4,227148,0,1770125263,781247748,5,251054,0,1770125263,784596679,6,219172,0,0.00010841115727089345,0.0004742217424791306,44.999595642089844,0.0016256427625194192,10.002082824707031,-0.0006708994042128325,43.09000015258789,53.03150177001953,34.92900085449219,53.03350067138672,60.157501220703125,53.03300094604492,1770125263,781105068,X6-tool2,-0.17745113521741876,-0.3726701577380494,45.391263709273424,-0.1512874483208607,-0.05996025565816222,-0.044664367079373,0.042522430419921875
2026-02-03 21:27:43.836469,1770125263,827913935,1,227258,0,1770125263,831267196,2,241870,0,1770125263,834574157,3,198583,0,1770125263,817928221,4,227148,0,1770125263,821220932,5,251054,0,1770125263,824596934,6,219172,0,0.00010841115727089345,0.0004742217424791306,44.999595642089844,0.0016256427625194192,10.002082824707031,-0.0006708994042128325,43.09000015258789,53.03150177001953,34.92900085449219,53.03350067138672,60.157501220703125,53.03300094604492,1770125263,781105068,X6-tool2,-0.17745113521741876,-0.3726701577380494,45.391263709273424,-0.1512874483208607,-0.05996025565816222,-0.044664367079373,0.042522430419921875
2026-02-03 21:27:43.871838,1770125263,867928779,1,227258,0,1770125263,871243630,2,241870,0,1770125263,854596224,3,198583,0,1770125263,857897075,4,227148,0,1770125263,861237687,5,251054,0,1770125263,864578458,6,219172,0,0.00010841115727089345,0.0004742217424791306,44.999595642089844,0.0016256427625194192,10.002082824707031,-0.0006708994042128325,43.09000015258789,53.03150177001953,34.92900085449219,53.03350067138672,60.157501220703125,53.03300094604492,1770125263,781105068,X6-tool2,-0.17745113521741876,-0.3726701577380494,45.391263709273424,-0.1512874483208607,-0.05996025565816222,-0.044664367079373,0.042522430419921875
2026-02-03 21:27:43.907568,1770125263,887932516,1,227258,-4,1770125263,891243258,2,241870,0,1770125263,894601369,3,198583,0,1770125263,897904920,4,227148,0,1770125263,901240051,5,251054,0,1770125263,904596692,6,219172,0,0.00010841115727089345,0.0004742217424791306,44.999595642089844,0.0016256427625194192,10.002082824707031,-0.0006708994042128325,43.09000015258789,53.03150177001953,34.92900085449219,53.03350067138672,60.157501220703125,53.03300094604492,1770125263,880991414,X6-tool2,-0.18874060947134988,-0.2855665601498368,45.37388212120596,-0.15099623468716364,-0.059717901080808364,-0.044867293510764544,0.040587108582258224
2026-02-03 21:27:43.943310,1770125263,927932420,1,227258,0,1770125263,931238262,2,241870,0,1770125263,934594643,3,198583,0,1770125263,937903094,4,227148,0,1770125263,941262915,5,251054,0,1770125263,924572489,6,219172,0,0.00010841115727089345,0.0004742217424791306,44.999595642089844,0.0016256427625194192,10.002082824707031,-0.0006708994042128325,43.09000015258789,53.03150177001953,34.92900085449219,53.03350067138672,60.157501220703125,53.03300094604492,1770125263,880991414,X6-tool2,-0.18874060947134988,-0.2855665601498368,45.37388212120596,-0.15099623468716364,-0.059717901080808364,-0.044867293510764544,0.040587108582258224
2026-02-03 21:27:43.979307,1770125263,967865565,1,227258,3,1770125263,971246826,2,241870,0,1770125263,974598047,3,198583,0,1770125263,977905029,4,227148,0,1770125263,961238552,5,251054,0,1770125263,964596354,6,219172,0,0.00010841115727089345,0.0004742217424791306,44.999595642089844,0.0016256427625194192,10.002082824707031,-0.0006708994042128325,43.09000015258789,53.03150177001953,34.92900085449219,53.03350067138672,60.157501220703125,53.03300094604492,1770125263,880991414,X6-tool2,-0.18874060947134988,-0.2855665601498368,45.37388212120596,-0.15099623468716364,-0.059717901080808364,-0.044867293510764544,0.040587108582258224
2026-02-03 21:27:44.014343,1770125264,7906659,1,227258,0,1770125264,11266280,2,241870,0,1770125263,994570834,3,198583,0,1770125263,997921426,4,227148,0,1770125264,1242737,5,251054,0,1770125264,4596058,6,219172,0,0.00010841115727089345,0.0004742217424791306,44.999595642089844,0.0016256427625194192,10.002082824707031,-0.0006708994042128325,43.09000015258789,53.03150177001953,34.92900085449219,53.03350067138672,60.157501220703125,53.03300094604492,1770125263,981026590,X6-tool2,-0.16846410445452406,-0.38990941088536146,45.40614893839604,-0.1508178971990143,-0.059610197353057635,-0.04471453320055953,0.04393799975514412
2026-02-03 21:27:44.050357,1770125264,47932863,1,227258,-1,1770125264,31239528,2,241870,0,1770125264,34599229,3,198583,0,1770125264,37882610,4,227148,0,1770125264,41235951,5,251054,0,1770125264,44571452,6,219172,0,0.00010841115727089345,0.0004742217424791306,44.999595642089844,0.0016256427625194192,10.002082824707031,-0.0006708994042128325,43.09000015258789,53.03150177001953,34.92900085449219,53.03350067138672,60.157501220703125,53.03300094604492,1770125263,981026590,X6-tool2,-0.16846410445452406,-0.38990941088536146,45.40614893839604,-0.1508178971990143,-0.059610197353057635,-0.04471453320055953,0.04393799975514412
2026-02-03 21:27:44.085922,1770125264,67927701,1,227258,0,1770125264,71223282,2,241870,0,1770125264,74568093,3,198583,0,1770125264,77931034,4,227148,0,1770125264,81215045,5,251054,0,1770125264,84597337,6,219172,0,0.00010841115727089345,0.0004742217424791306,44.999595642089844,0.0016256427625194192,10.002082824707031,-0.0006708994042128325,43.09000015258789,53.03150177001953,34.92900085449219,53.03350067138672,60.157501220703125,53.03300094604492,1770125264,80948925,X6-tool2,-0.2130250562522864,-0.3603141041170658,45.344175955279376,-0.15093480062337514,-0.06060180364913155,-0.04468118966245041,0.04508431628346443
2026-02-03 21:27:44.121487,1770125264,107932625,1,227258,0,1770125264,111243036,2,241870,0,1770125264,114597667,3,198583,0,1770125264,117899468,4,227142,-5,1770125264,101241162,5,251054,0,1770125264,104573084,6,219172,0,0.00010841115727089345,0.0004742217424791306,44.999595642089844,0.0016256427625194192,10.002082824707031,-0.0006708994042128325,43.09000015258789,53.03150177001953,34.92900085449219,53.03350067138672,60.157501220703125,53.03300094604492,1770125264,80948925,X6-tool2,-0.2130250562522864,-0.3603141041170658,45.344175955279376,-0.15093480062337514,-0.06060180364913155,-0.04468118966245041,0.04508431628346443
2026-02-03 21:27:44.157539,1770125264,147912579,1,227258,0,1770125264,151278600,2,241870,0,1770125264,154574492,3,198583,0,1770125264,137904616,4,227148,0,1770125264,141239637,5,251054,0,1770125264,144601068,6,219172,0,0.00010841115727089345,0.0004742217424791306,44.999595642089844,0.0016256427625194192,10.002082824707031,-0.0006708994042128325,43.09000015258789,53.03150177001953,34.92900085449219,53.03350067138672,60.157501220703125,53.03300094604492,1770125264,80948925,X6-tool2,-0.2130250562522864,-0.3603141041170658,45.344175955279376,-0.15093480062337514,-0.06060180364913155,-0.04468118966245041,0.04508431628346443
2026-02-03 21:27:44.193492,1770125264,187909373,1,227258,0,1770125264,191270195,2,241870,0,1770125264,174575619,3,198583,0,1770125264,177933680,4,227142,-3,1770125264,181248281,5,251054,0,1770125264,184595152,6,219172,0,-0.000585329660680145,5.7029363233596087e-05,44.99924850463867,0.0016256427625194192,10.002082824707031,-0.0006708994042128325,43.09000015258789,53.03150177001953,34.92900085449219,53.03049850463867,60.157501220703125,53.03300094604492,1770125264,189649864,X6-tool2,-0.2513162180512091,-0.44113440522720065,45.307872823151506,-0.15152570294039383,-0.05999470707799545,-0.044886621806181665,0.036060016602277756
2026-02-03 21:27:44.228832,1770125264,227932258,1,227258,0,1770125264,211272472,2,241870,0,1770125264,214596023,3,198583,0,1770125264,217919264,4,227148,3,1770125264,221236376,5,251054,0,1770125264,224598847,6,219172,0,0.00010841115727089345,0.0004742217424791306,44.999595642089844,0.0016256427625194192,10.002082824707031,-0.0006708994042128325,43.09000015258789,53.03150177001953,34.92900085449219,53.03350067138672,60.157501220703125,53.03300094604492,1770125264,189649864,X6-tool2,-0.2513162180512091,-0.44113440522720065,45.307872823151506,-0.15152570294039383,-0.05999470707799545,-0.044886621806181665,0.036060016602277756
2026-02-03 21:27:44.264377,1770125264,247980425,1,227258,5,1770125264,251270006,2,241870,0,1770125264,254597417,3,198583,0,1770125264,257907649,4,227148,0,1770125264,261237050,5,251054,0,1770125264,244599844,6,219172,0,0.00010841115727089345,0.0004742217424791306,44.999595642089844,0.0016256427625194192,10.002082824707031,-0.0006708994042128325,43.09000015258789,53.03150177001953,34.92900085449219,53.03350067138672,60.157501220703125,53.03300094604492,1770125264,189649864,X6-tool2,-0.2513162180512091,-0.44113440522720065,45.307872823151506,-0.15152570294039383,-0.05999470707799545,-0.044886621806181665,0.036060016602277756
2026-02-03 21:27:44.300193,1770125264,287933789,1,227258,0,1770125264,291355630,2,241870,0,1770125264,294583662,3,198583,0,1770125264,297930763,4,227142,0,1770125264,281266337,5,251054,0,1770125264,284581058,6,219172,0,0.00010841115727089345,0.0004742217424791306,44.999595642089844,0.0016256427625194192,10.002082824707031,-0.0006708994042128325,43.09000015258789,53.03150177001953,34.92900085449219,53.03350067138672,60.157501220703125,53.03300094604492,1770125264,289057610,X6-tool2,-0.1028534367701925,-0.3405608793091747,45.44379272087835,-0.15121281706906226,-0.05926280288749773,-0.044823077510293456,0.040191650390625
2026-02-03 21:27:44.336873,1770125264,327932294,1,227258,0,1770125264,331250405,2,241870,0,1770125264,334600196,3,198583,0,1770125264,317907410,4,227148,0,1770125264,321263501,5,251054,0,1770125264,324576562,6,219172,0,0.00010841115727089345,0.0004742217424791306,44.999595642089844,0.0016256427625194192,10.002082824707031,-0.0006708994042128325,43.09000015258789,53.03150177001953,34.92900085449219,53.03350067138672,60.157501220703125,53.03300094604492,1770125264,289057610,X6-tool2,-0.1028534367701925,-0.3405608793091747,45.44379272087835,-0.15121281706906226,-0.05926280288749773,-0.044823077510293456,0.040191650390625
2026-02-03 21:27:44.372489,1770125264,367922648,1,227258,0,1770125264,371244309,2,241870,0,1770125264,354583763,3,198583,0,1770125264,357888684,4,227142,0,1770125264,361208455,5,251054,0,1770125264,364595897,6,219172,0,-0.000585329660680145,5.7029363233596087e-05,44.99924850463867,0.0016256427625194192,10.002082824707031,-0.0006708994042128325,43.09000015258789,53.03150177001953,34.92900085449219,53.03049850463867,60.157501220703125,53.03300094604492,1770125264,289057610,X6-tool2,-0.1028534367701925,-0.3405608793091747,45.44379272087835,-0.15121281706906226,-0.05926280288749773,-0.044823077510293456,0.040191650390625
2026-02-03 21:27:44.408045,1770125264,387913145,1,227258,0,1770125264,391268456,2,241870,0,1770125264,394579447,3,198583,0,1770125264,397931949,4,227148,0,1770125264,401242230,5,251054,0,1770125264,404598981,6,219172,0,0.00010841115727089345,0.0004742217424791306,44.999595642089844,0.0016256427625194192,10.002082824707031,-0.0006708994042128325,43.09000015258789,53.03150177001953,34.92900085449219,53.03350067138672,60.157501220703125,53.03300094604492,1770125264,388276965,X6-tool2,-0.21489536352990007,-0.35320397446809826,45.33454032240553,-0.1507200945616637,-0.060404373016066125,-0.044701434954985506,0.041256267577409744
2026-02-03 21:27:44.443638,1770125264,427913179,1,227258,0,1770125264,431278960,2,241870,0,1770125264,434574872,3,198583,0,1770125264,437907103,4,227142,-5,1770125264,441244734,5,251054,0,1770125264,424582788,6,219172,0,-0.000585329660680145,5.7029363233596087e-05,44.99924850463867,0.0016256427625194192,10.002082824707031,-0.0006708994042128325,43.09000015258789,53.03150177001953,34.92900085449219,53.03049850463867,60.157501220703125,53.03300094604492,1770125264,388276965,X6-tool2,-0.21489536352990007,-0.35320397446809826,45.33454032240553,-0.1507200945616637,-0.060404373016066125,-0.044701434954985506,0.041256267577409744
2026-02-03 21:27:44.479734,1770125264,467939204,1,227258,0,1770125264,471242855,2,241870,0,1770125264,474604346,3,198583,0,1770125264,477954607,4,227142,0,1770125264,461334821,5,251054,0,1770125264,464577003,6,219172,0,0.00010841115727089345,0.0004742217424791306,44.999595642089844,0.0016256427625194192,10.002082824707031,-0.0006708994042128325,43.09000015258789,53.03150177001953,34.92900085449219,53.03350067138672,60.157501220703125,53.03300094604492,1770125264,388276965,X6-tool2,-0.21489536352990007,-0.35320397446809826,45.33454032240553,-0.1507200945616637,-0.060404373016066125,-0.044701434954985506,0.041256267577409744
2026-02-03 21:27:44.514886,1770125264,507941438,1,227258,0,1770125264,511247639,2,241870,0,1770125264,494578683,3,198583,0,1770125264,497887304,4,227142,-5,1770125264,501299476,5,251054,0,1770125264,504578107,6,219172,0,-0.000585329660680145,5.7029363233596087e-05,44.99924850463867,0.0016256427625194192,10.002082824707031,-0.0006708994042128325,43.09000015258789,53.03150177001953,34.92900085449219,53.03049850463867,60.157501220703125,53.03300094604492,1770125264,487608171,X6-tool2,-0.21291773947619294,-0.3733279478085483,45.31386225416436,-0.1514724686460919,-0.06073408123917773,-0.04491812235324062,0.0427653007209301
2026-02-03 21:27:44.550861,1770125264,548021442,1,227258,5,1770125264,531247896,2,241870,0,1770125264,534574197,3,198583,0,1770125264,537908519,4,227142,0,1770125264,541243200,5,251054,0,1770125264,544580021,6,219172,0,-0.000585329660680145,5.7029363233596087e-05,44.99924850463867,0.0016256427625194192,10.002082824707031,-0.0006708994042128325,43.09000015258789,53.03150177001953,34.92900085449219,53.03049850463867,60.157501220703125,53.03300094604492,1770125264,487608171,X6-tool2,-0.21291773947619294,-0.3733279478085483,45.31386225416436,-0.1514724686460919,-0.06073408123917773,-0.04491812235324062,0.0427653007209301
2026-02-03 21:27:44.586581,1770125264,567911769,1,227258,0,1770125264,571174761,2,241870,0,1770125264,574578662,3,198583,0,1770125264,577916423,4,227148,0,1770125264,581247344,5,251054,0,1770125264,584576285,6,219172,0,0.00010841115727089345,0.0004742217424791306,44.999595642089844,0.0016256427625194192,10.002082824707031,-0.0006708994042128325,43.09000015258789,53.03150177001953,34.92900085449219,53.03350067138672,60.157501220703125,53.03300094604492,1770125264,487608171,X6-tool2,-0.21291773947619294,-0.3733279478085483,45.31386225416436,-0.1514724686460919,-0.06073408123917773,-0.04491812235324062,0.0427653007209301
2026-02-03 21:27:44.622980,1770125264,607912464,1,227258,0,1770125264,611247835,2,241870,0,1770125264,614576556,3,198583,0,1770125264,617972587,4,227148,0,1770125264,621238288,5,251054,0,1770125264,604566602,6,219172,0,0.00010841115727089345,0.0004742217424791306,44.999595642089844,0.0016256427625194192,10.002082824707031,-0.0006708994042128325,43.09000015258789,53.03150177001953,34.92900085449219,53.03350067138672,60.157501220703125,53.03300094604492,1770125264,586993566,X6-tool2,-0.08370166871647759,-0.3356981100406134,45.451520365518576,-0.1509457965838502,-0.059907987145083594,-0.04462233538221323,0.04399299621582031
2026-02-03 21:27:44.658128,1770125264,647911778,1,227258,-3,1770125264,651239049,2,241870,0,1770125264,654668691,3,198583,0,1770125264,637905665,4,227148,0,1770125264,641244466,5,251054,0,1770125264,644573187,6,219172,0,0.00010841115727089345,0.0004742217424791306,44.999595642089844,0.0016256427625194192,10.002082824707031,-0.0006708994042128325,43.09000015258789,53.03150177001953,34.92900085449219,53.03350067138672,60.157501220703125,53.03300094604492,1770125264,586993566,X6-tool2,-0.08370166871647759,-0.3356981100406134,45.451520365518576,-0.1509457965838502,-0.059907987145083594,-0.04462233538221323,0.04399299621582031
2026-02-03 21:27:44.694081,1770125264,687909702,1,227258,0,1770125264,691241244,2,241870,0,1770125264,674558878,3,198583,0,1770125264,677814999,4,227148,0,1770125264,681237750,5,251054,0,1770125264,684573341,6,219172,0,0.00010841115727089345,0.0004742217424791306,44.999595642089844,0.0016256427625194192,10.002082824707031,-0.0006708994042128325,43.09000015258789,53.03150177001953,34.92900085449219,53.03350067138672,60.157501220703125,53.03300094604492,1770125264,687114362,X6-tool2,-0.1973000400411647,-0.3807160197605067,45.35865097354171,-0.1505892298177748,-0.05970295756725706,-0.04479157722344309,0.045571643859148026
2026-02-03 21:27:44.729875,1770125264,727908587,1,227258,0,1770125264,711240461,2,241870,0,1770125264,714572572,3,198583,0,1770125264,717904723,4,227148,0,1770125264,721236474,5,251054,0,1770125264,724568996,6,219172,0,0.00010841115727089345,0.0004742217424791306,44.999595642089844,0.0016256427625194192,10.002082824707031,-0.0006708994042128325,43.09000015258789,53.03150177001953,34.92900085449219,53.03350067138672,60.157501220703125,53.03300094604492,1770125264,687114362,X6-tool2,-0.1973000400411647,-0.3807160197605067,45.35865097354171,-0.1505892298177748,-0.05970295756725706,-0.04479157722344309,0.045571643859148026
2026-02-03 21:27:44.765500,1770125264,747926754,1,227258,0,1770125264,751239395,2,241870,0,1770125264,754574096,3,198583,0,1770125264,757911707,4,227148,0,1770125264,761205698,5,251054,0,1770125264,764572370,6,219172,0,0.00010841115727089345,0.0004742217424791306,44.999595642089844,0.0016256427625194192,10.002082824707031,-0.0006708994042128325,43.09000015258789,53.03150177001953,34.92900085449219,53.03350067138672,60.157501220703125,53.03300094604492,1770125264,687114362,X6-tool2,-0.1973000400411647,-0.3807160197605067,45.35865097354171,-0.1505892298177748,-0.05970295756725706,-0.04479157722344309,0.045571643859148026
2026-02-03 21:27:44.800705,1770125264,787908718,1,227258,-2,1770125264,791242339,2,241870,0,1770125264,794572850,3,198583,0,1770125264,797906472,4,227148,0,1770125264,781165856,5,251054,0,1770125264,784572807,6,219172,0,0.00010841115727089345,0.0004742217424791306,44.999595642089844,0.0016256427625194192,10.002082824707031,-0.0006708994042128325,43.09000015258789,53.03150177001953,34.92900085449219,53.03350067138672,60.157501220703125,53.03300094604492,1770125264,786202518,X6-tool2,-0.18502969252065365,-0.3687509260862224,45.32865886816525,-0.15046938115359856,-0.060320266549373475,-0.044736528626327834,0.041256267577409744
2026-02-03 21:27:44.837337,1770125264,827907922,1,227258,0,1770125264,831250294,2,241870,0,1770125264,834574795,3,198583,0,1770125264,817908739,4,227148,0,1770125264,821240780,5,251054,0,1770125264,824652221,6,219172,0,0.00010841115727089345,0.0004742217424791306,44.999595642089844,0.0016256427625194192,10.002082824707031,-0.0006708994042128325,43.09000015258789,53.03150177001953,34.92900085449219,53.03350067138672,60.157501220703125,53.03300094604492,1770125264,786202518,X6-tool2,-0.18502969252065365,-0.3687509260862224,45.32865886816525,-0.15046938115359856,-0.060320266549373475,-0.044736528626327834,0.041256267577409744
2026-02-03 21:27:44.872853,1770125264,867910757,1,227258,0,1770125264,871317838,2,241870,0,1770125264,854572322,3,198583,0,1770125264,857895503,4,227148,0,1770125264,861231304,5,251054,0,1770125264,864576835,6,219172,0,0.00010841115727089345,0.0004742217424791306,44.999595642089844,0.0016256427625194192,10.002082824707031,-0.0006708994042128325,43.09000015258789,53.03150177001953,34.92900085449219,53.03350067138672,60.157501220703125,53.03300094604492,1770125264,786202518,X6-tool2,-0.18502969252065365,-0.3687509260862224,45.32865886816525,-0.15046938115359856,-0.060320266549373475,-0.044736528626327834,0.041256267577409744
2026-02-03 21:27:44.908758,1770125264,907919451,1,227258,0,1770125264,891241545,2,241870,0,1770125264,894510826,3,198583,0,1770125264,897932558,4,227148,0,1770125264,901217709,5,251054,0,1770125264,904600420,6,219172,0,0.00010841115727089345,0.0004742217424791306,44.999595642089844,0.0016256427625194192,10.002082824707031,-0.0006708994042128325,43.09000015258789,53.03150177001953,34.92900085449219,53.03350067138672,60.157501220703125,53.03300094604492,1770125264,885593963,X6-tool2,-0.07505800691058737,-0.29593027745440503,45.45604577739582,-0.15104069350426622,-0.059495398333791194,-0.04480850164079422,0.046568553894758224
2026-02-03 21:27:44.944067,1770125264,927911418,1,227258,-5,1770125264,931269249,2,241870,0,1770125264,934575811,3,198583,0,1770125264,937930912,4,227148,0,1770125264,941241373,5,251054,0,1770125264,924597227,6,219172,0,0.00010841115727089345,0.0004742217424791306,44.999595642089844,0.0016256427625194192,10.002082824707031,-0.0006708994042128325,43.09000015258789,53.03150177001953,34.92900085449219,53.03350067138672,60.157501220703125,53.03300094604492,1770125264,885593963,X6-tool2,-0.07505800691058737,-0.29593027745440503,45.45604577739582,-0.15104069350426622,-0.059495398333791194,-0.04480850164079422,0.046568553894758224
2026-02-03 21:27:44.980155,1770125264,967909512,1,227258,0,1770125264,971270214,2,241870,0,1770125264,974571835,3,198583,0,1770125264,977931166,4,227148,0,1770125264,961220180,5,251054,0,1770125264,964597111,6,219172,0,0.00010841115727089345,0.0004742217424791306,44.999595642089844,0.0016256427625194192,10.002082824707031,-0.0006708994042128325,43.09000015258789,53.03150177001953,34.92900085449219,53.03350067138672,60.157501220703125,53.03300094604492,1770125264,885593963,X6-tool2,-0.07505800691058737,-0.29593027745440503,45.45604577739582,-0.15104069350426622,-0.059495398333791194,-0.04480850164079422,0.046568553894758224
2026-02-03 21:27:45.016166,1770125265,7912147,1,226901,-199,1770125265,11268538,2,241870,0,1770125265,14575999,3,198655,32,1770125264,997913403,4,227148,0,1770125265,1242684,5,251054,0,1770125265,4599676,6,219172,0,0.00010841115727089345,0.0004742217424791306,44.999595642089844,0.0016256427625194192,10.002082824707031,-0.0006708994042128325,43.09000015258789,53.03150177001953,34.92900085449219,53.03350067138672,60.157501220703125,53.03300094604492,1770125264,985279469,X6-tool2,-0.19406613389269403,-0.3489805428039213,45.351420679695465,-0.15085452478082645,-0.06033989088713689,-0.04474559838805494,0.04410076141357422
2026-02-03 21:27:45.051233,1770125265,47910491,1,226198,-175,1770125265,31270585,2,241875,0,1770125265,34551746,3,198737,42,1770125265,37917617,4,227148,0,1770125265,41240229,5,252389,353,1770125265,44580370,6,219172,0,0.00012042774324072525,-0.00020026227866765112,44.99988555908203,0.27604392170906067,9.962153434753418,0.04556163772940636,42.733001708984375,53.034000396728516,35.00600051879883,53.03350067138672,60.479000091552734,53.03300094604492,1770125264,985279469,X6-tool2,-0.19406613389269403,-0.3489805428039213,45.351420679695465,-0.15085452478082645,-0.06033989088713689,-0.04474559838805494,0.04410076141357422
2026-02-03 21:27:45.087262,1770125265,67910938,1,225824,-190,1770125265,71242560,2,241880,0,1770125265,74574621,3,199023,77,1770125265,77893432,4,227153,0,1770125265,81218853,5,253773,317,1770125265,84573894,6,219166,0,0.000710530555807054,-0.0005271098925732076,45.000465393066406,0.6495994925498962,9.967995643615723,0.0052380748093128204,42.37300109863281,53.0364990234375,35.14899826049805,53.0359992980957,61.19850158691406,53.03300094604492,1770125265,84802274,X6-tool2,-0.28402435458271874,-0.356043703806732,45.322205401229716,-0.1517689431686984,-0.05585807889162529,-0.04866878977524764,0.04079373553395271
2026-02-03 21:27:45.122812,1770125265,107907522,1,225027,-194,1770125265,111240284,2,241886,5,1770125265,114575615,3,199380,85,1770125265,117906756,4,227153,0,1770125265,121239107,5,255086,324,1770125265,104573421,6,219166,0,0.001418682630173862,-0.0009193394798785448,45.000118255615234,0.8433552980422974,9.952186584472656,-0.009959493763744831,42.18349838256836,53.0364990234375,35.23149871826172,53.0359992980957,61.516998291015625,53.029998779296875,1770125265,84802274,X6-tool2,-0.28402435458271874,-0.356043703806732,45.322205401229716,-0.1517689431686984,-0.05585807889162529,-0.04866878977524764,0.04079373553395271
2026-02-03 21:27:45.158744,1770125265,147907097,1,224236,-168,1770125265,151242408,2,241886,8,1770125265,154572439,3,199720,98,1770125265,157908560,4,227153,0,1770125265,141242445,5,255685,306,1770125265,144572856,6,219166,0,0.001433106604963541,-0.001728717819787562,45.000465393066406,1.2608166933059692,9.903264045715332,-0.02171972207725048,41.76300048828125,53.03950119018555,35.40700149536133,53.0359992980957,62.173500061035156,53.029998779296875,1770125265,84802274,X6-tool2,-0.28402435458271874,-0.356043703806732,45.322205401229716,-0.1517689431686984,-0.05585807889162529,-0.04866878977524764,0.04079373553395271
2026-02-03 21:27:45.193964,1770125265,187913441,1,223506,-178,1770125265,191241962,2,241880,0,1770125265,174599717,3,199891,83,1770125265,177911908,4,227153,0,1770125265,181244219,5,256926,290,1770125265,184577790,6,219166,0,0.001433106604963541,-0.001728717819787562,45.000465393066406,1.6462996006011963,9.847264289855957,-0.03710004687309265,41.38949966430664,53.03950119018555,35.58300018310547,53.0359992980957,62.775001525878906,53.029998779296875,1770125265,184110140,X6-tool2,-0.14271995734362228,-0.26036978109380615,45.45130443400005,-0.15512043668060488,-0.04466459976736195,-0.05730445115656014,0.04323736950755119
2026-02-03 21:27:45.229855,1770125265,227906325,1,222825,-178,1770125265,211244779,2,241880,0,1770125265,214570901,3,200270,107,1770125265,217900372,4,227159,-5,1770125265,221216043,5,258030,291,1770125265,224579884,6,219161,0,0.0021123429760336876,-0.0005022086552344263,45.000465393066406,2.022063970565796,9.786099433898926,-0.06403273344039917,41.04650115966797,53.0364990234375,35.772499084472656,53.03900146484375,63.37099838256836,53.029998779296875,1770125265,184110140,X6-tool2,-0.14271995734362228,-0.26036978109380615,45.45130443400005,-0.15512043668060488,-0.04466459976736195,-0.05730445115656014,0.04323736950755119
2026-02-03 21:27:45.265676,1770125265,247930533,1,222451,-191,1770125265,251256044,2,241886,0,1770125265,254596665,3,200841,137,1770125265,257891226,4,227159,0,1770125265,261239197,5,259080,251,1770125265,264584099,6,219161,0,0.0027168893720954657,-0.001638494897633791,45.00052261352539,2.225741386413574,9.734691619873047,-0.08535537123680115,40.87350082397461,53.03950119018555,35.893001556396484,53.03900146484375,63.64550018310547,53.02750015258789,1770125265,184110140,X6-tool2,-0.14271995734362228,-0.26036978109380615,45.45130443400005,-0.15512043668060488,-0.04466459976736195,-0.05730445115656014,0.04323736950755119
2026-02-03 21:27:45.301437,1770125265,287929217,1,221754,-175,1770125265,291252718,2,241891,0,1770125265,294598139,3,201275,74,1770125265,297914170,4,227159,0,1770125265,281232404,5,259574,257,1770125265,284586366,6,219161,0,0.0027168893720954657,-0.001638494897633791,45.00052261352539,2.6581454277038574,9.608478546142578,-0.12630335986614227,40.50550079345703,53.03950119018555,36.162498474121094,53.03900146484375,64.17050170898438,53.02750015258789,1770125265,283727185,X6-tool2,-0.14081125168943068,-0.19372782100111052,45.35478551159844,-0.15398576326266888,-0.03311004492279999,-0.06348603037868149,0.04584820941090584
2026-02-03 21:27:45.337438,1770125265,327929601,1,221116,-166,1770125265,331259122,2,241891,0,1770125265,334597384,3,201742,106,1770125265,317921928,4,227159,0,1770125265,321263289,5,260502,206,1770125265,324587710,6,219161,0,0.0027168893720954657,-0.001638494897633791,45.00052261352539,3.0369043350219727,9.504595756530762,-0.14590327441692352,40.175498962402344,53.03950119018555,36.38750076293945,53.03900146484375,64.6729965209961,53.02750015258789,1770125265,283727185,X6-tool2,-0.14081125168943068,-0.19372782100111052,45.35478551159844,-0.15398576326266888,-0.03311004492279999,-0.06348603037868149,0.04584820941090584
2026-02-03 21:27:45.372940,1770125265,367931026,1,220446,-178,1770125265,371257327,2,241886,0,1770125265,354594851,3,201995,126,1770125265,357904792,4,227153,0,1770125265,361261683,5,261326,216,1770125265,364590404,6,219155,0,0.002743505872786045,-0.0031223685946315527,45.000118255615234,3.42020583152771,9.372511863708496,-0.1617872565984726,39.84600067138672,53.04199981689453,36.6349983215332,53.0359992980957,65.08499908447266,53.02450180053711,1770125265,283727185,X6-tool2,-0.14081125168943068,-0.19372782100111052,45.35478551159844,-0.15398576326266888,-0.03311004492279999,-0.06348603037868149,0.04584820941090584
2026-02-03 21:27:45.408079,1770125265,387931173,1,220150,-140,1770125265,391233914,2,241886,7,1770125265,394595245,3,202549,118,1770125265,397915616,4,227153,0,1770125265,401261147,5,261936,139,1770125265,404584599,6,219155,0,0.002731465036049485,-0.00244787335395813,44.99982833862305,3.8033928871154785,9.224893569946289,-0.1919255256652832,39.5359992980957,53.03950119018555,36.9119987487793,53.0359992980957,65.44200134277344,53.02450180053711,1770125265,382901641,X6-tool2,-0.14598776957328904,-0.2756225031366785,45.35784665418216,-0.15179073707366178,-0.019154046391611546,-0.06740517948026868,0.04564476013183594
